type,name,lat,lon,total,total_per_100k_inhabitants
1,Abadia de Goiás/GO,-16.7572644,-49.4412205,1208,13485.15294
D1,Abadia de Goiás/GO,-16.7572644,-49.4412205,19,212.10092
1,Abadia dos Dourados/MG,-18.4911191,-47.4063589,343,4895.80360
D1,Abadia dos Dourados/MG,-18.4911191,-47.4063589,12,171.28176
1,Abadiânia/GO,-16.1940946,-48.7067767,312,1524.85216
D1,Abadiânia/GO,-16.1940946,-48.7067767,25,122.18367
1,Abaetetuba/PA,-1.721828,-48.878843,6472,4068.39326
D1,Abaetetuba/PA,-1.721828,-48.878843,167,104.97863
1,Abaeté/MG,-19.1566833,-45.4481213,877,3772.04301
D1,Abaeté/MG,-19.1566833,-45.4481213,18,77.41935
1,Abaiara/CE,-7.3607808,-39.0487878,356,3003.45904
D1,Abaiara/CE,-7.3607808,-39.0487878,8,67.49346
1,Abaré/BA,-8.7239913,-39.1139689,644,3165.08576
D1,Abaré/BA,-8.7239913,-39.1139689,4,19.65892
1,Abatiá/PR,-23.3052967,-50.3102532,474,6398.48812
D1,Abatiá/PR,-23.3052967,-50.3102532,7,94.49244
1,Abaíra/BA,-13.2503296,-41.6640342,247,2835.82090
D1,Abaíra/BA,-13.2503296,-41.6640342,9,103.32951
1,Abdon Batista/SC,-27.612419,-51.022992,269,10557.29984
D1,Abdon Batista/SC,-27.612419,-51.022992,2,78.49294
1,Abel Figueiredo/PA,-4.953001,-48.3958485,778,10392.73310
D1,Abel Figueiredo/PA,-4.953001,-48.3958485,6,80.14961
1,Abelardo Luz/SC,-26.5705893,-52.3280339,1182,6581.29176
D1,Abelardo Luz/SC,-26.5705893,-52.3280339,40,222.71715
1,Abre Campo/MG,-20.2976097,-42.4764741,833,6196.07260
D1,Abre Campo/MG,-20.2976097,-42.4764741,11,81.82089
1,Abreu e Lima/PE,-7.900719,-34.898389,2150,2142.58665
D1,Abreu e Lima/PE,-7.900719,-34.898389,177,176.38969
1,Abreulândia/TO,-9.6221526,-49.1558343,235,9059.36777
D1,Abreulândia/TO,-9.6221526,-49.1558343,5,192.75251
1,Acaiaca/MG,-20.3621646,-43.1444162,203,5082.62394
D1,Acaiaca/MG,-20.3621646,-43.1444162,7,175.26289
1,Acajutiba/BA,-11.6609659,-38.0186381,464,3055.24462
D1,Acajutiba/BA,-11.6609659,-38.0186381,13,85.59953
1,Acarape/CE,-4.2237866,-38.7071663,2372,15775.47220
D1,Acarape/CE,-4.2237866,-38.7071663,19,126.36339
1,Acaraú/CE,-2.8869514,-40.1194713,4211,6673.11105
D1,Acaraú/CE,-2.8869514,-40.1194713,88,139.45233
1,Acari/RN,-6.4364689,-36.6394777,761,6842.90981
D1,Acari/RN,-6.4364689,-36.6394777,10,89.91997
1,Acará/PA,-1.961388,-48.1987043,1076,1932.85311
D1,Acará/PA,-1.961388,-48.1987043,24,43.11197
1,Acauã/PI,-8.219542,-41.083059,175,2464.09462
D1,Acauã/PI,-8.219542,-41.083059,1,14.08054
1,Aceguá/RS,-31.8695131,-54.1615593,270,5463.37515
D1,Aceguá/RS,-31.8695131,-54.1615593,3,60.70417
1,Acopiara/CE,-6.0936464,-39.4543204,2408,4419.88950
D1,Acopiara/CE,-6.0936464,-39.4543204,97,178.04372
1,Acorizal/MT,-15.2001544,-56.3668953,426,7986.50169
D1,Acorizal/MT,-15.2001544,-56.3668953,16,299.96250
1,Acrelândia/AC,-10.0759167,-67.0526898,1416,9141.38154
D1,Acrelândia/AC,-10.0759167,-67.0526898,26,167.85023
1,Acreúna/GO,-17.3959899,-50.3749031,1470,6520.00355
D1,Acreúna/GO,-17.3959899,-50.3749031,38,168.54431
1,Adamantina/SP,-21.6866517,-51.0762975,2245,6394.00758
D1,Adamantina/SP,-21.6866517,-51.0762975,62,176.58284
1,Adelândia/GO,-16.4155077,-50.1665834,108,4292.52782
D1,Adelândia/GO,-16.4155077,-50.1665834,2,79.49126
1,Adolfo/SP,-21.2356597,-49.6441918,355,9988.74508
D1,Adolfo/SP,-21.2356597,-49.6441918,9,253.23579
1,Adrianópolis/PR,-24.6557863,-48.9912769,1041,17773.60423
D1,Adrianópolis/PR,-24.6557863,-48.9912769,21,358.54533
1,Adustina/BA,-10.5358875,-38.114479,552,3223.16945
D1,Adustina/BA,-10.5358875,-38.114479,9,52.55168
1,Afogados da Ingazeira/PE,-7.750429,-37.6356375,3281,8771.78911
D1,Afogados da Ingazeira/PE,-7.750429,-37.6356375,46,122.98150
1,Afonso Bezerra/RN,-5.4745,-36.57625071327935,406,3681.20410
D1,Afonso Bezerra/RN,-5.4745,-36.57625071327935,12,108.80406
1,Afonso Cláudio/ES,-20.077841,-41.12606,3009,9880.15104
D1,Afonso Cláudio/ES,-20.077841,-41.12606,49,160.89312
1,Afonso Cunha/MA,-4.1326105,-43.3230026,157,2386.74369
D1,Afonso Cunha/MA,-4.1326105,-43.3230026,2,30.40438
1,Afrânio/PE,-8.5198919,-41.0070197,660,3331.65068
D1,Afrânio/PE,-8.5198919,-41.0070197,11,55.52751
1,Afuá/PA,-0.1535664,-50.3879223,2832,7157.47972
D1,Afuá/PA,-0.1535664,-50.3879223,14,35.38302
1,Agrestina/PE,-8.4558021,-35.9442663,1120,4468.38221
D1,Agrestina/PE,-8.4558021,-35.9442663,40,159.58508
1,Agricolândia/PI,-5.7967843,-42.6605131,264,5145.19587
D1,Agricolândia/PI,-5.7967843,-42.6605131,3,58.46813
1,Agrolândia/SC,-27.4122212,-49.8295774,881,7999.63679
D1,Agrolândia/SC,-27.4122212,-49.8295774,13,118.04231
1,Agronômica/SC,-27.2660744,-49.7104753,431,7823.56144
D1,Agronômica/SC,-27.2660744,-49.7104753,9,163.36903
1,Aguanil/MG,-20.9424533,-45.3927152,371,8204.33437
D1,Aguanil/MG,-20.9424533,-45.3927152,7,154.79876
1,Aguaí/SP,-22.0592036,-46.979384,1748,4769.70094
D1,Aguaí/SP,-22.0592036,-46.979384,44,120.06112
1,Agudo/RS,-29.6423259,-53.2494005,979,5969.14822
D1,Agudo/RS,-29.6423259,-53.2494005,12,73.16627
1,Agudos do Sul/PR,-25.9890808,-49.3328175,435,4593.45301
D1,Agudos do Sul/PR,-25.9890808,-49.3328175,14,147.83527
1,Agudos/SP,-22.471162,-48.987822,2329,6227.10623
D1,Agudos/SP,-22.471162,-48.987822,52,139.03372
1,Aguiar/PB,-7.0928404,-38.1727215,261,4635.87922
D1,Aguiar/PB,-7.0928404,-38.1727215,3,53.28597
1,Aguiarnópolis/TO,-6.5600452,-47.4721189,508,7370.86477
D1,Aguiarnópolis/TO,-6.5600452,-47.4721189,12,174.11492
1,Aimorés/MG,-19.4917754,-41.0615603,1616,6427.74750
D1,Aimorés/MG,-19.4917754,-41.0615603,40,159.10266
1,Aiquara/BA,-14.126918,-39.8887574,436,9873.18841
D1,Aiquara/BA,-14.126918,-39.8887574,9,203.80435
1,Aiuaba/CE,-6.5710836,-40.1212278,336,1920.76831
D1,Aiuaba/CE,-6.5710836,-40.1212278,9,51.44915
1,Aiuruoca/MG,-21.9759554,-44.6036637,79,1321.95448
D1,Aiuruoca/MG,-21.9759554,-44.6036637,6,100.40161
1,Ajuricaba/RS,-28.239654,-53.7693013,631,9031.05768
D1,Ajuricaba/RS,-28.239654,-53.7693013,22,314.87047
1,Alagoa Grande/PB,-7.0415212,-35.6285322,2423,8519.99015
D1,Alagoa Grande/PB,-7.0415212,-35.6285322,47,165.26601
1,Alagoa Nova/PB,-7.0653703,-35.76695977336711,694,3317.24105
D1,Alagoa Nova/PB,-7.0653703,-35.76695977336711,13,62.13852
1,Alagoa/MG,-22.1697202,-44.6400042,279,10469.04315
D1,Alagoa/MG,-22.1697202,-44.6400042,4,150.09381
1,Alagoinha do Piauí/PI,-7.0090952,-40.939675,251,3274.62492
D1,Alagoinha do Piauí/PI,-7.0090952,-40.939675,9,117.41683
1,Alagoinha/PB,-6.97063215,-35.51490901897793,1333,9155.21978
D1,Alagoinha/PB,-6.97063215,-35.51490901897793,21,144.23077
1,Alagoinha/PE,-8.50355635,-36.77701174370496,489,3322.46229
D1,Alagoinha/PE,-8.50355635,-36.77701174370496,13,88.32722
1,Alagoinhas/BA,-12.133526,-38.420772,10496,6890.43965
D1,Alagoinhas/BA,-12.133526,-38.420772,199,130.64000
1,Alambari/SP,-23.550338,-47.897971,406,6624.24539
D1,Alambari/SP,-23.550338,-47.897971,9,146.84288
1,Albertina/MG,-20.66164,-43.784039,172,5712.38791
D1,Albertina/MG,-20.66164,-43.784039,6,199.26935
1,Alcantil/PB,-7.7425491,-36.0609604,258,4683.24560
D1,Alcantil/PB,-7.7425491,-36.0609604,6,108.91269
1,Alcinópolis/MS,-18.3264121,-53.7094463,153,2824.44157
D1,Alcinópolis/MS,-18.3264121,-53.7094463,6,110.76241
1,Alcobaça/BA,-17.5215875,-39.1965474,1190,5291.24055
D1,Alcobaça/BA,-17.5215875,-39.1965474,18,80.03557
1,Alcântara/MA,-2.4038956,-44.4154241,233,1053.72648
D1,Alcântara/MA,-2.4038956,-44.4154241,13,58.79161
1,Alcântaras/CE,-3.586247,-40.5457641,1132,9608.69196
D1,Alcântaras/CE,-3.586247,-40.5457641,12,101.85893
1,Aldeias Altas/MA,-4.6291957,-43.4708622,975,3643.90627
D1,Aldeias Altas/MA,-4.6291957,-43.4708622,13,48.58542
1,Alecrim/RS,-27.6566142,-54.7653195,230,3947.14261
D1,Alecrim/RS,-27.6566142,-54.7653195,9,154.45341
1,Alegre/ES,-20.7625787,-41.5318886,1685,5621.35113
D1,Alegre/ES,-20.7625787,-41.5318886,39,130.10842
1,Alegrete do Piauí/PI,-7.2440138,-40.8602296,442,8987.39325
D1,Alegrete do Piauí/PI,-7.2440138,-40.8602296,5,101.66734
1,Alegrete/RS,-29.790166,-55.794862,6214,8509.06502
D1,Alegrete/RS,-29.790166,-55.794862,194,265.65153
1,Alegria/RS,-27.8332103,-54.0574959,295,8743.33136
D1,Alegria/RS,-27.8332103,-54.0574959,2,59.27682
1,Alenquer/PA,-1.946229,-54.738355,2357,4128.42430
D1,Alenquer/PA,-1.946229,-54.738355,81,141.87627
1,Alexandria/RN,-6.414779,-38.0135516,1019,7518.63056
D1,Alexandria/RN,-6.414779,-38.0135516,12,88.54128
1,Alexânia/GO,-16.0834049,-48.5077803,2471,8821.84934
D1,Alexânia/GO,-16.0834049,-48.5077803,57,203.49875
1,Alfenas/MG,-21.4297405,-45.9479419,5770,7168.23614
D1,Alfenas/MG,-21.4297405,-45.9479419,128,159.01806
1,Alfredo Chaves/ES,-20.624970400000002,-40.75006690147988,1995,13630.77344
D1,Alfredo Chaves/ES,-20.624970400000002,-40.75006690147988,24,163.97923
1,Alfredo Marcondes/SP,-21.9527,-51.413956,199,4756.21415
D1,Alfredo Marcondes/SP,-21.9527,-51.413956,8,191.20459
1,Alfredo Vasconcelos/MG,-21.145833,-43.776389,238,3409.25369
D1,Alfredo Vasconcelos/MG,-21.145833,-43.776389,6,85.94757
1,Alfredo Wagner/SC,-27.6961513,-49.3326734,604,5988.49891
D1,Alfredo Wagner/SC,-27.6961513,-49.3326734,6,59.48840
1,Algodão de Jandaíra/PB,-6.9040175,-36.0089879,90,3492.43306
1,Alhandra/PB,-7.4304246,-34.9106103,1345,6818.06661
D1,Alhandra/PB,-7.4304246,-34.9106103,25,126.72986
1,Aliança do Tocantins/TO,-11.3055927,-48.9409096,500,9352.78713
D1,Aliança do Tocantins/TO,-11.3055927,-48.9409096,16,299.28919
1,Aliança/PE,-7.60398,-35.222696,490,1276.14137
D1,Aliança/PE,-7.60398,-35.222696,38,98.96607
1,Almadina/BA,-14.70466,-39.6381994,582,10846.06783
D1,Almadina/BA,-14.70466,-39.6381994,9,167.72270
1,Almas/TO,-11.5681309,-47.1702803,179,2564.83737
D1,Almas/TO,-11.5681309,-47.1702803,4,57.31480
1,Almeirim/PA,-1.5290377,-52.5788111,3253,9546.30825
D1,Almeirim/PA,-1.5290377,-52.5788111,31,90.97312
1,Almenara/MG,-16.1740678,-40.6904907,3238,7683.36379
D1,Almenara/MG,-16.1740678,-40.6904907,30,71.18620
1,Almino Afonso/RN,-6.1544208,-37.7649018,347,7367.30361
D1,Almino Afonso/RN,-6.1544208,-37.7649018,10,212.31423
1,Almirante Tamandaré do Sul/RS,-28.1141129,-52.9134874,162,8311.95485
D1,Almirante Tamandaré do Sul/RS,-28.1141129,-52.9134874,1,51.30836
1,Almirante Tamandaré/PR,-25.3133048,-49.2997838,7514,6259.52799
D1,Almirante Tamandaré/PR,-25.3133048,-49.2997838,266,221.59096
1,Aloândia/GO,-17.7277983,-49.4809338,190,9566.96878
D1,Aloândia/GO,-17.7277983,-49.4809338,6,302.11480
1,Alpercata/MG,-18.9803616,-41.9827637,407,5473.37278
D1,Alpercata/MG,-18.9803616,-41.9827637,14,188.27327
1,Alpestre/RS,-27.2512339,-53.0349646,261,4301.96143
D1,Alpestre/RS,-27.2512339,-53.0349646,7,115.37828
1,Alpinópolis/MG,-20.863611,-46.387777,726,3637.63904
D1,Alpinópolis/MG,-20.863611,-46.387777,15,75.15783
1,Alta Floresta D'Oeste/RO,-11.9296917,-61.9961284,3228,14202.74551
D1,Alta Floresta D'Oeste/RO,-11.9296917,-61.9961284,49,215.59310
1,Alta Floresta/MT,-9.8715018,-56.0839881,6500,12509.86355
D1,Alta Floresta/MT,-9.8715018,-56.0839881,91,175.13809
1,Altair/SP,-20.5238955,-49.0606135,128,3057.81175
D1,Altair/SP,-20.5238955,-49.0606135,9,215.00239
1,Altamira do Maranhão/MA,-4.1643006,-45.4674574,279,3407.00940
D1,Altamira do Maranhão/MA,-4.1643006,-45.4674574,8,97.69203
1,Altamira do Paraná/PR,-24.799114,-52.7128633,101,6004.75624
D1,Altamira do Paraná/PR,-24.799114,-52.7128633,3,178.35910
1,Altamira/PA,-3.204065,-52.209961,11659,10053.54879
D1,Altamira/PA,-3.204065,-52.209961,240,206.95186
1,Altaneira/CE,-6.9980933,-39.7385742,338,4418.30065
D1,Altaneira/CE,-6.9980933,-39.7385742,12,156.86275
1,Alterosa/MG,-21.249166,-46.143055,512,3526.89950
D1,Alterosa/MG,-21.249166,-46.143055,28,192.87732
1,Altinho/PE,-8.4904095,-36.0607494,868,3776.54020
D1,Altinho/PE,-8.4904095,-36.0607494,17,73.96450
1,Altinópolis/SP,-21.021364,-47.3712,672,4147.38011
D1,Altinópolis/SP,-21.021364,-47.3712,21,129.60563
1,Alto Alegre do Maranhão/MA,-4.2055693,-44.4525287,796,2857.34798
D1,Alto Alegre do Maranhão/MA,-4.2055693,-44.4525287,22,78.97193
1,Alto Alegre do Pindaré/MA,-3.6698186,-45.8462153,1732,5422.15822
D1,Alto Alegre do Pindaré/MA,-3.6698186,-45.8462153,35,109.57017
1,Alto Alegre dos Parecis/RO,-12.1314515,-61.856265,1055,7959.26066
D1,Alto Alegre dos Parecis/RO,-12.1314515,-61.856265,22,165.97510
1,Alto Alegre/RR,2.98858,-61.307167,1197,7782.83485
D1,Alto Alegre/RR,2.98858,-61.307167,26,169.05072
1,Alto Alegre/RS,-31.780844700000003,-52.81311114489171,134,8307.50155
1,Alto Alegre/SP,-21.5820592,-50.1661976,208,5088.06262
D1,Alto Alegre/SP,-21.5820592,-50.1661976,9,220.15656
1,Alto Araguaia/MT,-17.3156528,-53.2169365,960,4952.28269
D1,Alto Araguaia/MT,-17.3156528,-53.2169365,20,103.17256
1,Alto Bela Vista/SC,-27.4320737,-51.905771,119,6178.60852
D1,Alto Bela Vista/SC,-27.4320737,-51.905771,2,103.84216
1,Alto Boa Vista/MT,-11.6723985,-51.3744431,491,7079.00807
D1,Alto Boa Vista/MT,-11.6723985,-51.3744431,9,129.75779
1,Alto Caparaó/MG,-20.4405661,-41.8683799,328,5564.98134
D1,Alto Caparaó/MG,-20.4405661,-41.8683799,7,118.76485
1,Alto Feliz/RS,-29.3785943,-51.3123751,168,5533.59684
D1,Alto Feliz/RS,-29.3785943,-51.3123751,1,32.93808
1,Alto Garças/MT,-16.9469683,-53.529427,526,4328.86182
D1,Alto Garças/MT,-16.9469683,-53.529427,21,172.82528
1,Alto Horizonte/GO,-14.1954948,-49.3366993,602,9114.30734
D1,Alto Horizonte/GO,-14.1954948,-49.3366993,7,105.98032
1,Alto Jequitibá/MG,-20.423611,-41.966111,537,6469.10011
D1,Alto Jequitibá/MG,-20.423611,-41.966111,9,108.42067
1,Alto Longá/PI,-5.2549051,-42.2072388,504,3514.88946
D1,Alto Longá/PI,-5.2549051,-42.2072388,13,90.66183
1,Alto Paraguai/MT,-14.513712,-56.4936374,654,5700.33993
D1,Alto Paraguai/MT,-14.513712,-56.4936374,20,174.32232
1,Alto Paraná/PR,-23.131247,-52.318893,646,4347.53348
D1,Alto Paraná/PR,-23.131247,-52.318893,14,94.21899
1,Alto Paraíso de Goiás/GO,-14.1304779,-47.5100161,504,6555.67118
D1,Alto Paraíso de Goiás/GO,-14.1304779,-47.5100161,6,78.04370
1,Alto Paraíso/PR,-23.508137,-53.728537,153,5698.32402
D1,Alto Paraíso/PR,-23.508137,-53.728537,2,74.48790
1,Alto Paraíso/RO,-9.7240103,-63.3188123,1550,7094.79562
D1,Alto Paraíso/RO,-9.7240103,-63.3188123,35,160.20506
1,Alto Parnaíba/MA,-9.112506,-45.9310154,670,5975.74028
D1,Alto Parnaíba/MA,-9.112506,-45.9310154,5,44.59508
1,Alto Piquiri/PR,-24.0239021,-53.4417448,458,4683.98445
D1,Alto Piquiri/PR,-24.0239021,-53.4417448,11,112.49744
1,Alto Rio Doce/MG,-21.0239537,-43.4133507,275,2532.46155
D1,Alto Rio Doce/MG,-21.0239537,-43.4133507,22,202.59692
1,Alto Rio Novo/ES,-19.0577208,-41.0171518,633,8039.11608
D1,Alto Rio Novo/ES,-19.0577208,-41.0171518,21,266.70053
1,Alto Santo/CE,-5.5190371,-38.2719351,820,4768.55083
D1,Alto Santo/CE,-5.5190371,-38.2719351,18,104.67551
1,Alto Taquari/MT,-17.8269099,-53.2831736,1268,11389.56256
D1,Alto Taquari/MT,-17.8269099,-53.2831736,22,197.61071
1,Alto do Rodrigues/RN,-5.290868,-36.7616726,1294,8785.98588
D1,Alto do Rodrigues/RN,-5.290868,-36.7616726,25,169.74470
1,Altos/PI,-5.0393915,-42.4611694,3552,8747.69117
D1,Altos/PI,-5.0393915,-42.4611694,67,165.00431
1,Altônia/PR,-23.8722004,-53.894037,829,3738.27561
D1,Altônia/PR,-23.8722004,-53.894037,14,63.13131
1,Alumínio/SP,-23.5203479,-47.2575256,1071,5706.82581
D1,Alumínio/SP,-23.5203479,-47.2575256,33,175.84057
1,Alvarenga/MG,-19.4175,-41.728334,380,9885.53590
D1,Alvarenga/MG,-19.4175,-41.728334,4,104.05827
1,Alvarães/AM,-3.214786,-64.8143124,2681,16528.97657
D1,Alvarães/AM,-3.214786,-64.8143124,38,234.27867
1,Alvinlândia/SP,-22.4431852,-49.7643596,111,3429.10102
D1,Alvinlândia/SP,-22.4431852,-49.7643596,3,92.67841
1,Alvinópolis/MG,-20.1105199,-43.0601805,484,3190.71791
D1,Alvinópolis/MG,-20.1105199,-43.0601805,13,85.70110
1,Alvorada D'Oeste/RO,-11.346271,-62.284697,798,5657.16716
D1,Alvorada D'Oeste/RO,-11.346271,-62.284697,20,141.78364
1,Alvorada de Minas/MG,-18.7318587,-43.3641479,232,6435.50624
D1,Alvorada de Minas/MG,-18.7318587,-43.3641479,1,27.73925
1,Alvorada do Gurguéia/PI,-8.4465288,-43.8655915,247,4536.27181
D1,Alvorada do Gurguéia/PI,-8.4465288,-43.8655915,6,110.19284
1,Alvorada do Norte/GO,-14.483911,-46.4959897,571,6559.44859
D1,Alvorada do Norte/GO,-14.483911,-46.4959897,2,22.97530
1,Alvorada do Sul/PR,-22.7807269,-51.2307721,625,5433.36521
D1,Alvorada do Sul/PR,-22.7807269,-51.2307721,16,139.09415
1,Alvorada/RS,-29.9981184,-51.0772509,16010,7575.04069
D1,Alvorada/RS,-29.9981184,-51.0772509,604,285.77917
1,Alvorada/TO,-12.478465,-49.124926,976,11624.58313
D1,Alvorada/TO,-12.478465,-49.124926,17,202.47737
1,Além Paraíba/MG,-21.8760576,-42.6810473,2515,7104.31909
D1,Além Paraíba/MG,-21.8760576,-42.6810473,117,330.49914
1,Amajari/RR,3.6523869,-61.4194315,829,6287.44786
D1,Amajari/RR,3.6523869,-61.4194315,18,136.51877
1,Amambai/MS,-23.1082701,-55.2284854,2035,5109.72731
D1,Amambai/MS,-23.1082701,-55.2284854,37,92.90413
1,Amaporã/PR,-23.094272,-52.786597,215,3395.45167
1,Amapá do Maranhão/MA,-1.6762114,-46.0109669,97,1384.72520
D1,Amapá do Maranhão/MA,-1.6762114,-46.0109669,1,14.27552
1,Amapá/AP,2.0529997,-50.7930003,1215,13225.20954
D1,Amapá/AP,2.0529997,-50.7930003,10,108.84946
1,Amaraji/PE,-8.373925,-35.4536527,420,1836.46699
D1,Amaraji/PE,-8.373925,-35.4536527,28,122.43113
1,Amaral Ferrador/RS,-30.8750633,-52.2542051,190,2681.72195
D1,Amaral Ferrador/RS,-30.8750633,-52.2542051,4,56.45730
1,Amaralina/GO,-13.9236199,-49.2962411,51,1326.39792
1,Amarante do Maranhão/MA,-5.56913,-46.747284,1378,3302.25982
D1,Amarante do Maranhão/MA,-5.56913,-46.747284,49,117.42433
1,Amarante/PI,-6.2459374,-42.8476238,1212,6884.79891
D1,Amarante/PI,-6.2459374,-42.8476238,28,159.05476
1,Amargosa/BA,-13.03793715,-39.60796443875596,2193,5857.21535
D1,Amargosa/BA,-13.03793715,-39.60796443875596,43,114.84736
1,Amaturá/AM,-3.3640509,-68.1994689,2249,19163.25835
D1,Amaturá/AM,-3.3640509,-68.1994689,17,144.85344
1,Americana/SP,-22.7392463,-47.3306032,14727,6085.08458
D1,Americana/SP,-22.7392463,-47.3306032,424,175.19358
1,Americano do Brasil/GO,-16.2515808,-49.9806104,374,6067.48864
D1,Americano do Brasil/GO,-16.2515808,-49.9806104,15,243.34848
1,Ametista do Sul/RS,-27.3617341,-53.1826575,498,6727.00257
D1,Ametista do Sul/RS,-27.3617341,-53.1826575,11,148.58841
1,Amontada/CE,-3.3634586,-39.8284791,1866,4257.45511
D1,Amontada/CE,-3.3634586,-39.8284791,32,73.01102
1,Amorinópolis/GO,-16.6211308,-51.0949921,144,4692.08211
D1,Amorinópolis/GO,-16.6211308,-51.0949921,1,32.58390
1,Amparo de São Francisco/SE,-10.1299754,-36.9269099,132,5546.21849
D1,Amparo de São Francisco/SE,-10.1299754,-36.9269099,3,126.05042
1,Amparo do Serra/MG,-20.5070255,-42.8028462,99,2116.28901
D1,Amparo do Serra/MG,-20.5070255,-42.8028462,4,85.50663
1,Amparo/PB,-7.56394725,-37.04652873235175,152,6752.55442
D1,Amparo/PB,-7.56394725,-37.04652873235175,4,177.69880
1,Amparo/SP,-22.70111,-46.76444,3809,5240.99784
D1,Amparo/SP,-22.70111,-46.76444,107,147.22677
1,Ampére/PR,-25.9168712,-53.4742414,906,4691.62653
D1,Ampére/PR,-25.9168712,-53.4742414,26,134.63829
1,Amélia Rodrigues/BA,-12.4015388,-38.7516971,1728,6898.75439
D1,Amélia Rodrigues/BA,-12.4015388,-38.7516971,35,139.73172
1,América Dourada/BA,-11.4515262,-41.4357517,610,3791.17464
D1,América Dourada/BA,-11.4515262,-41.4357517,2,12.43008
1,Américo Brasiliense/SP,-21.7297099,-48.1052092,2959,7211.44473
D1,Américo Brasiliense/SP,-21.7297099,-48.1052092,68,165.72431
1,Américo de Campos/SP,-20.298476,-49.735904,593,9914.72998
D1,Américo de Campos/SP,-20.298476,-49.735904,19,317.67263
1,Anadia/AL,-9.6830208,-36.3052699,1039,5928.33505
D1,Anadia/AL,-9.6830208,-36.3052699,20,114.11617
1,Anagé/BA,-14.6134669,-41.1376308,660,3054.56565
D1,Anagé/BA,-14.6134669,-41.1376308,15,69.42195
1,Anahy/PR,-24.6450861,-53.1337957,248,8895.26542
D1,Anahy/PR,-24.6450861,-53.1337957,4,143.47202
1,Anajatuba/MA,-3.26441,-44.6179916,711,2634.50422
D1,Anajatuba/MA,-3.26441,-44.6179916,17,62.99096
1,Anajás/PA,-0.9878802,-49.9390114,1266,4264.34923
D1,Anajás/PA,-0.9878802,-49.9390114,15,50.52546
1,Analândia/SP,-22.128917,-47.661939,240,4746.83544
D1,Analândia/SP,-22.128917,-47.661939,3,59.33544
1,Anamã/AM,-3.5797356,-61.4049996,1670,11966.17942
D1,Anamã/AM,-3.5797356,-61.4049996,8,57.32302
1,Ananindeua/PA,-1.374035,-48.4016623,17977,3356.75487
D1,Ananindeua/PA,-1.374035,-48.4016623,628,117.26328
1,Ananás/TO,-6.3663053,-48.080238,1348,14201.43279
D1,Ananás/TO,-6.3663053,-48.080238,20,210.70375
1,Anapu/PA,-3.4668292,-51.2057035,1268,4432.48156
D1,Anapu/PA,-3.4668292,-51.2057035,29,101.37379
1,Anapurus/MA,-3.6751298,-43.1046001,828,5209.51302
D1,Anapurus/MA,-3.6751298,-43.1046001,11,69.20851
1,Anastácio/MS,-20.4832458,-55.8048448,1629,6454.80842
D1,Anastácio/MS,-20.4832458,-55.8048448,51,202.08424
1,Anaurilândia/MS,-22.185169,-52.719056,270,2974.87880
D1,Anaurilândia/MS,-22.185169,-52.719056,8,88.14456
1,Anchieta/ES,-20.8057672,-40.6454564,3945,13247.59058
D1,Anchieta/ES,-20.8057672,-40.6454564,57,191.41005
1,Anchieta/SC,-26.5350527,-53.3293938,389,7000.17995
D1,Anchieta/SC,-26.5350527,-53.3293938,6,107.97193
1,Andaraí/BA,-12.8059674,-41.3322919,610,4645.14164
D1,Andaraí/BA,-12.8059674,-41.3322919,5,38.07493
1,Andirá/PR,-23.0494761,-50.2310027,1386,6955.73622
D1,Andirá/PR,-23.0494761,-50.2310027,50,250.92844
1,Andorinha/BA,-10.3445708,-39.8334411,654,4509.41185
D1,Andorinha/BA,-10.3445708,-39.8334411,10,68.95125
1,Andradas/MG,-22.0680484,-46.5688976,2404,5807.32438
D1,Andradas/MG,-22.0680484,-46.5688976,59,142.52585
1,Andradina/SP,-20.896505,-51.3742765,4306,7527.70882
D1,Andradina/SP,-20.896505,-51.3742765,172,300.68879
1,Andrelândia/MG,-21.739722,-44.308889,206,1687.69458
D1,Andrelândia/MG,-21.739722,-44.308889,7,57.34884
1,André da Rocha/RS,-28.6309124,-51.5733328,91,6775.87491
1,Angatuba/SP,-23.4938938,-48.4110675,2039,8002.66886
D1,Angatuba/SP,-23.4938938,-48.4110675,52,204.08964
1,Angelim/PE,-8.8902038,-36.2872987,124,1104.57866
D1,Angelim/PE,-8.8902038,-36.2872987,4,35.63157
1,Angelina/SC,-27.5805287,-48.9838759,430,9065.99199
D1,Angelina/SC,-27.5805287,-48.9838759,1,21.08370
1,Angelândia/MG,-17.7253,-42.2728,80,934.90709
D1,Angelândia/MG,-17.7253,-42.2728,1,11.68634
1,Angical do Piauí/PI,-6.0872666,-42.7366138,370,5454.81350
D1,Angical do Piauí/PI,-6.0872666,-42.7366138,8,117.94191
1,Angical/BA,-12.005623,-44.7000236,395,2833.97905
D1,Angical/BA,-12.005623,-44.7000236,10,71.74631
1,Angico/TO,-6.3893733,-47.8656722,200,5790.38796
D1,Angico/TO,-6.3893733,-47.8656722,3,86.85582
1,Angicos/RN,-5.6666344,-36.6009064,533,4553.60957
D1,Angicos/RN,-5.6666344,-36.6009064,14,119.60701
1,Angra dos Reis/RJ,-23.0063966,-44.316326,11956,5774.61796
D1,Angra dos Reis/RJ,-23.0063966,-44.316326,376,181.60391
1,Anguera/BA,-12.1509425,-39.2452469,304,2690.97991
D1,Anguera/BA,-12.1509425,-39.2452469,1,8.85191
1,Angélica/MS,-22.1588196,-53.7728504,590,5396.99963
D1,Angélica/MS,-22.1588196,-53.7728504,11,100.62203
1,Anhanguera/GO,-18.3338749,-48.220363,85,7327.58621
D1,Anhanguera/GO,-18.3338749,-48.220363,6,517.24138
1,Anhembi/SP,-22.7891096,-48.1316776,119,1745.12392
D1,Anhembi/SP,-22.7891096,-48.1316776,2,29.32981
1,Anhumas/SP,-22.2956478,-51.3873401,178,4295.36680
D1,Anhumas/SP,-22.2956478,-51.3873401,4,96.52510
1,Anicuns/GO,-16.4606451,-49.9572265,2170,9872.16232
D1,Anicuns/GO,-16.4606451,-49.9572265,52,236.56795
1,Anita Garibaldi/SC,-27.6855032,-51.1293873,822,11815.43769
D1,Anita Garibaldi/SC,-27.6855032,-51.1293873,8,114.99209
1,Anitápolis/SC,-27.9041185,-49.1287395,296,9169.76456
D1,Anitápolis/SC,-27.9041185,-49.1287395,1,30.97893
1,Anori/AM,-3.7435254,-61.6605203,1822,8483.49397
D1,Anori/AM,-3.7435254,-61.6605203,31,144.34046
1,Anta Gorda/RS,-28.9718745,-52.0069187,523,8773.69569
D1,Anta Gorda/RS,-28.9718745,-52.0069187,4,67.10284
1,Antas/BA,-10.4114649,-38.3308815,1012,5195.33857
D1,Antas/BA,-10.4114649,-38.3308815,5,25.66867
1,Antonina do Norte/CE,-6.7754187,-39.9879345,291,3944.15831
D1,Antonina do Norte/CE,-6.7754187,-39.9879345,15,203.30713
1,Antonina/PR,-25.4298854,-48.7125431,1972,10406.88163
D1,Antonina/PR,-25.4298854,-48.7125431,50,263.86617
1,Antônio Almeida/PI,-7.2186016,-44.1950248,399,12586.75079
D1,Antônio Almeida/PI,-7.2186016,-44.1950248,10,315.45741
1,Antônio Cardoso/BA,-12.4363122,-39.1200307,310,2654.79147
D1,Antônio Cardoso/BA,-12.4363122,-39.1200307,7,59.94690
1,Antônio Carlos/MG,-21.318334,-43.746666,405,3534.33982
D1,Antônio Carlos/MG,-21.318334,-43.746666,8,69.81412
1,Antônio Carlos/SC,-27.5168462,-48.7684715,1416,16440.26472
D1,Antônio Carlos/SC,-27.5168462,-48.7684715,20,232.20713
1,Antônio Dias/MG,-19.6525,-42.872778,446,4808.62534
D1,Antônio Dias/MG,-19.6525,-42.872778,17,183.28841
1,Antônio Gonçalves/BA,-10.5715409,-40.2748824,598,5034.51760
D1,Antônio Gonçalves/BA,-10.5715409,-40.2748824,5,42.09463
1,Antônio João/MS,-22.1892837,-55.9508227,267,2960.08869
D1,Antônio João/MS,-22.1892837,-55.9508227,5,55.43237
1,Antônio Martins/RN,-6.2155812,-37.8890129,290,4053.67627
D1,Antônio Martins/RN,-6.2155812,-37.8890129,3,41.93458
1,Antônio Olinto/PR,-25.9849006,-50.1974516,275,3702.70634
D1,Antônio Olinto/PR,-25.9849006,-50.1974516,6,80.78632
1,Antônio Prado de Minas/MG,-21.0171988,-42.1101106,150,9451.79584
D1,Antônio Prado de Minas/MG,-21.0171988,-42.1101106,5,315.05986
1,Antônio Prado/RS,-28.8567806,-51.2801355,1630,12495.20889
D1,Antônio Prado/RS,-28.8567806,-51.2801355,16,122.65236
1,Anápolis/GO,-16.3332828,-48.9525756,29232,7461.48270
D1,Anápolis/GO,-16.3332828,-48.9525756,841,214.66567
1,Anísio de Abreu/PI,-9.185643,-43.04941,283,2847.65546
D1,Anísio de Abreu/PI,-9.185643,-43.04941,5,50.31193
1,Aparecida d'Oeste/SP,-20.4498109,-50.8808706,555,13347.76335
D1,Aparecida d'Oeste/SP,-20.4498109,-50.8808706,11,264.55026
1,Aparecida de Goiânia/GO,-16.8226769,-49.2452546,57488,9741.31825
D1,Aparecida de Goiânia/GO,-16.8226769,-49.2452546,1083,183.51391
1,Aparecida do Rio Doce/GO,-18.2980167,-51.1491312,183,7396.92805
D1,Aparecida do Rio Doce/GO,-18.2980167,-51.1491312,3,121.26112
1,Aparecida do Rio Negro/TO,-9.9513491,-47.9773786,276,5693.06931
D1,Aparecida do Rio Negro/TO,-9.9513491,-47.9773786,5,103.13531
1,Aparecida do Taboado/MS,-20.0840304,-51.1013943,2153,8258.85151
D1,Aparecida do Taboado/MS,-20.0840304,-51.1013943,34,130.42311
1,Aparecida/PB,-6.7859598, -38.0831353,648,7699.61977
D1,Aparecida/PB,-6.7859598, -38.0831353,10,118.82129
1,Aparecida/SP,-22.851552,-45.2340924,1990,5499.51637
D1,Aparecida/SP,-22.851552,-45.2340924,62,171.34172
1,Aperibé/RJ,-21.6211928,-42.1028167,402,3377.86741
D1,Aperibé/RJ,-21.6211928,-42.1028167,18,151.24779
1,Apiacá/ES,-21.152272,-41.569297,601,7956.04977
D1,Apiacá/ES,-21.152272,-41.569297,22,291.23643
1,Apiacás/MT,-9.5678422,-57.394852,949,9228.82427
D1,Apiacás/MT,-9.5678422,-57.394852,9,87.52310
1,Apiaí/SP,-24.5076527,-48.8461582,907,3743.91150
D1,Apiaí/SP,-24.5076527,-48.8461582,39,160.98407
1,Apicum-Açu/MA,-1.5279295,-45.082278,366,2101.87791
D1,Apicum-Açu/MA,-1.5279295,-45.082278,3,17.22851
1,Apiúna/SC,-27.0374658,-49.3885037,690,6360.61947
D1,Apiúna/SC,-27.0374658,-49.3885037,14,129.05605
1,Apodi/RN,-5.6631109,-37.796927,4476,12477.00284
D1,Apodi/RN,-5.6631109,-37.796927,60,167.25205
1,Aporá/BA,-11.6599747,-38.0794757,439,2467.95593
D1,Aporá/BA,-11.6599747,-38.0794757,15,84.32651
1,Aporé/GO,-18.9642193,-51.92804,294,6947.06994
D1,Aporé/GO,-18.9642193,-51.92804,6,141.77694
1,Apuarema/BA,-13.8517897,-39.7457126,618,8463.43468
D1,Apuarema/BA,-13.8517897,-39.7457126,9,123.25390
1,Apucarana/PR,-23.5525327,-51.4610764,5858,4299.95449
D1,Apucarana/PR,-23.5525327,-51.4610764,191,140.19995
1,Apuiarés/CE,-3.9460303,-39.4313298,795,5418.48419
D1,Apuiarés/CE,-3.9460303,-39.4313298,14,95.41985
1,Apuí/AM,-7.1940195,-59.8830192,1164,5205.95733
D1,Apuí/AM,-7.1940195,-59.8830192,24,107.33933
1,Aquidabã/SE,-10.2837579,-37.0188687,1576,7269.03741
D1,Aquidabã/SE,-10.2837579,-37.0188687,27,124.53300
1,Aquidauana/MS,-20.473969,-55.7821375,3871,8059.71392
D1,Aquidauana/MS,-20.473969,-55.7821375,109,226.94622
1,Aquiraz/CE,-3.9063117,-38.387504,4488,5545.19059
D1,Aquiraz/CE,-3.9063117,-38.387504,70,86.48916
1,Arabutã/SC,-27.1587028,-52.1438142,361,8460.27654
D1,Arabutã/SC,-27.1587028,-52.1438142,5,117.17835
1,Aracaju/SE,-10.9162061,-37.0774655,94096,14151.73227
D1,Aracaju/SE,-10.9162061,-37.0774655,1565,235.37091
1,Aracati/CE,-4.558259,-37.767894,4616,6156.71891
D1,Aracati/CE,-4.558259,-37.767894,94,125.37513
1,Aracatu/BA,-14.4274236,-41.4604105,676,5182.06209
D1,Aracatu/BA,-14.4274236,-41.4604105,12,91.98927
1,Araci/BA,-11.3356065,-38.9573261,3148,5760.50359
D1,Araci/BA,-11.3356065,-38.9573261,41,75.02562
1,Aracitaba/MG,-21.3425,-43.378611,81,3933.94852
D1,Aracitaba/MG,-21.3425,-43.378611,7,339.97086
1,Aracoiaba/CE,-4.3702577,-38.8084313,2066,7785.94309
D1,Aracoiaba/CE,-4.3702577,-38.8084313,25,94.21519
1,Aracruz/ES,-19.8245218,-40.2735025,12556,12178.34939
D1,Aracruz/ES,-19.8245218,-40.2735025,173,167.79663
1,Aragarças/GO,-15.8957166,-52.2514538,1746,8612.44019
D1,Aragarças/GO,-15.8957166,-52.2514538,40,197.30676
1,Aragoiânia/GO,-16.9146388,-49.4499148,837,7974.46646
D1,Aragoiânia/GO,-16.9146388,-49.4499148,11,104.80183
1,Aragominas/TO,-7.1654101,-48.525488,446,7782.23696
D1,Aragominas/TO,-7.1654101,-48.525488,8,139.59169
1,Araguacema/TO,-8.8067391,-49.5560969,371,5185.18519
D1,Araguacema/TO,-8.8067391,-49.5560969,11,153.73864
1,Araguaiana/MT,-15.729144,-51.834112,135,4342.23223
D1,Araguaiana/MT,-15.729144,-51.834112,2,64.32937
1,Araguainha/MT,-16.857016,-53.031778,21,2219.87315
1,Araguanã/MA,-2.9508403,-45.6651986,697,4482.02688
D1,Araguanã/MA,-2.9508403,-45.6651986,5,32.15227
1,Araguanã/TO,-6.5799107,-48.6428482,309,5334.02382
D1,Araguanã/TO,-6.5799107,-48.6428482,12,207.14656
1,Araguapaz/GO,-15.0937927,-50.626417,414,5319.28562
D1,Araguapaz/GO,-15.0937927,-50.626417,18,231.27329
1,Araguari/MG,-18.6511256,-48.1933764,11029,9360.49226
D1,Araguari/MG,-18.6511256,-48.1933764,309,262.25334
1,Araguatins/TO,-5.6522925,-48.1158973,1671,4619.85071
D1,Araguatins/TO,-5.6522925,-48.1158973,46,127.17722
1,Araguaçu/TO,-12.928934,-49.823134,728,8598.08669
D1,Araguaçu/TO,-12.928934,-49.823134,16,188.96894
1,Araguaína/TO,-7.193241,-48.2018597,25739,14035.80524
D1,Araguaína/TO,-7.193241,-48.2018597,341,185.95165
1,Araioses/MA,-2.890914,-41.904993,617,1319.19352
D1,Araioses/MA,-2.890914,-41.904993,12,25.65692
1,Aral Moreira/MS,-22.951141,-55.6268421,333,2700.29192
D1,Aral Moreira/MS,-22.951141,-55.6268421,8,64.87188
1,Aramari/BA,-12.0907897,-38.4985065,508,4432.42300
D1,Aramari/BA,-12.0907897,-38.4985065,11,95.97766
1,Arambaré/RS,-30.9132252,-51.4994625,142,3986.52442
D1,Arambaré/RS,-30.9132252,-51.4994625,4,112.29646
1,Arame/MA,-4.8858769,-46.0102484,1007,3073.49530
D1,Arame/MA,-4.8858769,-46.0102484,30,91.56391
1,Aramina/SP,-20.0876144,-47.789201,233,4120.24757
D1,Aramina/SP,-20.0876144,-47.789201,8,141.46773
1,Arandu/SP,-23.1345103,-49.0545651,241,3786.33150
D1,Arandu/SP,-23.1345103,-49.0545651,7,109.97643
1,Arantina/MG,-21.911667,-44.255833,83,2978.11267
D1,Arantina/MG,-21.911667,-44.255833,3,107.64263
1,Arapeí/SP,-22.6738889,-44.4477778,176,7154.47154
D1,Arapeí/SP,-22.6738889,-44.4477778,2,81.30081
1,Arapiraca/AL,-9.754866,-36.661471,20703,8883.61575
D1,Arapiraca/AL,-9.754866,-36.661471,320,137.31136
1,Arapoema/TO,-7.6575001,-49.0641484,403,6091.29383
D1,Arapoema/TO,-7.6575001,-49.0641484,5,75.57437
1,Araponga/MG,-20.666667,-42.520556,322,3809.29847
D1,Araponga/MG,-20.666667,-42.520556,6,70.98072
1,Arapongas/PR,-23.415296,-51.42592,9053,7253.42521
D1,Arapongas/PR,-23.415296,-51.42592,342,274.01651
1,Araporã/MG,-18.4318188,-49.188313,1519,21916.02943
D1,Araporã/MG,-18.4318188,-49.188313,20,288.55865
1,Arapoti/PR,-24.1457957,-49.8224605,2096,7406.36042
D1,Arapoti/PR,-24.1457957,-49.8224605,32,113.07420
1,Araputanga/MT,-15.4710868,-58.346796,1432,8447.87918
D1,Araputanga/MT,-15.4710868,-58.346796,33,194.67878
1,Arapuá/MG,-19.034444,-46.155556,151,5326.27866
D1,Arapuá/MG,-19.034444,-46.155556,1,35.27337
1,Arapuã/PR,-24.3079525,-51.7901941,168,5583.25025
D1,Arapuã/PR,-24.3079525,-51.7901941,5,166.16816
1,Araquari/SC,-26.3703324,-48.7210994,2817,7127.31505
D1,Araquari/SC,-26.3703324,-48.7210994,53,134.09574
1,Arara/PB,-6.8271895,-35.7605703,540,3987.59415
D1,Arara/PB,-6.8271895,-35.7605703,16,118.15094
1,Araranguá/SC,-28.9348832,-49.4858389,8237,11960.73591
D1,Araranguá/SC,-28.9348832,-49.4858389,166,241.04433
1,Araraquara/SP,-21.7886713,-48.1773096,15229,6389.63829
D1,Araraquara/SP,-21.7886713,-48.1773096,332,139.29739
1,Araras/SP,-22.3569477,-47.3838889,12334,9102.17998
D1,Araras/SP,-22.3569477,-47.3838889,270,199.25317
1,Ararendá/CE,-4.7504395,-40.8303611,639,5830.82398
D1,Ararendá/CE,-4.7504395,-40.8303611,12,109.49904
1,Arari/MA,-3.4547602,-44.7772723,458,1530.13497
D1,Arari/MA,-3.4547602,-44.7772723,17,56.79540
1,Araricá/RS,-29.6168543,-50.929121,903,15647.20152
D1,Araricá/RS,-29.6168543,-50.929121,24,415.87247
1,Araripe/CE,-7.212861,-40.1359222,692,3195.71442
D1,Araripe/CE,-7.212861,-40.1359222,9,41.56276
1,Araripina/PE,-7.5768582,-40.5038509,5340,6292.42081
D1,Araripina/PE,-7.5768582,-40.5038509,107,126.08409
1,Araruama/RJ,-22.8733203,-42.3428897,4420,3291.31079
D1,Araruama/RJ,-22.8733203,-42.3428897,208,154.88521
1,Araruna/PB,-6.5321155,-35.7397595,588,2873.47896
D1,Araruna/PB,-6.5321155,-35.7397595,16,78.18990
1,Araruna/PR,-23.9320308,-52.4976047,955,6821.42857
D1,Araruna/PR,-23.9320308,-52.4976047,18,128.57143
1,Arataca/BA,-15.2617424,-39.4122943,453,4132.83460
D1,Arataca/BA,-15.2617424,-39.4122943,12,109.47906
1,Aratiba/RS,-27.3955734,-52.3024325,333,5380.51381
D1,Aratiba/RS,-27.3955734,-52.3024325,5,80.78850
1,Aratuba/CE,-4.4195958,-39.0463737,898,7608.87985
D1,Aratuba/CE,-4.4195958,-39.0463737,5,42.36570
1,Aratuípe/BA,-13.077137,-39.0010786,287,3247.70850
D1,Aratuípe/BA,-13.077137,-39.0010786,7,79.21240
1,Araucária/PR,-25.5861107,-49.4051209,18575,12703.98183
D1,Araucária/PR,-25.5861107,-49.4051209,275,188.08048
1,Arauá/SE,-11.2644014,-37.6181058,801,8052.67920
D1,Arauá/SE,-11.2644014,-37.6181058,13,130.69267
1,Araxá/MG,-19.5928536,-46.940241,8301,7733.58674
D1,Araxá/MG,-19.5928536,-46.940241,126,117.38729
1,Araçagi/PB,-6.8519969,-35.3835602,924,5460.67017
D1,Araçagi/PB,-6.8519969,-35.3835602,12,70.91779
1,Araçariguama/SP,-23.438611,-47.061389,1095,4790.02625
D1,Araçariguama/SP,-23.438611,-47.061389,32,139.98250
1,Araçatuba/SP,-21.207992,-50.4390225,20583,10388.68616
D1,Araçatuba/SP,-21.207992,-50.4390225,558,281.63469
1,Araçaí/MG,-19.200833,-44.2475,49,2081.56330
1,Araçoiaba da Serra/SP,-23.5045367,-47.6168158,1911,5495.16908
D1,Araçoiaba da Serra/SP,-23.5045367,-47.6168158,40,115.02185
1,Araçoiaba/PE,-7.7856903,-35.0898881,347,1673.66035
D1,Araçoiaba/PE,-7.7856903,-35.0898881,22,106.11103
1,Araçu/GO,-16.3561579,-49.6815269,361,10355.70855
D1,Araçu/GO,-16.3561579,-49.6815269,13,372.92025
1,Araçuaí/MG,-16.8484451,-42.0661868,1088,2963.60863
D1,Araçuaí/MG,-16.8484451,-42.0661868,22,59.92591
1,Araçás/BA,-12.2139176,-38.2026159,525,4300.45872
D1,Araçás/BA,-12.2139176,-38.2026159,7,57.33945
1,Araújos/MG,-19.948055,-45.165556,533,5669.60962
D1,Araújos/MG,-19.948055,-45.165556,5,53.18583
1,Arceburgo/MG,-21.364444,-46.939722,592,5439.67656
D1,Arceburgo/MG,-21.364444,-46.939722,14,128.64100
1,Arco-Íris/SP,-21.7741308,-50.4668814,83,4681.33108
D1,Arco-Íris/SP,-21.7741308,-50.4668814,5,282.00790
1,Arcos/MG,-20.282223,-45.539444,4003,9913.32343
D1,Arcos/MG,-20.282223,-45.539444,51,126.30015
1,Arcoverde/PE,-8.415192,-37.057748,4609,6159.95296
D1,Arcoverde/PE,-8.415192,-37.057748,91,121.62198
1,Areado/MG,-21.3582771,-46.1476688,477,3142.08550
D1,Areado/MG,-21.3582771,-46.1476688,14,92.22054
1,Areal/RJ,-22.2314922,-43.1056264,711,5612.12408
D1,Areal/RJ,-22.2314922,-43.1056264,34,268.37162
1,Arealva/SP,-22.0301906,-48.9111936,545,6327.64426
D1,Arealva/SP,-22.0301906,-48.9111936,8,92.88285
1,Areia Branca/RN,-4.9506652,-37.1263312,1837,6568.45568
D1,Areia Branca/RN,-4.9506652,-37.1263312,77,275.32449
1,Areia Branca/SE,-10.7591455,-37.3148072,1299,6951.72857
D1,Areia Branca/SE,-10.7591455,-37.3148072,29,155.19640
1,Areia de Baraúnas/PB,-7.1233949,-36.9446216,76,3591.68242
D1,Areia de Baraúnas/PB,-7.1233949,-36.9446216,3,141.77694
1,Areia/PB,-6.9680243,-35.6994783,1002,4422.66949
D1,Areia/PB,-6.9680243,-35.6994783,20,88.27684
1,Areial/PB,-7.0501306,-35.9245244,229,3258.85869
D1,Areial/PB,-7.0501306,-35.9245244,6,85.38494
1,Areias/SP,-22.5800929,-44.6975127,226,5800.82136
D1,Areias/SP,-22.5800929,-44.6975127,1,25.66735
1,Areiópolis/SP,-22.6758064,-48.6673653,770,6900.87829
D1,Areiópolis/SP,-22.6758064,-48.6673653,11,98.58398
1,Arenápolis/MT,-14.4610369,-56.8432806,1162,12229.00442
D1,Arenápolis/MT,-14.4610369,-56.8432806,19,199.95790
1,Arenópolis/GO,-16.3859286,-51.55937,158,6230.28391
D1,Arenópolis/GO,-16.3859286,-51.55937,6,236.59306
1,Argirita/MG,-21.612761,-42.8371922,241,8912.72189
D1,Argirita/MG,-21.612761,-42.8371922,5,184.91124
1,Aricanduva/MG,-17.8678,-42.5569,78,1480.35680
1,Arinos/MG,-15.917223,-46.106111,362,2026.64875
D1,Arinos/MG,-15.917223,-46.106111,10,55.98477
1,Aripuanã/MT,-10.175806,-59.4439663,1963,8642.24707
D1,Aripuanã/MT,-10.175806,-59.4439663,36,158.49256
1,Ariquemes/RO,-9.9076522,-63.033069,17738,16195.68492
D1,Ariquemes/RO,-9.9076522,-63.033069,375,342.39384
1,Ariranha do Ivaí/PR,-24.3834527,-51.5876772,128,6195.54695
D1,Ariranha do Ivaí/PR,-24.3834527,-51.5876772,2,96.80542
1,Ariranha/SP,-21.18716,-48.790418,371,3800.84008
D1,Ariranha/SP,-21.18716,-48.790418,13,133.18308
1,Armazém/SC,-28.2624996,-49.0190126,1282,14636.37402
D1,Armazém/SC,-28.2624996,-49.0190126,24,274.00388
1,Armação dos Búzios/RJ,-22.7597805,-41.8875267,3700,10731.79221
D1,Armação dos Búzios/RJ,-22.7597805,-41.8875267,35,101.51695
1,Arneiroz/CE,-6.3235099,-40.1603859,282,3595.10454
D1,Arneiroz/CE,-6.3235099,-40.1603859,11,140.23457
1,Aroazes/PI,-6.1108814,-41.7886137,505,8666.55226
D1,Aroazes/PI,-6.1108814,-41.7886137,12,205.93788
1,Aroeiras do Itaim/PI,-7.2797031,-41.5629681,97,3802.43042
D1,Aroeiras do Itaim/PI,-7.2797031,-41.5629681,1,39.20031
1,Aroeiras/PB,-7.5462904,-35.7080002,825,4315.75643
D1,Aroeiras/PB,-7.5462904,-35.7080002,5,26.15610
1,Arraial do Cabo/RJ,-22.9662839,-42.024427,564,1843.55898
D1,Arraial do Cabo/RJ,-22.9662839,-42.024427,15,49.03082
1,Arraial/PI,-6.6541632,-42.5335332,134,2838.98305
D1,Arraial/PI,-6.6541632,-42.5335332,2,42.37288
1,Arraias/TO,-12.9287788,-46.9437231,398,3778.24188
D1,Arraias/TO,-12.9287788,-46.9437231,3,28.47921
1,Arroio Grande/RS,-32.2384246,-53.0866661,1107,6069.74449
D1,Arroio Grande/RS,-32.2384246,-53.0866661,43,235.77147
1,Arroio Trinta/SC,-26.9301976,-51.334928,393,11073.54184
D1,Arroio Trinta/SC,-26.9301976,-51.334928,7,197.23866
1,Arroio do Meio/RS,-29.4020392,-51.9444993,2500,11923.49883
D1,Arroio do Meio/RS,-29.4020392,-51.9444993,28,133.54319
1,Arroio do Padre/RS,-31.4428773,-52.4228985,124,4201.96544
D1,Arroio do Padre/RS,-31.4428773,-52.4228985,1,33.88682
1,Arroio do Sal/RS,-29.549852,-49.8874395,875,8512.50122
D1,Arroio do Sal/RS,-29.549852,-49.8874395,27,262.67147
1,Arroio do Tigre/RS,-29.334158,-53.0888935,920,6859.01737
D1,Arroio do Tigre/RS,-29.334158,-53.0888935,17,126.74271
1,Arroio dos Ratos/RS,-30.0894524,-51.7265541,748,5276.15151
D1,Arroio dos Ratos/RS,-30.0894524,-51.7265541,28,197.50300
1,Artur Nogueira/SP,-22.572737,-47.172679,2985,5393.92844
D1,Artur Nogueira/SP,-22.572737,-47.172679,80,144.56090
1,Aruanã/GO,-14.9162439,-51.0715692,358,3541.04847
D1,Aruanã/GO,-14.9162439,-51.0715692,10,98.91197
1,Arujá/SP,-23.396266,-46.3175449,5569,6109.24010
D1,Arujá/SP,-23.396266,-46.3175449,206,225.98374
1,Arvoredo/SC,-27.0752908,-52.4571847,260,11638.31692
D1,Arvoredo/SC,-27.0752908,-52.4571847,3,134.28827
1,Arvorezinha/RS,-28.87369,-52.17808,657,6303.36755
D1,Arvorezinha/RS,-28.87369,-52.17808,21,201.47750
1,Arês/RN,-6.1969216,-35.1642968,681,4723.59021
D1,Arês/RN,-6.1969216,-35.1642968,19,131.78886
1,Ascurra/SC,-26.9569975,-49.3767752,976,12233.64252
D1,Ascurra/SC,-26.9569975,-49.3767752,7,87.74129
1,Aspásia/SP,-20.160028,-50.728046,86,4730.47305
D1,Aspásia/SP,-20.160028,-50.728046,3,165.01650
1,Assaré/CE,-6.8746791,-39.8741385,1181,5030.24108
D1,Assaré/CE,-6.8746791,-39.8741385,25,106.48266
1,Assaí/PR,-23.3736041,-50.8454929,1082,7235.52227
D1,Assaí/PR,-23.3736041,-50.8454929,33,220.67674
1,Assis Brasil/AC,-10.9409203,-69.5672108,1380,18316.96310
D1,Assis Brasil/AC,-10.9409203,-69.5672108,19,252.19007
1,Assis Chateaubriand/PR,-24.4054826,-53.5120468,2909,8725.25495
D1,Assis Chateaubriand/PR,-24.4054826,-53.5120468,64,191.96161
1,Assis/SP,-22.6620892,-50.420623,6521,6205.33463
D1,Assis/SP,-22.6620892,-50.420623,206,196.02805
1,Assunção do Piauí/PI,-5.8610212,-41.0485091,274,3484.67506
D1,Assunção do Piauí/PI,-5.8610212,-41.0485091,6,76.30675
1,Assunção/PB,-7.073396,-36.7274003,260,6453.21420
D1,Assunção/PB,-7.073396,-36.7274003,2,49.64011
1,Astolfo Dutra/MG,-21.3132636,-42.8624102,994,6965.66223
D1,Astolfo Dutra/MG,-21.3132636,-42.8624102,15,105.11563
1,Astorga/PR,-23.2350184,-51.6647074,2279,8695.48628
D1,Astorga/PR,-23.2350184,-51.6647074,48,183.14320
1,Atalaia do Norte/AM,-4.3658547,-70.1908742,2652,13001.27463
D1,Atalaia do Norte/AM,-4.3658547,-70.1908742,8,39.21953
1,Atalaia/AL,-9.5029595,-36.0219316,987,2083.81716
D1,Atalaia/AL,-9.5029595,-36.0219316,39,82.33928
1,Atalaia/PR,-23.1513833,-52.0529697,315,8116.46483
D1,Atalaia/PR,-23.1513833,-52.0529697,15,386.49833
1,Atalanta/SC,-27.421916,-49.778863,231,7230.04695
D1,Atalanta/SC,-27.421916,-49.778863,3,93.89671
1,Ataléia/MG,-18.04432,-41.1110524,988,7793.02729
D1,Ataléia/MG,-18.04432,-41.1110524,7,55.21376
1,Atibaia/SP,-23.1177393,-46.5547861,8180,5677.08623
D1,Atibaia/SP,-23.1177393,-46.5547861,200,138.80406
1,Atilio Vivacqua/ES,-20.9139369,-41.1947519,1247,10301.52829
D1,Atilio Vivacqua/ES,-20.9139369,-41.1947519,19,156.95993
1,Augustinópolis/TO,-5.4662267,-47.8897519,1280,6865.84777
D1,Augustinópolis/TO,-5.4662267,-47.8897519,19,101.91493
1,Augusto Corrêa/PA,-1.0229335,-46.6404029,1827,3931.48415
D1,Augusto Corrêa/PA,-1.0229335,-46.6404029,30,64.55639
1,Augusto Pestana/RS,-28.5148413,-53.9906433,305,4619.81218
D1,Augusto Pestana/RS,-28.5148413,-53.9906433,5,75.73463
1,Augusto de Lima/MG,-18.1092963,-44.2651945,192,3957.94682
D1,Augusto de Lima/MG,-18.1092963,-44.2651945,6,123.68584
1,Aurelino Leal/BA,-14.3167137,-39.3256107,800,7080.27259
D1,Aurelino Leal/BA,-14.3167137,-39.3256107,22,194.70750
1,Auriflama/SP,-20.6840418,-50.5554616,1521,9971.80882
D1,Auriflama/SP,-20.6840418,-50.5554616,47,308.13610
1,Aurilândia/GO,-16.6772599,-50.4641231,167,5461.08568
D1,Aurilândia/GO,-16.6772599,-50.4641231,4,130.80445
1,Aurora do Pará/PA,-2.1323199,-47.558436,1070,3367.63919
D1,Aurora do Pará/PA,-2.1323199,-47.558436,12,37.76792
1,Aurora do Tocantins/TO,-12.71045,-46.407604,150,3965.10706
D1,Aurora do Tocantins/TO,-12.71045,-46.407604,2,52.86809
1,Aurora/CE,-6.9426019,-38.9693765,1166,4737.91142
D1,Aurora/CE,-6.9426019,-38.9693765,28,113.77489
1,Aurora/SC,-27.3166417,-49.6368502,612,10768.96006
D1,Aurora/SC,-27.3166417,-49.6368502,12,211.15608
1,Autazes/AM,-3.5833283,-59.1301518,2710,6726.23480
D1,Autazes/AM,-3.5833283,-59.1301518,86,213.45247
1,Avanhandava/SP,-21.4603331,-49.9465156,518,3737.64341
D1,Avanhandava/SP,-21.4603331,-49.9465156,23,165.95714
1,Avaré/SP,-23.1045215,-48.9259103,5311,5821.42231
D1,Avaré/SP,-23.1045215,-48.9259103,114,124.95616
1,Avaí/SP,-22.1564662,-49.3316395,243,4470.19868
D1,Avaí/SP,-22.1564662,-49.3316395,4,73.58352
1,Aveiro/PA,-3.6049239,-55.3310742,566,3450.37796
D1,Aveiro/PA,-3.6049239,-55.3310742,8,48.76859
1,Avelino Lopes/PI,-10.1346855,-43.9489525,286,2525.16334
D1,Avelino Lopes/PI,-10.1346855,-43.9489525,17,150.09712
1,Avelinópolis/GO,-16.4672409,-49.7578661,239,9921.12910
D1,Avelinópolis/GO,-16.4672409,-49.7578661,11,456.62100
1,Axixá do Tocantins/TO,-5.612747,-47.77007,957,9778.27731
D1,Axixá do Tocantins/TO,-5.612747,-47.77007,15,153.26453
1,Axixá/MA,-2.8379465,-44.0561053,189,1551.34203
D1,Axixá/MA,-2.8379465,-44.0561053,4,32.83264
1,Açailândia/MA,-4.9514278,-47.4844564,4572,4041.68987
D1,Açailândia/MA,-4.9514278,-47.4844564,159,140.55746
1,Açu/RN,-5.5836157,-36.9139541,4202,7197.17731
D1,Açu/RN,-5.5836157,-36.9139541,119,203.82297
1,Açucena/MG,-19.073056,-42.546666,614,6554.22716
D1,Açucena/MG,-19.073056,-42.546666,17,181.46883
1,Babaçulândia/TO,-7.2034355,-47.761613,546,5119.06994
D1,Babaçulândia/TO,-7.2034355,-47.761613,4,37.50234
1,Bacabal/MA,-4.2318132,-44.781167,4204,4011.83319
D1,Bacabal/MA,-4.2318132,-44.781167,133,126.92051
1,Bacabeira/MA,-2.9775747,-44.3155943,304,1762.11454
D1,Bacabeira/MA,-2.9775747,-44.3155943,5,28.98215
1,Bacuri/MA,-1.728894,-45.1417148,429,2299.77485
D1,Bacuri/MA,-1.728894,-45.1417148,4,21.44312
1,Bacurituba/MA,-2.7082587,-44.7381309,112,1975.30864
D1,Bacurituba/MA,-2.7082587,-44.7381309,1,17.63668
1,Bady Bassitt/SP,-20.9178969,-49.4517911,2168,12206.51990
D1,Bady Bassitt/SP,-20.9178969,-49.4517911,45,253.36411
1,Baependi/MG,-21.959162,-44.8899249,990,5156.51857
D1,Baependi/MG,-21.959162,-44.8899249,10,52.08605
1,Bagre/PA,-1.8994498,-50.2103844,802,2560.25539
D1,Bagre/PA,-1.8994498,-50.2103844,11,35.11572
1,Bagé/RS,-31.3314264,-54.1062808,6492,5350.47596
D1,Bagé/RS,-31.3314264,-54.1062808,160,131.86632
1,Baianópolis/BA,-12.3067564,-44.5383591,332,2383.51640
D1,Baianópolis/BA,-12.3067564,-44.5383591,3,21.53780
1,Baixa Grande do Ribeiro/PI,-7.862861,-45.2113289,1868,16005.48368
D1,Baixa Grande do Ribeiro/PI,-7.862861,-45.2113289,19,162.79668
1,Baixa Grande/BA,-11.9630941,-40.1657537,577,2821.65387
D1,Baixa Grande/BA,-11.9630941,-40.1657537,6,29.34129
1,Baixio/CE,-6.7303544,-38.7170095,320,5076.94749
D1,Baixio/CE,-6.7303544,-38.7170095,8,126.92369
1,Baixo Guandu/ES,-19.5138322,-41.0182089,3021,9703.84171
D1,Baixo Guandu/ES,-19.5138322,-41.0182089,63,202.36413
1,Baião/PA,-2.7903479,-49.6702845,633,1306.25890
D1,Baião/PA,-2.7903479,-49.6702845,22,45.39920
1,Balbinos/SP,-21.9006253,-49.3583966,297,5005.05561
D1,Balbinos/SP,-21.9006253,-49.3583966,3,50.55612
1,Baldim/MG,-19.2913568,-43.9558262,415,5318.46726
D1,Baldim/MG,-19.2913568,-43.9558262,8,102.52467
1,Baliza/GO,-16.1978119,-52.542789,172,3257.57576
D1,Baliza/GO,-16.1978119,-52.542789,6,113.63636
1,Balneário Arroio do Silva/SC,-28.9815269,-49.4189932,1637,12189.12882
D1,Balneário Arroio do Silva/SC,-28.9815269,-49.4189932,35,260.61057
1,Balneário Barra do Sul/SC,-26.459842,-48.6061471,1210,10965.11101
D1,Balneário Barra do Sul/SC,-26.459842,-48.6061471,25,226.55188
1,Balneário Camboriú/SC,-26.9924395,-48.6339782,21607,14820.02250
D1,Balneário Camboriú/SC,-26.9924395,-48.6339782,308,211.25408
1,Balneário Gaivota/SC,-29.1553098,-49.5808712,1064,9449.37833
D1,Balneário Gaivota/SC,-29.1553098,-49.5808712,22,195.38188
1,Balneário Pinhal/RS,-30.2482978,-50.234585,648,4511.59229
D1,Balneário Pinhal/RS,-30.2482978,-50.234585,33,229.75701
1,Balneário Piçarras/SC,-26.7638889,-48.6716667,3791,15947.33300
D1,Balneário Piçarras/SC,-26.7638889,-48.6716667,38,159.85193
1,Balneário Rincão/SC,-28.8235718,-49.2241642,1195,9230.65039
D1,Balneário Rincão/SC,-28.8235718,-49.2241642,33,254.90499
1,Balsa Nova/PR,-25.5842234,-49.6312741,1093,8348.60984
D1,Balsa Nova/PR,-25.5842234,-49.6312741,22,168.04155
1,Balsas/MA,-7.53214,-46.037163,8050,8391.62297
D1,Balsas/MA,-7.53214,-46.037163,111,115.71058
1,Bambuí/MG,-20.0131996,-45.9777034,985,4121.68382
D1,Bambuí/MG,-20.0131996,-45.9777034,12,50.21341
1,Banabuiú/CE,-5.3046404,-38.919766,972,5324.27695
D1,Banabuiú/CE,-5.3046404,-38.919766,7,38.34356
1,Bananal/SP,-22.6828195,-44.3221095,708,6440.46211
D1,Bananal/SP,-22.6828195,-44.3221095,2,18.19340
1,Bananeiras/PB,-6.7537682,-35.6338343,890,4184.49386
D1,Bananeiras/PB,-6.7537682,-35.6338343,13,61.12182
1,Bandeira do Sul/MG,-21.728056,-46.385555,167,2890.27345
D1,Bandeira do Sul/MG,-21.728056,-46.385555,6,103.84216
1,Bandeira/MG,-15.884444,-40.559167,444,9315.98825
D1,Bandeira/MG,-15.884444,-40.559167,9,188.83760
1,Bandeirante/SC,-26.7677402,-53.6397596,198,7477.34139
D1,Bandeirante/SC,-26.7677402,-53.6397596,2,75.52870
1,Bandeirantes do Tocantins/TO,-7.7635698,-48.579148,270,7516.70379
D1,Bandeirantes do Tocantins/TO,-7.7635698,-48.579148,4,111.35857
1,Bandeirantes/MS,-19.9179623,-54.3646768,424,5835.39774
D1,Bandeirantes/MS,-19.9179623,-54.3646768,7,96.33911
1,Bandeirantes/PR,-23.107788,-50.370407,2522,8080.48444
D1,Bandeirantes/PR,-23.107788,-50.370407,71,227.48390
1,Bannach/PA,-7.3508505,-50.4064531,527,16155.73268
D1,Bannach/PA,-7.3508505,-50.4064531,2,61.31208
1,Banzaê/BA,-10.5827616,-38.6122305,806,6087.61329
D1,Banzaê/BA,-10.5827616,-38.6122305,7,52.87009
1,Baraúna/PB,-6.643394,-36.2531932,215,4331.18453
D1,Baraúna/PB,-6.643394,-36.2531932,3,60.43513
1,Baraúna/RN,-5.0775002,-37.61752,760,2643.75413
D1,Baraúna/RN,-5.0775002,-37.61752,18,62.61523
1,Barbacena/MG,-21.2254524,-43.7735087,4890,3538.24781
D1,Barbacena/MG,-21.2254524,-43.7735087,149,107.81164
1,Barbalha/CE,-7.3121067,-39.3036427,3568,5827.39923
D1,Barbalha/CE,-7.3121067,-39.3036427,71,115.96002
1,Barbosa Ferraz/PR,-24.0287182,-52.00811,608,5321.19727
D1,Barbosa Ferraz/PR,-24.0287182,-52.00811,14,122.52757
1,Barbosa/SP,-21.265661,-49.951816,331,4432.24424
D1,Barbosa/SP,-21.265661,-49.951816,9,120.51419
1,Barcarena/PA,-1.5107945,-48.6190679,8717,6862.32061
D1,Barcarena/PA,-1.5107945,-48.6190679,169,133.04258
1,Barcelona/RN,-5.9514918,-35.9260284,52,1301.95293
D1,Barcelona/RN,-5.9514918,-35.9260284,3,75.11267
1,Barcelos/AM,-0.9729214,-62.925635,4043,14628.41016
D1,Barcelos/AM,-0.9729214,-62.925635,56,202.61958
1,Bariri/SP,-22.0746355,-48.7394852,2186,6147.70235
D1,Bariri/SP,-22.0746355,-48.7394852,85,239.04607
1,Barra Bonita/SC,-26.6526364,-53.4419581,120,7268.32223
D1,Barra Bonita/SC,-26.6526364,-53.4419581,1,60.56935
1,Barra Bonita/SP,-22.490859,-48.558349,2483,6873.16614
D1,Barra Bonita/SP,-22.490859,-48.558349,66,182.69390
1,Barra D'Alcântara/PI,-6.5209258,-42.1071089,103,2606.27530
D1,Barra D'Alcântara/PI,-6.5209258,-42.1071089,3,75.91093
1,Barra Funda/RS,-27.9230048,-53.0401045,377,14778.51823
D1,Barra Funda/RS,-27.9230048,-53.0401045,7,274.40220
1,Barra Longa/MG,-20.2833541,-43.0423516,216,4307.07876
D1,Barra Longa/MG,-20.2833541,-43.0423516,6,119.64108
1,Barra Mansa/RJ,-22.5394843,-44.1735129,12493,6759.07441
D1,Barra Mansa/RJ,-22.5394843,-44.1735129,380,205.59099
1,Barra Velha/SC,-26.6338203,-48.6835001,3357,11242.46484
D1,Barra Velha/SC,-26.6338203,-48.6835001,69,231.07837
1,Barra da Estiva/BA,-13.6269662,-41.3278287,1306,6404.47234
D1,Barra da Estiva/BA,-13.6269662,-41.3278287,9,44.13495
1,Barra de Guabiraba/PE,-8.4173522,-35.6626669,339,2336.31978
D1,Barra de Guabiraba/PE,-8.4173522,-35.6626669,13,89.59338
1,Barra de Santa Rosa/PB,-6.7218007,-36.0564638,675,4355.68174
D1,Barra de Santa Rosa/PB,-6.7218007,-36.0564638,4,25.81145
1,Barra de Santana/PB,-7.5230865,-35.9988518,312,3736.97449
D1,Barra de Santana/PB,-7.5230865,-35.9988518,4,47.90993
1,Barra de Santo Antônio/AL,-9.4038098,-35.5117693,249,1549.66393
D1,Barra de Santo Antônio/AL,-9.4038098,-35.5117693,18,112.02390
1,Barra de São Francisco/ES,-18.7570902,-40.8916119,4097,9108.69517
D1,Barra de São Francisco/ES,-18.7570902,-40.8916119,159,353.49830
1,Barra de São Miguel/AL,-9.8261357,-35.8837777,315,3759.84722
D1,Barra de São Miguel/AL,-9.8261357,-35.8837777,6,71.61614
1,Barra de São Miguel/PB,-7.7528088,-36.3170996,312,5144.27040
D1,Barra de São Miguel/PB,-7.7528088,-36.3170996,5,82.44023
1,Barra do Bugres/MT,-15.0683712,-57.1853688,2108,5970.48744
D1,Barra do Bugres/MT,-15.0683712,-57.1853688,50,141.61498
1,Barra do Chapéu/SP,-24.472203,-49.023784,214,3715.27778
D1,Barra do Chapéu/SP,-24.472203,-49.023784,1,17.36111
1,Barra do Choça/BA,-14.8638173,-40.5761637,1685,5399.08360
D1,Barra do Choça/BA,-14.8638173,-40.5761637,27,86.51351
1,Barra do Corda/MA,-5.496823,-45.248496,4899,5536.09366
D1,Barra do Corda/MA,-5.496823,-45.248496,48,54.24219
1,Barra do Garças/MT,-15.8916033,-52.2615413,5937,9711.29468
D1,Barra do Garças/MT,-15.8916033,-52.2615413,208,340.23064
1,Barra do Guarita/RS,-27.1888016,-53.7147086,105,3223.82561
D1,Barra do Guarita/RS,-27.1888016,-53.7147086,3,92.10930
1,Barra do Jacaré/PR,-23.1151788,-50.1813945,149,5357.78497
D1,Barra do Jacaré/PR,-23.1151788,-50.1813945,1,35.95829
1,Barra do Mendes/BA,-11.8053298,-42.057037,609,4402.51572
D1,Barra do Mendes/BA,-11.8053298,-42.057037,9,65.06181
1,Barra do Ouro/TO,-7.7113784,-47.6743925,113,2439.55095
D1,Barra do Ouro/TO,-7.7113784,-47.6743925,5,107.94473
1,Barra do Piraí/RJ,-22.4703403,-43.8263256,4419,4385.49482
D1,Barra do Piraí/RJ,-22.4703403,-43.8263256,215,213.36985
1,Barra do Quaraí/RS,-30.208947,-57.5505128,198,4684.17317
D1,Barra do Quaraí/RS,-30.208947,-57.5505128,2,47.31488
1,Barra do Ribeiro/RS,-30.2930206,-51.301437,926,6830.92358
D1,Barra do Ribeiro/RS,-30.2930206,-51.301437,45,331.95633
1,Barra do Rio Azul/RS,-27.4101581,-52.4117471,63,3806.64653
D1,Barra do Rio Azul/RS,-27.4101581,-52.4117471,1,60.42296
1,Barra do Rocha/BA,-14.2090974,-39.6004395,337,6004.98931
D1,Barra do Rocha/BA,-14.2090974,-39.6004395,4,71.27584
1,Barra do Turvo/SP,-24.756421,-48.5056942,404,5293.50105
D1,Barra do Turvo/SP,-24.756421,-48.5056942,10,131.02725
1,Barra dos Coqueiros/SE,-10.9075694,-37.0386249,5045,16311.02489
D1,Barra dos Coqueiros/SE,-10.9075694,-37.0386249,62,200.45263
1,Barra/BA,-11.0892702,-43.1420453,1483,2750.88110
D1,Barra/BA,-11.0892702,-43.1420453,26,48.22853
1,Barracão/PR,-26.252395,-53.6349576,917,8892.55237
D1,Barracão/PR,-26.252395,-53.6349576,24,232.73856
1,Barracão/RS,-27.6728964,-51.4582928,284,5403.34855
D1,Barracão/RS,-27.6728964,-51.4582928,8,152.20700
1,Barras/PI,-4.2446153,-42.2920241,3949,8369.18512
D1,Barras/PI,-4.2446153,-42.2920241,79,167.42609
1,Barreira/CE,-4.2883361,-38.641094,933,4133.25655
D1,Barreira/CE,-4.2883361,-38.641094,28,124.04200
1,Barreiras do Piauí/PI,-9.9224524,-45.4763776,58,1730.31026
D1,Barreiras do Piauí/PI,-9.9224524,-45.4763776,1,29.83294
1,Barreiras/BA,-12.1440031,-44.9967406,11209,7140.62749
D1,Barreiras/BA,-12.1440031,-44.9967406,152,96.83071
1,Barreirinha/AM,-2.798863,-57.067897,2259,6954.40692
D1,Barreirinha/AM,-2.798863,-57.067897,60,184.71200
1,Barreirinhas/MA,-2.7541271,-42.8259693,1662,2629.03966
D1,Barreirinhas/MA,-2.7541271,-42.8259693,32,50.61930
1,Barreiros/PE,-8.8159644,-35.1831905,643,1503.60116
D1,Barreiros/PE,-8.8159644,-35.1831905,47,109.90553
1,Barretos/SP,-20.5531437,-48.5697509,10022,8159.04521
D1,Barretos/SP,-20.5531437,-48.5697509,283,230.39411
1,Barrinha/SP,-21.1898849,-48.1550642,1172,3532.24834
D1,Barrinha/SP,-21.1898849,-48.1550642,46,138.63773
1,Barro Alto/BA,-11.7618025,-41.9094904,645,4284.57553
D1,Barro Alto/BA,-11.7618025,-41.9094904,8,53.14202
1,Barro Alto/GO,-14.9696025,-48.9190985,1172,10273.49229
D1,Barro Alto/GO,-14.9696025,-48.9190985,13,113.95512
1,Barro Duro/PI,-5.8180139,-42.5106589,538,7656.18329
D1,Barro Duro/PI,-5.8180139,-42.5106589,8,113.84659
1,Barro Preto/BA,-14.8068289,-39.4727588,502,9214.39060
D1,Barro Preto/BA,-14.8068289,-39.4727588,7,128.48752
1,Barro/CE,-7.1713587,-38.7742136,679,2983.56622
D1,Barro/CE,-7.1713587,-38.7742136,16,70.30495
1,Barrocas/BA,-11.5165,-39.099282894736845,651,4042.22291
D1,Barrocas/BA,-11.5165,-39.099282894736845,17,105.55728
1,Barrolândia/TO,-9.837246,-48.7264346,652,11537.78092
D1,Barrolândia/TO,-9.837246,-48.7264346,17,300.83171
1,Barroquinha/CE,-3.0200371,-41.1339229,917,6095.45334
D1,Barroquinha/CE,-3.0200371,-41.1339229,23,152.88487
1,Barros Cassal/RS,-29.094938,-52.5832366,460,4113.75425
D1,Barros Cassal/RS,-29.094938,-52.5832366,6,53.65766
1,Barroso/MG,-21.187222,-43.976111,763,3651.24181
D1,Barroso/MG,-21.187222,-43.976111,14,66.99526
1,Barueri/SP,-23.5112184,-46.8764612,21384,7720.35728
D1,Barueri/SP,-23.5112184,-46.8764612,774,279.44054
1,Barão de Antonina/SP,-23.6295651,-49.5632104,145,4145.22584
D1,Barão de Antonina/SP,-23.6295651,-49.5632104,3,85.76329
1,Barão de Cocais/MG,-19.9452437,-43.4870298,2994,9109.71825
D1,Barão de Cocais/MG,-19.9452437,-43.4870298,48,146.04759
1,Barão de Cotegipe/RS,-27.6214694,-52.3765316,530,8006.04230
D1,Barão de Cotegipe/RS,-27.6214694,-52.3765316,6,90.63444
1,Barão de Grajaú/MA,-6.7542591,-43.0263477,281,1484.88692
D1,Barão de Grajaú/MA,-6.7542591,-43.0263477,2,10.56859
1,Barão de Melgaço/MT,-16.195776,-55.9668049,266,3258.20676
D1,Barão de Melgaço/MT,-16.195776,-55.9668049,11,134.73787
1,Barão de Monte Alto/MG,-21.244722,-42.2375,190,3548.74860
D1,Barão de Monte Alto/MG,-21.244722,-42.2375,7,130.74337
1,Barão do Triunfo/RS,-30.3909877,-51.7375349,360,4787.87073
D1,Barão do Triunfo/RS,-30.3909877,-51.7375349,4,53.19856
1,Barão/RS,-29.372474,-51.494908,466,7513.70526
D1,Barão/RS,-29.372474,-51.494908,7,112.86682
1,Bastos/SP,-21.9222474,-50.7317727,488,2329.02210
D1,Bastos/SP,-21.9222474,-50.7317727,19,90.67914
1,Bataguassu/MS,-21.715899,-52.422058,1981,8493.03323
D1,Bataguassu/MS,-21.715899,-52.422058,23,98.60665
1,Batalha/AL,-9.6733809,-37.1265481,862,4700.62166
D1,Batalha/AL,-9.6733809,-37.1265481,15,81.79736
1,Batalha/PI,-4.022391,-42.0780926,820,3047.76064
D1,Batalha/PI,-4.022391,-42.0780926,30,111.50344
1,Batatais/SP,-20.892867,-47.592149,2018,3204.19181
D1,Batatais/SP,-20.892867,-47.592149,74,117.49762
1,Batayporã/MS,-22.2976466,-53.2685608,600,5286.80941
D1,Batayporã/MS,-22.2976466,-53.2685608,11,96.92484
1,Baturité/CE,-4.3290203,-38.8821055,2017,5611.97518
D1,Baturité/CE,-4.3290203,-38.8821055,50,139.11689
1,Bauru/SP,-22.3218102,-49.0705863,32299,8515.49050
D1,Bauru/SP,-22.3218102,-49.0705863,691,182.17914
1,Bayeux/PB,-7.1301631,-34.936532,5757,5922.65671
D1,Bayeux/PB,-7.1301631,-34.936532,203,208.84129
1,Baía Formosa/RN,-6.3691885,-35.0063741,249,2671.10062
D1,Baía Formosa/RN,-6.3691885,-35.0063741,8,85.81849
1,Baía da Traição/PB,-6.691258,-34.9371244,1112,12225.15391
D1,Baía da Traição/PB,-6.691258,-34.9371244,10,109.93843
1,Bebedouro/SP,-20.949077,-48.479083,3200,4126.10406
D1,Bebedouro/SP,-20.949077,-48.479083,77,99.28438
1,Beberibe/CE,-4.1810469,-38.1298101,2977,5518.17457
D1,Beberibe/CE,-4.1810469,-38.1298101,70,129.75217
1,Bela Cruz/CE,-3.0529129,-40.167582,2503,7649.28794
D1,Bela Cruz/CE,-3.0529129,-40.167582,48,146.69030
1,Bela Vista da Caroba/PR,-25.8792818,-53.6672545,156,4512.58316
D1,Bela Vista da Caroba/PR,-25.8792818,-53.6672545,4,115.70726
1,Bela Vista de Goiás/GO,-16.9692949,-48.9513071,1980,6493.50649
D1,Bela Vista de Goiás/GO,-16.9692949,-48.9513071,46,150.85924
1,Bela Vista de Minas/MG,-19.8289721,-43.0973688,577,5622.68564
D1,Bela Vista de Minas/MG,-19.8289721,-43.0973688,9,87.70220
1,Bela Vista do Maranhão/MA,-3.7416367,-45.2514192,190,1684.54650
D1,Bela Vista do Maranhão/MA,-3.7416367,-45.2514192,13,115.25844
1,Bela Vista do Paraíso/PR,-22.9948493,-51.1907996,1539,9994.15546
D1,Bela Vista do Paraíso/PR,-22.9948493,-51.1907996,48,311.70855
1,Bela Vista do Piauí/PI,-7.9716353,-41.8715061,225,5583.12655
D1,Bela Vista do Piauí/PI,-7.9716353,-41.8715061,6,148.88337
1,Bela Vista do Toldo/SC,-26.274625,-50.466354,58,911.66300
D1,Bela Vista do Toldo/SC,-26.274625,-50.466354,1,15.71833
1,Bela Vista/MS,-22.107327,-56.5317344,661,2672.32666
D1,Bela Vista/MS,-22.107327,-56.5317344,17,68.72852
1,Belford Roxo/RJ,-22.7667284,-43.4033603,18580,3620.99946
D1,Belford Roxo/RJ,-22.7667284,-43.4033603,509,99.19746
1,Belmiro Braga/MG,-21.9486291,-43.413564,148,4321.16788
D1,Belmiro Braga/MG,-21.9486291,-43.413564,3,87.59124
1,Belmonte/BA,-15.8630837,-38.8792845,873,3724.87946
D1,Belmonte/BA,-15.8630837,-38.8792845,15,64.00137
1,Belmonte/SC,-26.8448262,-53.578916,203,7493.54005
D1,Belmonte/SC,-26.8448262,-53.578916,4,147.65596
1,Belo Campo/BA,-15.0338286,-41.2585109,603,3524.46081
D1,Belo Campo/BA,-15.0338286,-41.2585109,7,40.91414
1,Belo Horizonte/MG,-19.9227318,-43.9450948,162568,6447.10981
D1,Belo Horizonte/MG,-19.9227318,-43.9450948,3913,155.18147
1,Belo Jardim/PE,-8.3338293,-36.4176419,2448,3192.19685
D1,Belo Jardim/PE,-8.3338293,-36.4176419,72,93.88814
1,Belo Monte/AL,-9.8269944,-37.2787165,237,3532.04173
D1,Belo Monte/AL,-9.8269944,-37.2787165,6,89.41878
1,Belo Oriente/MG,-19.2232523,-42.4807033,2185,8094.39135
D1,Belo Oriente/MG,-19.2232523,-42.4807033,47,174.11277
1,Belo Vale/MG,-20.407778,-44.024167,501,6490.47804
D1,Belo Vale/MG,-20.407778,-44.024167,9,116.59541
1,Belterra/PA,-2.636091,-54.937392,1095,6138.23645
D1,Belterra/PA,-2.636091,-54.937392,21,117.71960
1,Belágua/MA,-3.1604031,-43.5085052,283,3759.29862
D1,Belágua/MA,-3.1604031,-43.5085052,3,39.85122
1,Belém de Maria/PE,-8.6242497,-35.8388934,171,1410.65831
D1,Belém de Maria/PE,-8.6242497,-35.8388934,5,41.24732
1,Belém do Brejo do Cruz/PB,-6.1880727,-37.5332267,487,6626.75194
D1,Belém do Brejo do Cruz/PB,-6.1880727,-37.5332267,5,68.03647
1,Belém do Piauí/PI,-7.3767305,-40.9712156,410,11430.16448
D1,Belém do Piauí/PI,-7.3767305,-40.9712156,7,195.14915
1,Belém do São Francisco/PE,-8.7517707,-38.9625715,520,2508.44187
D1,Belém do São Francisco/PE,-8.7517707,-38.9625715,7,33.76749
1,Belém/AL,-9.5715351,-36.492841,91,2124.18301
D1,Belém/AL,-9.5715351,-36.492841,3,70.02801
1,Belém/PA,-1.45056,-48.4682453,92454,6165.07551
D1,Belém/PA,-1.45056,-48.4682453,4131,275.46593
1,Belém/PB,-6.6967586,-35.5369626,1671,9438.01186
D1,Belém/PB,-6.6967586,-35.5369626,30,169.44366
1,Beneditinos/PI,-5.4565671,-42.3605061,765,7304.49728
D1,Beneditinos/PI,-5.4565671,-42.3605061,28,267.35415
1,Benedito Leite/MA,-7.2173453,-44.5523331,280,4966.30011
D1,Benedito Leite/MA,-7.2173453,-44.5523331,2,35.47357
1,Benedito Novo/SC,-26.7840657,-49.3629511,892,7575.37155
D1,Benedito Novo/SC,-26.7840657,-49.3629511,13,110.40340
1,Benevides/PA,-1.3555577,-48.252235,3458,5422.78259
D1,Benevides/PA,-1.3555577,-48.252235,76,119.18203
1,Benjamin Constant do Sul/RS,-27.5105555,-52.6007689,152,7763.02349
1,Benjamin Constant/AM,-4.3782748,-70.0290603,2652,6036.18983
D1,Benjamin Constant/AM,-4.3782748,-70.0290603,77,175.25891
1,Bento Fernandes/RN,-5.6926846,-35.8207423,84,1520.36199
D1,Bento Fernandes/RN,-5.6926846,-35.8207423,2,36.19910
1,Bento Gonçalves/RS,-29.1654014,-51.5197627,13545,11120.41575
D1,Bento Gonçalves/RS,-29.1654014,-51.5197627,246,201.96547
1,Bento de Abreu/SP,-21.2707225,-50.8120444,232,7720.46589
1,Bequimão/MA,-2.4495376,-44.7884889,275,1291.14043
D1,Bequimão/MA,-2.4495376,-44.7884889,17,79.81595
1,Berilo/MG,-16.9515764,-42.4643732,10,84.23181
D1,Berilo/MG,-16.9515764,-42.4643732,1,8.42318
1,Berizal/MG,-15.6118785,-41.7417382,102,2141.05793
D1,Berizal/MG,-15.6118785,-41.7417382,1,20.99076
1,Bernardino Batista/PB,-6.4532173,-38.5495418,226,6391.40271
1,Bernardino de Campos/SP,-23.0140216,-49.4760724,334,2993.36799
D1,Bernardino de Campos/SP,-23.0140216,-49.4760724,7,62.73526
1,Bernardo Sayão/TO,-7.8794244,-48.8968905,355,7981.11511
D1,Bernardo Sayão/TO,-7.8794244,-48.8968905,6,134.89209
1,Bernardo do Mearim/MA,-4.6315929,-44.7617508,207,3408.52956
D1,Bernardo do Mearim/MA,-4.6315929,-44.7617508,5,82.33163
1,Bertioga/SP,-23.848568,-46.139586,4200,6489.19240
D1,Bertioga/SP,-23.848568,-46.139586,101,156.04963
1,Bertolínia/PI,-7.6372159,-43.9540611,705,12801.88851
D1,Bertolínia/PI,-7.6372159,-43.9540611,7,127.11095
1,Bertópolis/MG,-17.063333,-40.573889,252,5469.93705
1,Beruri/AM,-3.9007135,-61.3717319,2040,10152.78953
D1,Beruri/AM,-3.9007135,-61.3717319,31,154.28259
1,Betim/MG,-19.968056,-44.198333,23827,5356.98227
D1,Betim/MG,-19.968056,-44.198333,751,168.84600
1,Betânia do Piauí/PI,-8.1460635,-40.7961387,155,2495.97424
D1,Betânia do Piauí/PI,-8.1460635,-40.7961387,2,32.20612
1,Betânia/PE,-8.2742779,-38.0351767,275,2154.32824
D1,Betânia/PE,-8.2742779,-38.0351767,7,54.83745
1,Bezerros/PE,-8.2372132,-35.7558262,3033,4981.93167
D1,Bezerros/PE,-8.2372132,-35.7558262,88,144.54665
1,Bias Fortes/MG,-21.605833,-43.756944,98,2943.82698
D1,Bias Fortes/MG,-21.605833,-43.756944,25,750.97627
1,Bicas/MG,-21.7213723,-43.0604327,888,6101.41542
D1,Bicas/MG,-21.7213723,-43.0604327,2,13.74193
1,Biguaçu/SC,-27.4961277,-48.6542432,9914,14267.62225
D1,Biguaçu/SC,-27.4961277,-48.6542432,143,205.79685
1,Bilac/SP,-21.403962,-50.47464,696,8574.59653
D1,Bilac/SP,-21.403962,-50.47464,12,147.83787
1,Biquinhas/MG,-18.783611,-45.502222,98,3923.13851
1,Birigui/SP,-21.2908491,-50.34144,10475,8387.85103
D1,Birigui/SP,-21.2908491,-50.34144,318,254.63834
1,Biritiba Mirim/SP,-23.5697765,-46.0407456,929,2820.62181
D1,Biritiba Mirim/SP,-23.5697765,-46.0407456,59,179.13529
1,Biritinga/BA,-11.6227908,-38.8066738,276,1726.72673
D1,Biritinga/BA,-11.6227908,-38.8066738,6,37.53754
1,Bituruna/PR,-26.161281,-51.5533319,515,3140.24390
D1,Bituruna/PR,-26.161281,-51.5533319,8,48.78049
1,Blumenau/SC,-26.9195567,-49.0658025,43090,11908.08473
D1,Blumenau/SC,-26.9195567,-49.0658025,466,128.78087
1,Boa Esperança do Iguaçu/PR,-25.6362851,-53.2139114,120,4858.29960
1,Boa Esperança do Sul/SP,-21.9930206,-48.3917372,670,4461.31309
D1,Boa Esperança do Sul/SP,-21.9930206,-48.3917372,11,73.24544
1,Boa Esperança/ES,-18.5395472,-40.2904088,1035,6857.93798
D1,Boa Esperança/ES,-18.5395472,-40.2904088,32,212.03287
1,Boa Esperança/MG,-21.0901253,-45.5660195,2497,6208.50842
D1,Boa Esperança/MG,-21.0901253,-45.5660195,60,149.18322
1,Boa Esperança/PR,-24.2411024,-52.7860277,239,5905.60909
D1,Boa Esperança/PR,-24.2411024,-52.7860277,6,148.25797
1,Boa Hora/PI,-4.4094627,-42.1255341,448,6573.73441
D1,Boa Hora/PI,-4.4094627,-42.1255341,5,73.36757
1,Boa Nova/BA,-14.365907,-40.2063056,671,5442.45275
D1,Boa Nova/BA,-14.365907,-40.2063056,11,89.22054
1,Boa Ventura de São Roque/PR,-24.88177,-51.5441292,292,4587.58837
D1,Boa Ventura de São Roque/PR,-24.88177,-51.5441292,5,78.55460
1,Boa Ventura/PB,-7.4202462,-38.2156782,247,4654.23026
D1,Boa Ventura/PB,-7.4202462,-38.2156782,4,75.37215
1,Boa Viagem/CE,-5.1261877,-39.7300055,2471,4527.54823
D1,Boa Viagem/CE,-5.1261877,-39.7300055,62,113.60097
1,Boa Vista da Aparecida/PR,-25.4357216,-53.4067721,572,7586.20690
D1,Boa Vista da Aparecida/PR,-25.4357216,-53.4067721,17,225.46419
1,Boa Vista das Missões/RS,-27.6677983,-53.3127622,96,4588.91013
D1,Boa Vista das Missões/RS,-27.6677983,-53.3127622,4,191.20459
1,Boa Vista do Buricá/RS,-27.6687782,-54.1111913,563,8387.96186
D1,Boa Vista do Buricá/RS,-27.6687782,-54.1111913,8,119.18951
1,Boa Vista do Cadeado/RS,-28.5783827,-53.8123759,136,5510.53485
D1,Boa Vista do Cadeado/RS,-28.5783827,-53.8123759,2,81.03728
1,Boa Vista do Gurupi/MA,-1.7981168,-46.3071882,14,167.02458
D1,Boa Vista do Gurupi/MA,-1.7981168,-46.3071882,3,35.79098
1,Boa Vista do Incra/RS,-28.8195551,-53.3866624,156,5963.30275
D1,Boa Vista do Incra/RS,-28.8195551,-53.3866624,2,76.45260
1,Boa Vista do Ramos/AM,-2.9716927,-57.5869819,824,4198.51218
D1,Boa Vista do Ramos/AM,-2.9716927,-57.5869819,11,56.04810
1,Boa Vista do Sul/RS,-29.3510488,-51.6779679,249,8963.28294
D1,Boa Vista do Sul/RS,-29.3510488,-51.6779679,2,71.99424
1,Boa Vista do Tupim/BA,-12.6605988,-40.6083594,167,901.19260
D1,Boa Vista do Tupim/BA,-12.6605988,-40.6083594,4,21.58545
1,Boa Vista/PB,-7.2620711,-36.2415161,508,7118.83408
D1,Boa Vista/PB,-7.2620711,-36.2415161,9,126.12108
1,Boa Vista/RR,2.8208478,-60.6719582,71088,16939.75008
D1,Boa Vista/RR,2.8208478,-60.6719582,1110,264.50488
1,Boca da Mata/AL,-9.6452054,-36.2116658,1540,5629.47799
D1,Boca da Mata/AL,-9.6452054,-36.2116658,37,135.25369
1,Boca do Acre/AM,-8.7553487,-67.3930873,2451,7076.65656
D1,Boca do Acre/AM,-8.7553487,-67.3930873,22,63.51956
1,Bocaina de Minas/MG,-22.167778,-44.394722,117,2299.07644
D1,Bocaina de Minas/MG,-22.167778,-44.394722,3,58.95068
1,Bocaina do Sul/SC,-27.745494,-49.942279,350,10034.40367
D1,Bocaina do Sul/SC,-27.745494,-49.942279,3,86.00917
1,Bocaina/PI,-6.9445939,-41.3224599,219,4861.26526
D1,Bocaina/PI,-6.9445939,-41.3224599,3,66.59267
1,Bocaina/SP,-22.1421831,-48.522276,1078,8657.24382
D1,Bocaina/SP,-22.1421831,-48.522276,24,192.74012
1,Bocaiúva do Sul/PR,-25.206591,-49.114131,990,7540.55907
D1,Bocaiúva do Sul/PR,-25.206591,-49.114131,9,68.55054
1,Bocaiúva/MG,-17.1160208,-43.8122678,1659,3301.09838
D1,Bocaiúva/MG,-17.1160208,-43.8122678,37,73.62305
1,Bodocó/PE,-7.777592,-39.933797,1502,3913.70056
D1,Bodocó/PE,-7.777592,-39.933797,22,57.32451
1,Bodoquena/MS,-20.5508775,-56.6769653,245,3125.79740
D1,Bodoquena/MS,-20.5508775,-56.6769653,5,63.79178
1,Bodó/RN,-5.9866104,-36.4134824,95,4324.07829
1,Bofete/SP,-23.1019554,-48.2610535,513,4303.33026
D1,Bofete/SP,-23.1019554,-48.2610535,11,92.27414
1,Boituva/SP,-23.2838893,-47.6738231,3962,6372.84864
D1,Boituva/SP,-23.2838893,-47.6738231,83,133.50491
1,Bom Conselho/PE,-9.169191,-36.685683,1225,2511.94455
D1,Bom Conselho/PE,-9.169191,-36.685683,41,84.07325
1,Bom Despacho/MG,-19.7375242,-45.2517288,2106,4127.14588
D1,Bom Despacho/MG,-19.7375242,-45.2517288,59,115.62280
1,Bom Jardim da Serra/SC,-28.3380324,-49.625588,538,11274.09891
D1,Bom Jardim da Serra/SC,-28.3380324,-49.625588,3,62.86672
1,Bom Jardim de Goiás/GO,-16.2062659,-52.172793,552,6223.92603
D1,Bom Jardim de Goiás/GO,-16.2062659,-52.172793,11,124.02751
1,Bom Jardim de Minas/MG,-21.9476466,-44.1906033,287,4443.41229
D1,Bom Jardim de Minas/MG,-21.9476466,-44.1906033,1,15.48227
1,Bom Jardim/MA,-3.54129,-45.606004,1125,2689.97179
D1,Bom Jardim/MA,-3.54129,-45.606004,39,93.25236
1,Bom Jardim/PE,-7.7961572,-35.5871696,999,2498.56189
D1,Bom Jardim/PE,-7.7961572,-35.5871696,45,112.54783
1,Bom Jardim/RJ,-22.1515328,-42.4186683,896,3244.49594
D1,Bom Jardim/RJ,-22.1515328,-42.4186683,23,83.28505
1,Bom Jesus da Lapa/BA,-13.250571,-43.410754,2798,4016.53699
D1,Bom Jesus da Lapa/BA,-13.250571,-43.410754,39,55.98461
1,Bom Jesus da Penha/MG,-21.0165299,-46.5226644,280,6597.54948
D1,Bom Jesus da Penha/MG,-21.0165299,-46.5226644,8,188.50141
1,Bom Jesus da Serra/BA,-14.3724084,-40.5047119,401,4082.25593
D1,Bom Jesus da Serra/BA,-14.3724084,-40.5047119,7,71.26133
1,Bom Jesus das Selvas/MA,-4.4878075,-46.8526639,2355,6812.85619
D1,Bom Jesus das Selvas/MA,-4.4878075,-46.8526639,21,60.75158
1,Bom Jesus de Goiás/GO,-18.2174587,-49.739721,2298,8959.76294
D1,Bom Jesus de Goiás/GO,-18.2174587,-49.739721,86,335.30880
1,Bom Jesus do Amparo/MG,-19.7045132,-43.4752911,157,2559.92173
D1,Bom Jesus do Amparo/MG,-19.7045132,-43.4752911,5,81.52617
1,Bom Jesus do Araguaia/MT,-12.1725897,-51.5074425,720,10736.65374
D1,Bom Jesus do Araguaia/MT,-12.1725897,-51.5074425,13,193.85625
1,Bom Jesus do Galho/MG,-19.8283191,-42.3162256,494,3323.91334
D1,Bom Jesus do Galho/MG,-19.8283191,-42.3162256,19,127.84282
1,Bom Jesus do Itabapoana/RJ,-21.1341025,-41.680095,2503,6727.95205
D1,Bom Jesus do Itabapoana/RJ,-21.1341025,-41.680095,68,182.78096
1,Bom Jesus do Norte/ES,-21.1254776,-41.6711646,820,8231.27886
D1,Bom Jesus do Norte/ES,-21.1254776,-41.6711646,20,200.76290
1,Bom Jesus do Oeste/SC,-26.6929713,-53.0967453,119,5563.34736
D1,Bom Jesus do Oeste/SC,-26.6929713,-53.0967453,3,140.25245
1,Bom Jesus do Sul/PR,-26.1922507,-53.6002033,222,6332.00228
D1,Bom Jesus do Sul/PR,-26.1922507,-53.6002033,3,85.56760
1,Bom Jesus do Tocantins/PA,-5.0471796,-48.5978362,662,3867.27421
D1,Bom Jesus do Tocantins/PA,-5.0471796,-48.5978362,20,116.83608
1,Bom Jesus do Tocantins/TO,-8.96306,-48.165043,116,2316.29393
D1,Bom Jesus do Tocantins/TO,-8.96306,-48.165043,1,19.96805
1,Bom Jesus dos Perdões/SP,-23.1353864,-46.4648052,1405,5406.96556
D1,Bom Jesus dos Perdões/SP,-23.1353864,-46.4648052,21,80.81586
1,Bom Jesus/PB,-6.8156725,-38.6551841,110,4271.84466
D1,Bom Jesus/PB,-6.8156725,-38.6551841,3,116.50485
1,Bom Jesus/PI,-9.0711644,-44.3583926,2578,10154.80364
D1,Bom Jesus/PI,-9.0711644,-44.3583926,28,110.29267
1,Bom Jesus/RN,-5.9887544,-35.5821149,595,5795.26639
D1,Bom Jesus/RN,-5.9887544,-35.5821149,11,107.13938
1,Bom Jesus/RS,-28.6692723,-50.4346894,543,4801.48554
D1,Bom Jesus/RS,-28.6692723,-50.4346894,14,123.79521
1,Bom Jesus/SC,-26.7350604,-52.3916519,317,10369.64344
D1,Bom Jesus/SC,-26.7350604,-52.3916519,6,196.27085
1,Bom Lugar/MA,-4.3728019,-45.0366054,394,2396.88527
D1,Bom Lugar/MA,-4.3728019,-45.0366054,7,42.58426
1,Bom Princípio do Piauí/PI,-3.1912777,-41.6430185,102,1804.99027
D1,Bom Princípio do Piauí/PI,-3.1912777,-41.6430185,9,159.26385
1,Bom Princípio/RS,-29.489788,-51.3566782,1290,9049.45633
D1,Bom Princípio/RS,-29.489788,-51.3566782,23,161.34690
1,Bom Progresso/RS,-27.5490948,-53.8655601,101,5318.58873
D1,Bom Progresso/RS,-27.5490948,-53.8655601,1,52.65929
1,Bom Repouso/MG,-22.4657069,-46.1485376,478,4536.39556
D1,Bom Repouso/MG,-22.4657069,-46.1485376,12,113.88441
1,Bom Retiro do Sul/RS,-29.6000007,-51.9359243,884,7134.78612
D1,Bom Retiro do Sul/RS,-29.6000007,-51.9359243,21,169.49153
1,Bom Retiro/SC,-27.798993,-49.486994,572,5685.88469
D1,Bom Retiro/SC,-27.798993,-49.486994,14,139.16501
1,Bom Sucesso de Itararé/SP,-24.3190016,-49.1446207,116,2911.64659
D1,Bom Sucesso de Itararé/SP,-24.3190016,-49.1446207,5,125.50201
1,Bom Sucesso do Sul/PR,-26.0749256,-52.8348629,277,8512.59988
D1,Bom Sucesso do Sul/PR,-26.0749256,-52.8348629,5,153.65704
1,Bom Sucesso/MG,-21.0323516,-44.7598082,432,2453.56960
D1,Bom Sucesso/MG,-21.0323516,-44.7598082,4,22.71824
1,Bom Sucesso/PB,-6.4458948,-37.9297662,170,3430.18563
D1,Bom Sucesso/PB,-6.4458948,-37.9297662,2,40.35513
1,Bom Sucesso/PR,-23.7088019,-51.7651297,576,8149.40577
D1,Bom Sucesso/PR,-23.7088019,-51.7651297,11,155.63101
1,Bombinhas/SC,-27.1519159,-48.4875691,3184,15657.73297
D1,Bombinhas/SC,-27.1519159,-48.4875691,45,221.29334
1,Bonfim do Piauí/PI,-9.1648678,-42.8734415,243,4274.40633
D1,Bonfim do Piauí/PI,-9.1648678,-42.8734415,5,87.95075
1,Bonfim/MG,-20.3266626, -44.2386157,321,4679.30029
D1,Bonfim/MG,-20.3266626, -44.2386157,10,145.77259
1,Bonfim/RR,3.3613818,-59.8427241,2042,16261.84598
D1,Bonfim/RR,3.3613818,-59.8427241,24,191.12845
1,Bonfinópolis de Minas/MG,-16.5660011,-45.98645,363,6667.89126
D1,Bonfinópolis de Minas/MG,-16.5660011,-45.98645,10,183.68846
1,Bonfinópolis/GO,-16.6172709,-48.9615701,427,4304.86944
D1,Bonfinópolis/GO,-16.6172709,-48.9615701,15,151.22492
1,Boninal/BA,-12.7095183,-41.8299984,560,3876.50561
D1,Boninal/BA,-12.7095183,-41.8299984,7,48.45632
1,Bonito de Minas/MG,-15.3191266,-44.7544,43,378.22148
1,Bonito de Santa Fé/PB,-7.3143332,-38.5146677,379,3152.55365
D1,Bonito de Santa Fé/PB,-7.3143332,-38.5146677,11,91.49892
1,Bonito/BA,-11.9665473,-41.2649896,608,3601.04241
D1,Bonito/BA,-11.9665473,-41.2649896,6,35.53660
1,Bonito/MS,-21.1264766,-56.4902208,2074,9346.55250
D1,Bonito/MS,-21.1264766,-56.4902208,39,175.75484
1,Bonito/PA,-1.3605722,-47.3049907,345,2087.11434
D1,Bonito/PA,-1.3605722,-47.3049907,12,72.59528
1,Bonito/PE,-8.4721161,-35.7314591,581,1524.25427
D1,Bonito/PE,-8.4721161,-35.7314591,31,81.32854
1,Bonópolis/GO,-13.649331,-49.8329113,120,2670.82128
D1,Bonópolis/GO,-13.649331,-49.8329113,1,22.25684
1,Boqueirão do Leão/RS,-29.30332,-52.4296817,544,7063.10049
D1,Boqueirão do Leão/RS,-29.30332,-52.4296817,28,363.54194
1,Boqueirão do Piauí/PI,-4.4850148,-42.1095161,437,6800.49798
D1,Boqueirão do Piauí/PI,-4.4850148,-42.1095161,7,108.93246
1,Boqueirão/PB,-7.487004,-36.130887,1210,6771.12479
D1,Boqueirão/PB,-7.487004,-36.130887,22,123.11136
1,Boquim/SE,-11.1450175,-37.6204228,1607,5974.19978
D1,Boquim/SE,-11.1450175,-37.6204228,34,126.39875
1,Boquira/BA,-12.8184859,-42.7270883,436,2028.18998
D1,Boquira/BA,-12.8184859,-42.7270883,7,32.56268
1,Boracéia/SP,-22.195355,-48.7801925,735,15098.60312
D1,Boracéia/SP,-22.195355,-48.7801925,18,369.76171
1,Borba/AM,-4.3934778,-59.5947721,1661,3978.63371
D1,Borba/AM,-4.3934778,-59.5947721,51,122.16154
1,Borborema/PB,-6.8066718,-35.5990191,219,4142.23567
D1,Borborema/PB,-6.8066718,-35.5990191,4,75.65727
1,Borborema/SP,-21.6212706,-49.074135,858,5308.09206
D1,Borborema/SP,-21.6212706,-49.074135,27,167.03786
1,Borda da Mata/MG,-22.274167,-46.165278,1003,5113.69430
D1,Borda da Mata/MG,-22.274167,-46.165278,28,142.75517
1,Borebi/SP,-22.5700178,-48.9714871,125,4658.96385
D1,Borebi/SP,-22.5700178,-48.9714871,2,74.54342
1,Borrazópolis/PR,-23.9393362,-51.5850786,476,7392.45224
D1,Borrazópolis/PR,-23.9393362,-51.5850786,13,201.89470
1,Borá/SP,-22.2701088,-50.544407,43,5131.26492
1,Bossoroca/RS,-28.7278885,-54.9120278,331,5334.40774
D1,Bossoroca/RS,-28.7278885,-54.9120278,19,306.20467
1,Botelhos/MG,-21.65,-46.394722,1057,7070.70707
D1,Botelhos/MG,-21.65,-46.394722,10,66.89411
1,Botucatu/SP,-22.8879628,-48.4410712,10697,7221.35962
D1,Botucatu/SP,-22.8879628,-48.4410712,183,123.54013
1,Botumirim/MG,-16.862778,-43.011111,159,2528.62595
D1,Botumirim/MG,-16.862778,-43.011111,2,31.80662
1,Botuporã/BA,-13.3744752,-42.5198469,186,1836.31158
D1,Botuporã/BA,-13.3744752,-42.5198469,3,29.61793
1,Botuverá/SC,-27.200749,-49.068892,802,15069.52274
D1,Botuverá/SC,-27.200749,-49.068892,8,150.31943
1,Bozano/RS,-28.3669953,-53.7705165,197,9332.07011
D1,Bozano/RS,-28.3669953,-53.7705165,7,331.59640
1,Braga/RS,-27.617348,-53.740514,133,4016.91332
D1,Braga/RS,-27.617348,-53.740514,4,120.80942
1,Braganey/PR,-24.8179919,-53.118506,286,5314.00966
D1,Braganey/PR,-24.8179919,-53.118506,7,130.06317
1,Bragança Paulista/SP,-22.9520235,-46.5418586,10740,6297.90129
D1,Bragança Paulista/SP,-22.9520235,-46.5418586,258,151.29037
1,Bragança/PA,-1.0573967,-46.7635406,3335,2586.99598
D1,Bragança/PA,-1.0573967,-46.7635406,109,84.55249
1,Branquinha/AL,-9.2478057,-36.0152009,431,4120.45889
D1,Branquinha/AL,-9.2478057,-36.0152009,9,86.04207
1,Brasil Novo/PA,-3.3055853,-52.539198,1292,8623.10619
D1,Brasil Novo/PA,-3.3055853,-52.539198,25,166.85577
1,Brasileira/PI,-4.131182,-41.7824969,427,5115.61040
D1,Brasileira/PI,-4.131182,-41.7824969,8,95.84282
1,Brasilândia de Minas/MG,-17.0096469,-46.0087183,850,5075.23286
D1,Brasilândia de Minas/MG,-17.0096469,-46.0087183,9,53.73776
1,Brasilândia do Sul/PR,-24.1975793,-53.527551,304,11760.15474
D1,Brasilândia do Sul/PR,-24.1975793,-53.527551,7,270.79304
1,Brasilândia do Tocantins/TO,-8.3886619,-48.4842729,121,5472.63682
D1,Brasilândia do Tocantins/TO,-8.3886619,-48.4842729,2,90.45681
1,Brasilândia/MS,-21.255575,-52.0365617,643,5424.78697
D1,Brasilândia/MS,-21.255575,-52.0365617,10,84.36683
1,Brasiléia/AC,-11.0010413,-68.7487894,2309,8647.29234
D1,Brasiléia/AC,-11.0010413,-68.7487894,31,116.09617
1,Brasnorte/MT,-12.1227151,-58.0050109,1591,7899.70209
D1,Brasnorte/MT,-12.1227151,-58.0050109,23,114.20060
1,Brasília de Minas/MG,-16.2075114,-44.430559,770,2376.17652
D1,Brasília de Minas/MG,-16.2075114,-44.430559,5,15.42972
1,Brasília/DF,-15.7934036,-47.8823172,366708,12002.94977
D1,Brasília/DF,-15.7934036,-47.8823172,7210,235.99504
1,Brazabrantes/GO,-16.4291635,-49.3858216,335,8942.87240
D1,Brazabrantes/GO,-16.4291635,-49.3858216,3,80.08542
1,Brazópolis/MG,-22.4742842,-45.6165577,599,4156.83553
D1,Brazópolis/MG,-22.4742842,-45.6165577,6,41.63775
1,Braço do Norte/SC,-28.2728633,-49.1622712,6780,20014.16932
D1,Braço do Norte/SC,-28.2728633,-49.1622712,67,197.78014
1,Braço do Trombudo/SC,-27.358578,-49.882145,517,13717.16636
D1,Braço do Trombudo/SC,-27.358578,-49.882145,4,106.12895
1,Braúna/SP,-21.5015319,-50.3175246,344,5991.98746
D1,Braúna/SP,-21.5015319,-50.3175246,15,261.27852
1,Braúnas/MG,-19.055556,-42.716111,170,3564.68861
D1,Braúnas/MG,-19.055556,-42.716111,26,545.18767
1,Brejetuba/ES,-20.1465817,-41.2902303,1367,11000.24141
D1,Brejetuba/ES,-20.1465817,-41.2902303,12,96.56393
1,Brejinho de Nazaré/TO,-11.0205883,-48.5722906,340,6160.53633
D1,Brejinho de Nazaré/TO,-11.0205883,-48.5722906,7,126.83457
1,Brejinho/PE,-7.3482153,-37.28538,498,6650.64103
D1,Brejinho/PE,-7.3482153,-37.28538,10,133.54701
1,Brejinho/RN,-6.1957907,-35.3583019,777,6076.48393
D1,Brejinho/RN,-6.1957907,-35.3583019,8,62.56354
1,Brejo Alegre/SP,-21.1671191,-50.1850393,260,8999.65386
D1,Brejo Alegre/SP,-21.1671191,-50.1850393,10,346.14053
1,Brejo Grande do Araguaia/PA,-5.7011449,-48.4037308,746,10124.86428
D1,Brejo Grande do Araguaia/PA,-5.7011449,-48.4037308,4,54.28882
1,Brejo Grande/SE,-10.4287358,-36.4667918,297,3555.60876
D1,Brejo Grande/SE,-10.4287358,-36.4667918,12,143.66096
1,Brejo Santo/CE,-7.4909841,-38.9859152,6269,12577.74568
D1,Brejo Santo/CE,-7.4909841,-38.9859152,98,196.62132
1,Brejo da Madre de Deus/PE,-8.1409718,-36.3712527,1625,3172.27916
D1,Brejo da Madre de Deus/PE,-8.1409718,-36.3712527,44,85.89556
1,Brejo de Areia/MA,-4.3316785,-45.5833334,281,3117.37298
D1,Brejo de Areia/MA,-4.3316785,-45.5833334,8,88.75083
1,Brejo do Cruz/PB,-6.32926065,-37.48746163303929,1231,8665.35267
D1,Brejo do Cruz/PB,-6.32926065,-37.48746163303929,19,133.74630
1,Brejo do Piauí/PI,-8.207583,-42.8359849,59,1533.26403
D1,Brejo do Piauí/PI,-8.207583,-42.8359849,3,77.96258
1,Brejo dos Santos/PB,-6.3769367,-37.8243125,334,5167.07921
D1,Brejo dos Santos/PB,-6.3769367,-37.8243125,4,61.88119
1,Brejo/MA,-3.6804397,-42.7529313,791,2158.19487
D1,Brejo/MA,-3.6804397,-42.7529313,18,49.11189
1,Brejolândia/BA,-12.4843845,-43.9611861,129,1214.91806
D1,Brejolândia/BA,-12.4843845,-43.9611861,8,75.34376
1,Brejão/PE,-9.029146,-36.566034,160,1780.34939
D1,Brejão/PE,-9.029146,-36.566034,5,55.63592
1,Brejões/BA,-13.1033754,-39.7909837,520,3656.30713
D1,Brejões/BA,-13.1033754,-39.7909837,8,56.25088
1,Breu Branco/PA,-3.7785073,-49.5684795,549,815.36268
D1,Breu Branco/PA,-3.7785073,-49.5684795,31,46.04052
1,Breves/PA,-1.68036,-50.479085,3710,3584.64497
D1,Breves/PA,-1.68036,-50.479085,105,101.45222
1,Britânia/GO,-15.2427599,-51.1602061,422,7279.62739
D1,Britânia/GO,-15.2427599,-51.1602061,3,51.75091
1,Brochier/RS,-29.556766,-51.5963047,337,6602.66458
D1,Brochier/RS,-29.556766,-51.5963047,1,19.59248
1,Brodowski/SP,-20.984532,-47.657217,1654,6543.49804
D1,Brodowski/SP,-20.984532,-47.657217,43,170.11512
1,Brotas de Macaúbas/BA,-12.0019007,-42.6257506,57,562.68509
D1,Brotas de Macaúbas/BA,-12.0019007,-42.6257506,1,9.87167
1,Brotas/SP,-22.2840884,-48.1267265,395,1603.34470
D1,Brotas/SP,-22.2840884,-48.1267265,22,89.30021
1,Brumadinho/MG,-20.143611,-44.2,2698,6634.53499
D1,Brumadinho/MG,-20.143611,-44.2,52,127.87095
1,Brumado/BA,-14.29507325,-41.659307508575985,7777,11549.71412
D1,Brumado/BA,-14.29507325,-41.659307508575985,142,210.88587
1,Brunópolis/SC,-27.310953,-50.837585,160,6756.75676
D1,Brunópolis/SC,-27.310953,-50.837585,4,168.91892
1,Brusque/SC,-27.0964628,-48.9136323,21531,15637.41475
D1,Brusque/SC,-27.0964628,-48.9136323,214,155.42273
1,Brás Pires/MG,-20.8483109,-43.2430524,147,3424.17890
D1,Brás Pires/MG,-20.8483109,-43.2430524,5,116.46867
1,Bueno Brandão/MG,-22.441976,-46.3517971,518,4712.94696
D1,Bueno Brandão/MG,-22.441976,-46.3517971,16,145.57365
1,Buenos Aires/PE,-7.7218931,-35.326587,181,1372.25171
D1,Buenos Aires/PE,-7.7218931,-35.326587,18,136.46702
1,Buenópolis/MG,-17.8756607,-44.1749365,264,2549.98551
D1,Buenópolis/MG,-17.8756607,-44.1749365,7,67.61325
1,Buerarema/BA,-14.9571177,-39.3008035,1212,6620.78007
D1,Buerarema/BA,-14.9571177,-39.3008035,36,196.65683
1,Bugre/MG,-19.4257687,-42.2556,343,8611.59930
D1,Bugre/MG,-19.4257687,-42.2556,10,251.06703
1,Bujari/AC,-9.8309656,-67.9520886,1046,10038.38772
D1,Bujari/AC,-9.8309656,-67.9520886,12,115.16315
1,Bujaru/PA,-1.5169239,-48.0410699,1220,4145.85245
D1,Bujaru/PA,-1.5169239,-48.0410699,32,108.74367
1,Buri/SP,-23.79849,-48.598924,1964,9837.21513
D1,Buri/SP,-23.79849,-48.598924,42,210.36814
1,Buritama/SP,-21.0664017,-50.1448077,1710,9895.26069
D1,Buritama/SP,-21.0664017,-50.1448077,46,266.18830
1,Buriti Alegre/GO,-18.1377879,-49.0404411,757,7981.86419
D1,Buriti Alegre/GO,-18.1377879,-49.0404411,27,284.69000
1,Buriti Bravo/MA,-5.8391884,-43.8367876,1155,4824.76294
D1,Buriti Bravo/MA,-5.8391884,-43.8367876,11,45.95012
1,Buriti de Goiás/GO,-16.180644,-50.4287479,172,6946.68821
D1,Buriti de Goiás/GO,-16.180644,-50.4287479,5,201.93861
1,Buriti do Tocantins/TO,-5.3187439,-48.2256609,593,5157.86727
D1,Buriti do Tocantins/TO,-5.3187439,-48.2256609,5,43.48961
1,Buriti dos Lopes/PI,-3.1776723,-41.8707444,1104,5573.78704
D1,Buriti dos Lopes/PI,-3.1776723,-41.8707444,22,111.07184
1,Buriti dos Montes/PI,-5.3136171,-41.0971256,504,6098.74153
D1,Buriti dos Montes/PI,-5.3136171,-41.0971256,6,72.60407
1,Buriti/MA,-3.9430944,-42.9244281,751,2607.81999
D1,Buriti/MA,-3.9430944,-42.9244281,7,24.30724
1,Buriticupu/MA,-4.3227472,-46.4516989,2874,3937.90335
D1,Buriticupu/MA,-4.3227472,-46.4516989,35,47.95637
1,Buritinópolis/GO,-14.4589282,-46.4293104,142,4325.31221
D1,Buritinópolis/GO,-14.4589282,-46.4293104,1,30.45995
1,Buritirama/BA,-10.7148421,-43.6362327,728,3421.69581
D1,Buritirama/BA,-10.7148421,-43.6362327,15,70.50197
1,Buritirana/MA,-5.5897455,-47.0148915,282,1823.23657
D1,Buritirana/MA,-5.5897455,-47.0148915,23,148.70369
1,Buritis/MG,-15.621389,-46.423889,1189,4753.52817
D1,Buritis/MG,-15.621389,-46.423889,21,83.95634
1,Buritis/RO,-10.2054937,-63.8281954,4069,10082.76341
D1,Buritis/RO,-10.2054937,-63.8281954,56,138.76499
1,Buritizal/SP,-20.1933264,-47.7097165,196,4342.04696
D1,Buritizal/SP,-20.1933264,-47.7097165,5,110.76650
1,Buritizeiro/MG,-17.3667765,-44.9647781,847,3011.98393
D1,Buritizeiro/MG,-17.3667765,-44.9647781,24,85.34547
1,Butiá/RS,-30.1256795,-51.9692224,1495,7135.35701
D1,Butiá/RS,-30.1256795,-51.9692224,45,214.77663
1,Buíque/PE,-8.6239732,-37.157296,1682,2854.76671
D1,Buíque/PE,-8.6239732,-37.157296,32,54.31185
1,Bálsamo/SP,-20.7343722,-49.5807484,1206,13196.19214
D1,Bálsamo/SP,-20.7343722,-49.5807484,45,492.39523
0,CASO SEM LOCALIZAÇÃO DEFINIDA/AL,-9.931093434363673,-35.609611600637464,2,0.05993
D0,CASO SEM LOCALIZAÇÃO DEFINIDA/AL,-9.931093434363673,-35.609611600637464,2,0.05993
0,CASO SEM LOCALIZAÇÃO DEFINIDA/BA,-13.415069300066518,-38.14174656569957,11360,76.37969
D0,CASO SEM LOCALIZAÇÃO DEFINIDA/BA,-13.415069300066518,-38.14174656569957,201,1.35144
0,CASO SEM LOCALIZAÇÃO DEFINIDA/CE,-3.3445126297392798,-38.624961942434304,8510,93.18799
D0,CASO SEM LOCALIZAÇÃO DEFINIDA/CE,-3.3445126297392798,-38.624961942434304,17,0.18616
0,CASO SEM LOCALIZAÇÃO DEFINIDA/ES,-20.30989267097039,-39.81745156645774,3134,77.98639
D0,CASO SEM LOCALIZAÇÃO DEFINIDA/ES,-20.30989267097039,-39.81745156645774,158,3.93167
0,CASO SEM LOCALIZAÇÃO DEFINIDA/GO,-16.701590966270153,-49.164524059025034,2481,35.35017
D0,CASO SEM LOCALIZAÇÃO DEFINIDA/GO,-16.701590966270153,-49.164524059025034,132,1.88078
0,CASO SEM LOCALIZAÇÃO DEFINIDA/MG,-19.97049116501593,-43.8852149072783,6138,28.99552
D0,CASO SEM LOCALIZAÇÃO DEFINIDA/MG,-19.97049116501593,-43.8852149072783,322,1.52111
0,CASO SEM LOCALIZAÇÃO DEFINIDA/MT,-15.54791153961863,-56.17143998972475,2020,57.97158
D0,CASO SEM LOCALIZAÇÃO DEFINIDA/MT,-15.54791153961863,-56.17143998972475,154,4.41962
0,CASO SEM LOCALIZAÇÃO DEFINIDA/PA,-0.09317078214359542,-48.0050231510481,320,3.71969
D0,CASO SEM LOCALIZAÇÃO DEFINIDA/PA,-0.09317078214359542,-48.0050231510481,34,0.39522
0,CASO SEM LOCALIZAÇÃO DEFINIDA/PI,-2.683810218391744,-41.470898009352254,1286,39.28845
D0,CASO SEM LOCALIZAÇÃO DEFINIDA/PI,-2.683810218391744,-41.470898009352254,22,0.67212
0,CASO SEM LOCALIZAÇÃO DEFINIDA/PR,-25.69415946385943,-48.10141676336737,5589,48.88072
D0,CASO SEM LOCALIZAÇÃO DEFINIDA/PR,-25.69415946385943,-48.10141676336737,131,1.14571
0,CASO SEM LOCALIZAÇÃO DEFINIDA/RN,-5.749310788669161,-34.95302586257457,110,3.13672
0,CASO SEM LOCALIZAÇÃO DEFINIDA/RR,2.813328208465927,-60.663338675861986,2514,415.01516
D0,CASO SEM LOCALIZAÇÃO DEFINIDA/RR,2.813328208465927,-60.663338675861986,14,2.31114
0,CASO SEM LOCALIZAÇÃO DEFINIDA/SP,-24.30968974555485,-46.21366504207253,494,1.07581
1,Caapiranga/AM,-3.3188884,-61.2096404,547,4118.04562
D1,Caapiranga/AM,-3.3188884,-61.2096404,20,150.56840
1,Caaporã/PB,-7.510234,-34.9154114,1466,6677.29447
D1,Caaporã/PB,-7.510234,-34.9154114,25,113.86928
1,Caarapó/MS,-22.6349267,-54.8240903,2503,8181.61017
D1,Caarapó/MS,-22.6349267,-54.8240903,24,78.44932
1,Caatiba/BA,-14.9782759,-40.4092325,663,10218.86560
D1,Caatiba/BA,-14.9782759,-40.4092325,6,92.47842
1,Cabaceiras do Paraguaçu/BA,-12.5377868,-39.1901339,400,2115.17106
D1,Cabaceiras do Paraguaçu/BA,-12.5377868,-39.1901339,4,21.15171
1,Cabaceiras/PB,-7.4899156,-36.2860501,300,5299.41706
D1,Cabaceiras/PB,-7.4899156,-36.2860501,1,17.66472
1,Cabeceira Grande/MG,-16.0297,-47.0906,248,3548.94104
D1,Cabeceira Grande/MG,-16.0297,-47.0906,4,57.24098
1,Cabeceiras do Piauí/PI,-4.4733665,-42.3098716,408,3838.19379
D1,Cabeceiras do Piauí/PI,-4.4733665,-42.3098716,9,84.66604
1,Cabeceiras/GO,-15.7995459,-46.9264991,244,3032.56276
D1,Cabeceiras/GO,-15.7995459,-46.9264991,9,111.85682
1,Cabedelo/PB,-6.97324,-34.8351609,7077,10291.27343
D1,Cabedelo/PB,-6.97324,-34.8351609,158,229.76137
1,Cabixi/RO,-13.4956065,-60.5424442,616,11873.55436
D1,Cabixi/RO,-13.4956065,-60.5424442,13,250.57826
1,Cabo Frio/RJ,-22.8804369,-42.0189227,9528,4135.81158
D1,Cabo Frio/RJ,-22.8804369,-42.0189227,436,189.25418
1,Cabo Verde/MG,-21.4743338,-46.3964995,317,2252.22025
D1,Cabo Verde/MG,-21.4743338,-46.3964995,5,35.52398
1,Cabo de Santo Agostinho/PE,-8.2838945,-35.0320984,4145,1983.78513
D1,Cabo de Santo Agostinho/PE,-8.2838945,-35.0320984,373,178.51673
1,Cabreúva/SP,-23.3075813,-47.1324417,2902,5754.62531
D1,Cabreúva/SP,-23.3075813,-47.1324417,67,132.86006
1,Cabrobó/PE,-8.5083701,-39.3106961,1363,3950.38113
D1,Cabrobó/PE,-8.5083701,-39.3106961,15,43.47448
1,Cabrália Paulista/SP,-22.4562909,-49.3385645,211,4972.89654
D1,Cabrália Paulista/SP,-22.4562909,-49.3385645,2,47.13646
1,Cacaulândia/RO,-10.3380043,-62.9007231,710,11325.57027
D1,Cacaulândia/RO,-10.3380043,-62.9007231,9,143.56357
1,Cacequi/RS,-29.8838059,-54.8273443,161,1295.98326
D1,Cacequi/RS,-29.8838059,-54.8273443,6,48.29751
1,Cachoeira Alta/GO,-18.7618269,-50.9432431,1093,8629.40155
D1,Cachoeira Alta/GO,-18.7618269,-50.9432431,15,118.42729
1,Cachoeira Dourada/GO,-18.4934204,-49.481062,373,4644.50255
D1,Cachoeira Dourada/GO,-18.4934204,-49.481062,11,136.96924
1,Cachoeira Dourada/MG,-18.517136,-49.5002062,126,4656.31929
D1,Cachoeira Dourada/MG,-18.517136,-49.5002062,2,73.90983
1,Cachoeira Grande/MA,-2.9290492,-44.0573223,210,2215.65731
D1,Cachoeira Grande/MA,-2.9290492,-44.0573223,5,52.75375
1,Cachoeira Paulista/SP,-22.666498,-45.015384,1738,5175.54570
D1,Cachoeira Paulista/SP,-22.666498,-45.015384,28,83.38048
1,Cachoeira da Prata/MG,-19.524723,-44.453056,204,5680.86884
D1,Cachoeira da Prata/MG,-19.524723,-44.453056,4,111.38959
1,Cachoeira de Goiás/GO,-16.6688414,-50.6435997,50,3725.78241
1,Cachoeira de Minas/MG,-22.3554043,-45.7796324,493,4257.70792
D1,Cachoeira de Minas/MG,-22.3554043,-45.7796324,6,51.81795
1,Cachoeira de Pajeú/MG,-15.965833,-41.496666,293,3103.15611
D1,Cachoeira de Pajeú/MG,-15.965833,-41.496666,8,84.72781
1,Cachoeira do Arari/PA,-1.0143572,-48.9621089,353,1466.92154
D1,Cachoeira do Arari/PA,-1.0143572,-48.9621089,15,62.33378
1,Cachoeira do Piriá/PA,-1.7599443,-46.5446954,677,1956.13858
D1,Cachoeira do Piriá/PA,-1.7599443,-46.5446954,3,8.66827
1,Cachoeira do Sul/RS,-30.0474778,-52.8905413,5800,7084.48863
D1,Cachoeira do Sul/RS,-30.0474778,-52.8905413,87,106.26733
1,Cachoeira dos Índios/PB,-6.9259193,-38.6742159,528,5123.72635
D1,Cachoeira dos Índios/PB,-6.9259193,-38.6742159,13,126.15235
1,Cachoeira/BA,-12.5998256,-38.9665918,1143,3405.13004
D1,Cachoeira/BA,-12.5998256,-38.9665918,17,50.64498
1,Cachoeiras de Macacu/RJ,-22.4626861,-42.6534414,2254,3800.81952
D1,Cachoeiras de Macacu/RJ,-22.4626861,-42.6534414,74,124.78289
1,Cachoeirinha/PE,-8.4906364,-36.2338963,377,1838.93469
D1,Cachoeirinha/PE,-8.4906364,-36.2338963,22,107.31184
1,Cachoeirinha/RS,-29.9493353,-51.0898927,11146,8492.83755
D1,Cachoeirinha/RS,-29.9493353,-51.0898927,329,250.68577
1,Cachoeirinha/TO,-6.118647,-47.9208885,116,5078.80911
D1,Cachoeirinha/TO,-6.118647,-47.9208885,2,87.56567
1,Cachoeiro de Itapemirim/ES,-20.848084,-41.11129,21269,10099.76779
D1,Cachoeiro de Itapemirim/ES,-20.848084,-41.11129,423,200.86519
1,Cacimba de Areia/PB,-7.1288513,-37.1575194,28,757.78078
D1,Cacimba de Areia/PB,-7.1288513,-37.1575194,1,27.06360
1,Cacimba de Dentro/PB,-6.6425101,-35.7929304,837,4872.51135
D1,Cacimba de Dentro/PB,-6.6425101,-35.7929304,22,128.07079
1,Cacimbas/PB,-7.2125451,-37.0593398,195,2708.70954
D1,Cacimbas/PB,-7.2125451,-37.0593398,6,83.34491
1,Cacimbinhas/AL,-9.401212,-36.991082,496,4555.05556
D1,Cacimbinhas/AL,-9.401212,-36.991082,6,55.10148
1,Cacique Doble/RS,-27.7700117,-51.6616409,315,6208.11983
D1,Cacique Doble/RS,-27.7700117,-51.6616409,5,98.54158
1,Cacoal/RO,-11.4333,-61.4420502,10526,12254.78211
D1,Cacoal/RO,-11.4333,-61.4420502,179,208.39882
1,Caconde/SP,-21.527995,-46.643659,908,4776.68473
D1,Caconde/SP,-21.527995,-46.643659,10,52.60666
1,Caculé/BA,-14.4990734,-42.2233006,1241,5328.23838
D1,Caculé/BA,-14.4990734,-42.2233006,11,47.22854
1,Caetanos/BA,-14.3387456,-40.9085971,516,3532.31106
D1,Caetanos/BA,-14.3387456,-40.9085971,7,47.91895
1,Caetanópolis/MG,-19.2947496,-44.4138386,738,6281.38565
D1,Caetanópolis/MG,-19.2947496,-44.4138386,7,59.57954
1,Caetité/BA,-14.0691776,-42.4852428,1859,3639.31795
D1,Caetité/BA,-14.0691776,-42.4852428,15,29.36513
1,Caeté/MG,-19.897777,-43.670278,1379,3061.24714
D1,Caeté/MG,-19.897777,-43.670278,38,84.35634
1,Caetés/PE,-8.7728788,-36.6255835,1056,3653.47357
D1,Caetés/PE,-8.7728788,-36.6255835,13,44.97647
1,Cafarnaum/BA,-11.691399,-41.468823,743,4013.39599
D1,Cafarnaum/BA,-11.691399,-41.468823,15,81.02415
1,Cafeara/PR,-22.78905,-51.714195,215,7278.26676
D1,Cafeara/PR,-22.78905,-51.714195,6,203.11442
1,Cafelândia/PR,-24.6176963,-53.3218057,1307,7081.70785
D1,Cafelândia/PR,-24.6176963,-53.3218057,9,48.76463
1,Cafelândia/SP,-21.8054355,-49.6030627,632,3542.00527
D1,Cafelândia/SP,-21.8054355,-49.6030627,29,162.52872
1,Cafezal do Sul/PR,-23.900508,-53.512418,198,4938.88750
D1,Cafezal do Sul/PR,-23.900508,-53.512418,2,49.88775
1,Caiabu/SP,-22.0143038,-51.2356597,68,1621.75054
D1,Caiabu/SP,-22.0143038,-51.2356597,5,119.24636
1,Caiana/MG,-20.695555,-41.924723,114,2057.39036
D1,Caiana/MG,-20.695555,-41.924723,2,36.09457
1,Caiapônia/GO,-16.9538779,-51.8090761,872,4563.77244
D1,Caiapônia/GO,-16.9538779,-51.8090761,27,141.30947
1,Caibaté/RS,-28.290475,-54.645407,198,4105.32863
D1,Caibaté/RS,-28.290475,-54.645407,7,145.13788
1,Caibi/SC,-27.0751925,-53.2502133,514,8384.99184
D1,Caibi/SC,-27.0751925,-53.2502133,9,146.81892
1,Caicó/RN,-6.4594544,-37.0971911,8649,12655.28291
D1,Caicó/RN,-6.4594544,-37.0971911,102,149.24718
1,Caieiras/SP,-23.3644621,-46.7484765,6013,5850.64461
D1,Caieiras/SP,-23.3644621,-46.7484765,205,199.46485
1,Cairu/BA,-13.4860505,-39.0455744,1009,5475.66072
D1,Cairu/BA,-13.4860505,-39.0455744,9,48.84137
1,Caiuá/SP,-21.8319357,-51.9887179,222,3733.60242
D1,Caiuá/SP,-21.8319357,-51.9887179,4,67.27212
1,Caiçara do Norte/RN,-5.0645017,-36.0561226,276,4206.67581
D1,Caiçara do Norte/RN,-5.0645017,-36.0561226,9,137.17421
1,Caiçara do Rio do Vento/RN,-5.757968,-36.00089,195,5248.99058
D1,Caiçara do Rio do Vento/RN,-5.757968,-36.00089,7,188.42530
1,Caiçara/PB,-6.6146866,-35.4681434,589,8190.79405
D1,Caiçara/PB,-6.6146866,-35.4681434,13,180.78153
1,Caiçara/RS,-27.2750478,-53.4310053,398,8468.08511
D1,Caiçara/RS,-27.2750478,-53.4310053,7,148.93617
1,Cajamar/SP,-23.3561111,-46.8769444,3271,4197.14117
D1,Cajamar/SP,-23.3561111,-46.8769444,147,188.62114
1,Cajapió/MA,-2.8778715,-44.6746871,68,606.27675
D1,Cajapió/MA,-2.8778715,-44.6746871,3,26.74750
1,Cajari/MA,-3.3213076,-45.0118757,147,755.74521
D1,Cajari/MA,-3.3213076,-45.0118757,5,25.70562
1,Cajati/SP,-24.7272376,-48.1077914,2766,9707.30680
D1,Cajati/SP,-24.7272376,-48.1077914,64,224.60869
1,Cajazeiras do Piauí/PI,-6.794271,-42.3935024,36,1007.55668
D1,Cajazeiras do Piauí/PI,-6.794271,-42.3935024,1,27.98769
1,Cajazeiras/PB,-6.8897849,-38.5570389,6217,9980.89550
D1,Cajazeiras/PB,-6.8897849,-38.5570389,111,178.20161
1,Cajazeirinhas/PB,-6.961442,-37.7993733,107,3338.53354
1,Cajobi/SP,-20.8776238,-48.8106972,631,5955.07739
D1,Cajobi/SP,-20.8776238,-48.8106972,21,198.18800
1,Cajueiro da Praia/PI,-2.931114,-41.340801,465,6059.42142
D1,Cajueiro da Praia/PI,-2.931114,-41.340801,13,169.40318
1,Cajueiro/AL,-9.399589,-36.1524309,484,2268.99817
D1,Cajueiro/AL,-9.399589,-36.1524309,18,84.38423
1,Cajuri/MG,-20.7901414,-42.7954489,262,6592.85355
D1,Cajuri/MG,-20.7901414,-42.7954489,1,25.16356
1,Cajuru/SP,-21.2759978,-47.3046035,616,2333.95218
D1,Cajuru/SP,-21.2759978,-47.3046035,20,75.77767
1,Caldas Brandão/PB,-7.1027959,-35.3254676,442,7310.61859
D1,Caldas Brandão/PB,-7.1027959,-35.3254676,6,99.23917
1,Caldas Novas/GO,-17.745,-48.625,6653,7138.71840
D1,Caldas Novas/GO,-17.745,-48.625,161,172.75420
1,Caldas/MG,-21.923611,-46.386111,555,3816.79389
D1,Caldas/MG,-21.923611,-46.386111,18,123.78791
1,Caldazinha/GO,-16.7116649,-49.0012601,195,5067.56757
D1,Caldazinha/GO,-16.7116649,-49.0012601,3,77.96258
1,Caldeirão Grande do Piauí/PI,-7.3310393,-40.6374433,261,4514.78983
D1,Caldeirão Grande do Piauí/PI,-7.3310393,-40.6374433,2,34.59609
1,Caldeirão Grande/BA,-11.0208483,-40.3041387,536,4002.68837
D1,Caldeirão Grande/BA,-11.0208483,-40.3041387,6,44.80621
1,Califórnia/PR,-23.6672543,-51.3554556,722,8389.49570
D1,Califórnia/PR,-23.6672543,-51.3554556,14,162.67720
1,Calmon/SC,-26.6023644,-51.0992893,25,749.62519
D1,Calmon/SC,-26.6023644,-51.0992893,3,89.95502
1,Calumbi/PE,-7.9389746,-38.1516871,404,7029.75465
D1,Calumbi/PE,-7.9389746,-38.1516871,2,34.80077
1,Calçado/PE,-8.7413446,-36.3351787,308,2795.42567
D1,Calçado/PE,-8.7413446,-36.3351787,2,18.15211
1,Calçoene/AP,2.4981757,-50.9539503,1586,14027.94976
D1,Calçoene/AP,2.4981757,-50.9539503,10,88.44861
1,Camacan/BA,-15.4166631,-39.4930088,2329,7276.76061
D1,Camacan/BA,-15.4166631,-39.4930088,53,165.59395
1,Camacho/MG,-20.625556,-45.156667,49,1707.91216
D1,Camacho/MG,-20.625556,-45.156667,1,34.85535
1,Camalaú/PB,-7.885031,-36.824191,337,5587.79639
D1,Camalaú/PB,-7.885031,-36.824191,5,82.90499
1,Camamu/BA,-13.9438142,-39.1060917,1886,5330.39399
D1,Camamu/BA,-13.9438142,-39.1060917,39,110.22554
1,Camanducaia/MG,-22.755278,-46.144444,2322,10650.88757
D1,Camanducaia/MG,-22.755278,-46.144444,44,201.82560
1,Camapuã/MS,-19.5291747,-54.0434641,545,3980.13584
D1,Camapuã/MS,-19.5291747,-54.0434641,19,138.75703
1,Camaquã/RS,-30.8524752,-51.8075619,5609,8437.37778
D1,Camaquã/RS,-30.8524752,-51.8075619,102,153.43422
1,Camaragibe/PE,-8.0213832,-34.9810768,4198,2641.92978
D1,Camaragibe/PE,-8.0213832,-34.9810768,284,178.72989
1,Camargo/RS,-28.5865661,-52.2031474,270,9846.82713
D1,Camargo/RS,-28.5865661,-52.2031474,5,182.34865
1,Camaçari/BA,-12.6998188,-38.3260762,19678,6466.60226
D1,Camaçari/BA,-12.6998188,-38.3260762,487,160.03838
1,Cambará do Sul/RS,-29.0489517,-50.145412,287,4480.17484
D1,Cambará do Sul/RS,-29.0489517,-50.145412,6,93.66219
1,Cambará/PR,-23.042273,-50.075281,1744,6848.34682
D1,Cambará/PR,-23.042273,-50.075281,28,109.95052
1,Cambira/PR,-23.600265,-51.581045,593,7490.21094
D1,Cambira/PR,-23.600265,-51.581045,13,164.20361
1,Camboriú/SC,-27.0273601,-48.6535657,10650,12513.95335
D1,Camboriú/SC,-27.0273601,-48.6535657,136,159.80260
1,Cambuci/RJ,-21.5749919,-41.9107833,664,4280.00516
D1,Cambuci/RJ,-21.5749919,-41.9107833,20,128.91582
1,Cambuquira/MG,-21.853056,-45.2953619,373,2911.33313
D1,Cambuquira/MG,-21.853056,-45.2953619,11,85.85701
1,Cambuí/MG,-22.6122501,-46.0572137,2220,7446.16623
D1,Cambuí/MG,-22.6122501,-46.0572137,33,110.68625
1,Cambé/PR,-23.2782035,-51.2779583,8585,7997.87593
D1,Cambé/PR,-23.2782035,-51.2779583,160,149.05768
1,Cametá/PA,-2.242949,-49.497885,6681,4793.92096
D1,Cametá/PA,-2.242949,-49.497885,176,126.28799
1,Camocim de São Félix/PE,-8.3616757,-35.7638903,407,2153.43915
D1,Camocim de São Félix/PE,-8.3616757,-35.7638903,12,63.49206
1,Camocim/CE,-2.9009918,-40.8427389,4257,6661.24212
D1,Camocim/CE,-2.9009918,-40.8427389,122,190.90241
1,Campanha/MG,-21.8361108,-45.401986,1018,6073.26095
D1,Campanha/MG,-21.8361108,-45.401986,21,125.28338
1,Campanário/MG,-18.2398144,-41.7271768,171,4584.45040
D1,Campanário/MG,-18.2398144,-41.7271768,1,26.80965
1,Campestre da Serra/RS,-28.7966535,-51.0958149,134,3946.98085
1,Campestre de Goiás/GO,-16.7624179,-49.69497,385,10550.83585
D1,Campestre de Goiás/GO,-16.7624179,-49.69497,9,246.64292
1,Campestre do Maranhão/MA,-6.1729113,-47.3640512,860,5950.32173
D1,Campestre do Maranhão/MA,-6.1729113,-47.3640512,36,249.08324
1,Campestre/AL,-8.8481634,-35.5660033,232,3336.20938
D1,Campestre/AL,-8.8481634,-35.5660033,6,86.28128
1,Campestre/MG,-19.6142116,-43.219378,767,3643.01320
D1,Campestre/MG,-19.6142116,-43.219378,17,80.74475
1,Campina Grande do Sul/PR,-25.3046032,-49.0545355,3938,9014.53588
D1,Campina Grande do Sul/PR,-25.3046032,-49.0545355,69,157.94895
1,Campina Grande/PB,-7.2246743,-35.8771292,25674,6234.47392
D1,Campina Grande/PB,-7.2246743,-35.8771292,731,177.51034
1,Campina Verde/MG,-19.535277,-49.486389,758,3837.58607
D1,Campina Verde/MG,-19.535277,-49.486389,22,111.38113
1,Campina da Lagoa/PR,-24.5937926,-52.8038965,721,5134.23058
D1,Campina da Lagoa/PR,-24.5937926,-52.8038965,18,128.17774
1,Campina das Missões/RS,-27.9883295,-54.8411665,368,6817.33976
D1,Campina das Missões/RS,-27.9883295,-54.8411665,7,129.67766
1,Campina do Monte Alegre/SP,-23.5935653,-48.4801876,359,5927.02658
D1,Campina do Monte Alegre/SP,-23.5935653,-48.4801876,6,99.05894
1,Campina do Simão/PR,-25.1086375,-51.8076658,222,5752.78570
