type,name,lat,lon,total,total_per_100k_inhabitants
1,Abadia de Goiás/GO,-16.7572644,-49.4412205,2729,29799.08277
D1,Abadia de Goiás/GO,-16.7572644,-49.4412205,45,491.37366
1,Abadia dos Dourados/MG,-18.4911191,-47.4063589,1370,19510.11108
D1,Abadia dos Dourados/MG,-18.4911191,-47.4063589,20,284.81914
1,Abadiânia/GO,-16.1940946,-48.7067767,1191,5705.93590
D1,Abadiânia/GO,-16.1940946,-48.7067767,52,249.12566
1,Abaetetuba/PA,-1.721828,-48.878843,10418,6493.43364
D1,Abaetetuba/PA,-1.721828,-48.878843,234,145.84982
1,Abaeté/MG,-19.1566833,-45.4481213,3100,13325.88230
D1,Abaeté/MG,-19.1566833,-45.4481213,46,197.73890
1,Abaiara/CE,-7.3607808,-39.0487878,979,8182.19808
D1,Abaiara/CE,-7.3607808,-39.0487878,19,158.79649
1,Abaré/BA,-8.7239913,-39.1139689,2215,10755.55987
D1,Abaré/BA,-8.7239913,-39.1139689,17,82.54832
1,Abatiá/PR,-23.3052967,-50.3102532,1562,21222.82609
D1,Abatiá/PR,-23.3052967,-50.3102532,23,312.50000
1,Abaíra/BA,-13.2503296,-41.6640342,330,3801.40537
D1,Abaíra/BA,-13.2503296,-41.6640342,17,195.82997
1,Abdon Batista/SC,-27.612419,-51.022992,500,19731.64957
D1,Abdon Batista/SC,-27.612419,-51.022992,4,157.85320
1,Abel Figueiredo/PA,-4.953001,-48.3958485,1294,17170.91295
D1,Abel Figueiredo/PA,-4.953001,-48.3958485,12,159.23567
1,Abelardo Luz/SC,-26.5705893,-52.3280339,2113,11729.11463
D1,Abelardo Luz/SC,-26.5705893,-52.3280339,67,371.91230
1,Abre Campo/MG,-20.2976097,-42.4764741,1887,14046.44931
D1,Abre Campo/MG,-20.2976097,-42.4764741,18,133.98839
1,Abreu e Lima/PE,-7.900719,-34.898389,4512,4480.72454
D1,Abreu e Lima/PE,-7.900719,-34.898389,253,251.24630
1,Abreulândia/TO,-9.6221526,-49.1558343,440,16864.69912
D1,Abreulândia/TO,-9.6221526,-49.1558343,8,306.63089
1,Acaiaca/MG,-20.3621646,-43.1444162,270,6758.44806
D1,Acaiaca/MG,-20.3621646,-43.1444162,12,300.37547
1,Acajutiba/BA,-11.6609659,-38.0186381,627,4121.20415
D1,Acajutiba/BA,-11.6609659,-38.0186381,24,157.74944
1,Acarape/CE,-4.2237866,-38.7071663,3176,20977.54293
D1,Acarape/CE,-4.2237866,-38.7071663,36,237.78071
1,Acaraú/CE,-2.8869514,-40.1194713,6586,10362.51495
D1,Acaraú/CE,-2.8869514,-40.1194713,120,188.80987
1,Acari/RN,-6.4364689,-36.6394777,1327,11948.49631
D1,Acari/RN,-6.4364689,-36.6394777,24,216.09941
1,Acará/PA,-1.961388,-48.1987043,2130,3821.03904
D1,Acará/PA,-1.961388,-48.1987043,41,73.55052
1,Acauã/PI,-8.219542,-41.083059,228,3202.69701
D1,Acauã/PI,-8.219542,-41.083059,2,28.09383
1,Aceguá/RS,-31.8695131,-54.1615593,740,14856.45453
D1,Aceguá/RS,-31.8695131,-54.1615593,8,160.61032
1,Acopiara/CE,-6.0936464,-39.4543204,5255,9609.23071
D1,Acopiara/CE,-6.0936464,-39.4543204,163,298.05987
1,Acorizal/MT,-15.2001544,-56.3668953,1175,22132.22829
D1,Acorizal/MT,-15.2001544,-56.3668953,24,452.06254
1,Acrelândia/AC,-10.0759167,-67.0526898,2823,17956.87297
D1,Acrelândia/AC,-10.0759167,-67.0526898,39,248.07582
1,Acreúna/GO,-17.3959899,-50.3749031,4599,20250.99075
D1,Acreúna/GO,-17.3959899,-50.3749031,81,356.67107
1,Adamantina/SP,-21.6866517,-51.0762975,6570,18689.72776
D1,Adamantina/SP,-21.6866517,-51.0762975,165,469.37672
1,Adelândia/GO,-16.4155077,-50.1665834,455,18091.45129
D1,Adelândia/GO,-16.4155077,-50.1665834,4,159.04573
1,Adolfo/SP,-21.2356597,-49.6441918,638,17997.17913
D1,Adolfo/SP,-21.2356597,-49.6441918,23,648.80113
1,Adrianópolis/PR,-24.6557863,-48.9912769,1836,31671.55425
D1,Adrianópolis/PR,-24.6557863,-48.9912769,30,517.50906
1,Adustina/BA,-10.5358875,-38.114479,1358,7891.21971
D1,Adustina/BA,-10.5358875,-38.114479,28,162.70556
1,Afogados da Ingazeira/PE,-7.750429,-37.6356375,7816,20817.13099
D1,Afogados da Ingazeira/PE,-7.750429,-37.6356375,78,207.74517
1,Afonso Bezerra/RN,-5.4745,-36.57625071327935,1094,9923.80261
D1,Afonso Bezerra/RN,-5.4745,-36.57625071327935,18,163.28012
1,Afonso Cláudio/ES,-20.077841,-41.12606,7145,23560.64103
D1,Afonso Cláudio/ES,-20.077841,-41.12606,81,267.09754
1,Afonso Cunha/MA,-4.1326105,-43.3230026,301,4539.28518
D1,Afonso Cunha/MA,-4.1326105,-43.3230026,3,45.24204
1,Afrânio/PE,-8.5198919,-41.0070197,1331,6661.32826
D1,Afrânio/PE,-8.5198919,-41.0070197,16,80.07607
1,Afuá/PA,-0.1535664,-50.3879223,3490,8744.67552
D1,Afuá/PA,-0.1535664,-50.3879223,16,40.09020
1,Agrestina/PE,-8.4558021,-35.9442663,2591,10265.45166
D1,Agrestina/PE,-8.4558021,-35.9442663,71,281.29952
1,Agricolândia/PI,-5.7967843,-42.6605131,829,16181.92465
D1,Agricolândia/PI,-5.7967843,-42.6605131,10,195.19813
1,Agrolândia/SC,-27.4122212,-49.8295774,2253,20188.17204
D1,Agrolândia/SC,-27.4122212,-49.8295774,33,295.69892
1,Agronômica/SC,-27.2660744,-49.7104753,1165,20915.61939
D1,Agronômica/SC,-27.2660744,-49.7104753,15,269.29982
1,Aguanil/MG,-20.9424533,-45.3927152,1249,27408.38271
D1,Aguanil/MG,-20.9424533,-45.3927152,8,175.55409
1,Aguaí/SP,-22.0592036,-46.979384,5457,14756.22617
D1,Aguaí/SP,-22.0592036,-46.979384,129,348.82778
1,Agudo/RS,-29.6423259,-53.2494005,2935,17957.66030
D1,Agudo/RS,-29.6423259,-53.2494005,36,220.26432
1,Agudos do Sul/PR,-25.9890808,-49.3328175,1485,15522.10724
D1,Agudos do Sul/PR,-25.9890808,-49.3328175,33,344.93572
1,Agudos/SP,-22.471162,-48.987822,5604,14911.39375
D1,Agudos/SP,-22.471162,-48.987822,116,308.65840
1,Aguiar/PB,-7.0928404,-38.1727215,833,14816.79118
D1,Aguiar/PB,-7.0928404,-38.1727215,7,124.51085
1,Aguiarnópolis/TO,-6.5600452,-47.4721189,959,13604.76663
D1,Aguiarnópolis/TO,-6.5600452,-47.4721189,14,198.60973
1,Aimorés/MG,-19.4917754,-41.0615603,3358,13369.96337
D1,Aimorés/MG,-19.4917754,-41.0615603,79,314.54053
1,Aiquara/BA,-14.126918,-39.8887574,605,13790.74538
D1,Aiquara/BA,-14.126918,-39.8887574,12,273.53545
1,Aiuaba/CE,-6.5710836,-40.1212278,1180,6710.64604
D1,Aiuaba/CE,-6.5710836,-40.1212278,16,90.99181
1,Aiuruoca/MG,-21.9759554,-44.6036637,718,12069.25534
D1,Aiuruoca/MG,-21.9759554,-44.6036637,12,201.71457
1,Ajuricaba/RS,-28.239654,-53.7693013,1683,24212.34355
D1,Ajuricaba/RS,-28.239654,-53.7693013,36,517.91109
1,Alagoa Grande/PB,-7.0415212,-35.6285322,5390,18989.57159
D1,Alagoa Grande/PB,-7.0415212,-35.6285322,77,271.27959
1,Alagoa Nova/PB,-7.0653703,-35.76695977336711,2770,13195.50305
D1,Alagoa Nova/PB,-7.0653703,-35.76695977336711,37,176.25762
1,Alagoa/MG,-22.1697202,-44.6400042,651,24501.31728
D1,Alagoa/MG,-22.1697202,-44.6400042,8,301.09146
1,Alagoinha do Piauí/PI,-7.0090952,-40.939675,402,5235.73847
D1,Alagoinha do Piauí/PI,-7.0090952,-40.939675,13,169.31493
1,Alagoinha/PB,-6.97063215,-35.51490901897793,2428,16597.17000
D1,Alagoinha/PB,-6.97063215,-35.51490901897793,26,177.72917
1,Alagoinha/PE,-8.50355635,-36.77701174370496,1880,12704.41952
D1,Alagoinha/PE,-8.50355635,-36.77701174370496,31,209.48777
1,Alagoinhas/BA,-12.133526,-38.420772,17342,11332.93688
D1,Alagoinhas/BA,-12.133526,-38.420772,345,225.45630
1,Alambari/SP,-23.550338,-47.897971,978,15695.71497
D1,Alambari/SP,-23.550338,-47.897971,13,208.63425
1,Albertina/MG,-20.66164,-43.784039,630,20895.52239
D1,Albertina/MG,-20.66164,-43.784039,11,364.84245
1,Alcantil/PB,-7.7425491,-36.0609604,1176,21277.36566
D1,Alcantil/PB,-7.7425491,-36.0609604,9,162.83698
1,Alcinópolis/MS,-18.3264121,-53.7094463,746,13590.81800
D1,Alcinópolis/MS,-18.3264121,-53.7094463,12,218.61906
1,Alcobaça/BA,-17.5215875,-39.1965474,2220,9862.72158
D1,Alcobaça/BA,-17.5215875,-39.1965474,32,142.16536
1,Alcântara/MA,-2.4038956,-44.4154241,337,1523.09500
D1,Alcântara/MA,-2.4038956,-44.4154241,20,90.39139
1,Alcântaras/CE,-3.586247,-40.5457641,2112,17828.80297
D1,Alcântaras/CE,-3.586247,-40.5457641,23,194.15837
1,Aldeias Altas/MA,-4.6291957,-43.4708622,1018,3773.30516
D1,Aldeias Altas/MA,-4.6291957,-43.4708622,14,51.89221
1,Alecrim/RS,-27.6566142,-54.7653195,589,10315.23643
D1,Alecrim/RS,-27.6566142,-54.7653195,13,227.67075
1,Alegre/ES,-20.7625787,-41.5318886,7034,23549.49948
D1,Alegre/ES,-20.7625787,-41.5318886,83,277.88008
1,Alegrete do Piauí/PI,-7.2440138,-40.8602296,553,11237.55334
D1,Alegrete do Piauí/PI,-7.2440138,-40.8602296,9,182.88966
1,Alegrete/RS,-29.790166,-55.794862,14063,19399.11440
D1,Alegrete/RS,-29.790166,-55.794862,321,442.80137
1,Alegria/RS,-27.8332103,-54.0574959,522,15880.74232
D1,Alegria/RS,-27.8332103,-54.0574959,5,152.11439
1,Alenquer/PA,-1.946229,-54.738355,4721,8226.17181
D1,Alenquer/PA,-1.946229,-54.738355,157,273.56682
1,Alexandria/RN,-6.414779,-38.0135516,2386,17636.18893
D1,Alexandria/RN,-6.414779,-38.0135516,32,236.52894
1,Alexânia/GO,-16.0834049,-48.5077803,5678,20021.15656
D1,Alexânia/GO,-16.0834049,-48.5077803,110,387.87024
1,Alfenas/MG,-21.4297405,-45.9479419,17016,21014.41221
D1,Alfenas/MG,-21.4297405,-45.9479419,238,293.92514
1,Alfredo Chaves/ES,-20.624970400000002,-40.75006690147988,4297,29291.07021
D1,Alfredo Chaves/ES,-20.624970400000002,-40.75006690147988,47,320.38173
1,Alfredo Marcondes/SP,-21.9527,-51.413956,294,6998.33373
D1,Alfredo Marcondes/SP,-21.9527,-51.413956,16,380.86170
1,Alfredo Vasconcelos/MG,-21.145833,-43.776389,1137,16123.08565
D1,Alfredo Vasconcelos/MG,-21.145833,-43.776389,16,226.88599
1,Alfredo Wagner/SC,-27.6961513,-49.3326734,1403,13841.75217
D1,Alfredo Wagner/SC,-27.6961513,-49.3326734,11,108.52407
1,Algodão de Jandaíra/PB,-6.9040175,-36.0089879,424,16383.30757
D1,Algodão de Jandaíra/PB,-6.9040175,-36.0089879,1,38.63988
1,Alhandra/PB,-7.4304246,-34.9106103,2872,14457.58872
D1,Alhandra/PB,-7.4304246,-34.9106103,47,236.59703
1,Aliança do Tocantins/TO,-11.3055927,-48.9409096,1182,22289.27022
D1,Aliança do Tocantins/TO,-11.3055927,-48.9409096,25,471.43127
1,Aliança/PE,-7.60398,-35.222696,2015,5246.30285
D1,Aliança/PE,-7.60398,-35.222696,76,197.87544
1,Almadina/BA,-14.70466,-39.6381994,766,14526.83482
D1,Almadina/BA,-14.70466,-39.6381994,12,227.57444
1,Almas/TO,-11.5681309,-47.1702803,310,4489.50036
D1,Almas/TO,-11.5681309,-47.1702803,5,72.41130
1,Almeirim/PA,-1.5290377,-52.5788111,4348,12771.70720
D1,Almeirim/PA,-1.5290377,-52.5788111,54,158.61826
1,Almenara/MG,-16.1740678,-40.6904907,6619,15618.21614
D1,Almenara/MG,-16.1740678,-40.6904907,64,151.01463
1,Almino Afonso/RN,-6.1544208,-37.7649018,731,15602.98826
D1,Almino Afonso/RN,-6.1544208,-37.7649018,14,298.82604
1,Almirante Tamandaré do Sul/RS,-28.1141129,-52.9134874,512,26459.94832
D1,Almirante Tamandaré do Sul/RS,-28.1141129,-52.9134874,7,361.75711
1,Almirante Tamandaré/PR,-25.3133048,-49.2997838,14806,12194.03723
D1,Almirante Tamandaré/PR,-25.3133048,-49.2997838,447,368.14363
1,Aloândia/GO,-17.7277983,-49.4809338,338,17105.26316
D1,Aloândia/GO,-17.7277983,-49.4809338,11,556.68016
1,Alpercata/MG,-18.9803616,-41.9827637,583,7827.60473
D1,Alpercata/MG,-18.9803616,-41.9827637,23,308.80773
1,Alpestre/RS,-27.2512339,-53.0349646,1140,19371.28292
D1,Alpestre/RS,-27.2512339,-53.0349646,17,288.87001
1,Alpinópolis/MG,-20.863611,-46.387777,3803,18959.07074
D1,Alpinópolis/MG,-20.863611,-46.387777,51,254.24996
1,Alta Floresta D'Oeste/RO,-11.9296917,-61.9961284,7858,34899.62693
D1,Alta Floresta D'Oeste/RO,-11.9296917,-61.9961284,78,346.42032
1,Alta Floresta/MT,-9.8715018,-56.0839881,13012,24972.65138
D1,Alta Floresta/MT,-9.8715018,-56.0839881,165,316.66827
1,Altair/SP,-20.5238955,-49.0606135,320,7599.14510
D1,Altair/SP,-20.5238955,-49.0606135,17,403.70458
1,Altamira do Maranhão/MA,-4.1643006,-45.4674574,497,6024.24242
D1,Altamira do Maranhão/MA,-4.1643006,-45.4674574,15,181.81818
1,Altamira do Paraná/PR,-24.799114,-52.7128633,466,32610.21693
D1,Altamira do Paraná/PR,-24.799114,-52.7128633,14,979.70609
1,Altamira/PA,-3.204065,-52.209961,20921,17832.42414
D1,Altamira/PA,-3.204065,-52.209961,349,297.47699
1,Altaneira/CE,-6.9980933,-39.7385742,868,11255.18672
D1,Altaneira/CE,-6.9980933,-39.7385742,19,246.36929
1,Alterosa/MG,-21.249166,-46.143055,1567,10757.92942
D1,Alterosa/MG,-21.249166,-46.143055,41,281.47741
1,Altinho/PE,-8.4904095,-36.0607494,1671,7266.48113
D1,Altinho/PE,-8.4904095,-36.0607494,30,130.45747
1,Altinópolis/SP,-21.021364,-47.3712,1225,7551.93884
D1,Altinópolis/SP,-21.021364,-47.3712,64,394.55027
1,Alto Alegre do Maranhão/MA,-4.2055693,-44.4525287,1928,6869.52184
D1,Alto Alegre do Maranhão/MA,-4.2055693,-44.4525287,29,103.32787
1,Alto Alegre do Pindaré/MA,-3.6698186,-45.8462153,2354,7363.84396
D1,Alto Alegre do Pindaré/MA,-3.6698186,-45.8462153,55,172.05243
1,Alto Alegre dos Parecis/RO,-12.1314515,-61.856265,2201,16588.78505
D1,Alto Alegre dos Parecis/RO,-12.1314515,-61.856265,48,361.77269
1,Alto Alegre/RR,2.98858,-61.307167,2195,14394.38652
D1,Alto Alegre/RR,2.98858,-61.307167,39,255.75448
1,Alto Alegre/RS,-31.780844700000003,-52.81311114489171,385,24213.83648
D1,Alto Alegre/RS,-31.780844700000003,-52.81311114489171,2,125.78616
1,Alto Alegre/SP,-21.5820592,-50.1661976,407,9980.38254
D1,Alto Alegre/SP,-21.5820592,-50.1661976,23,564.00196
1,Alto Araguaia/MT,-17.3156528,-53.2169365,2741,13903.82469
D1,Alto Araguaia/MT,-17.3156528,-53.2169365,34,172.46627
1,Alto Bela Vista/SC,-27.4320737,-51.905771,404,21096.60574
D1,Alto Bela Vista/SC,-27.4320737,-51.905771,3,156.65796
1,Alto Boa Vista/MT,-11.6723985,-51.3744431,1265,17836.99944
D1,Alto Boa Vista/MT,-11.6723985,-51.3744431,19,267.90750
1,Alto Caparaó/MG,-20.4405661,-41.8683799,552,9296.05928
D1,Alto Caparaó/MG,-20.4405661,-41.8683799,9,151.56618
1,Alto Feliz/RS,-29.3785943,-51.3123751,642,21097.60105
D1,Alto Feliz/RS,-29.3785943,-51.3123751,4,131.44923
1,Alto Garças/MT,-16.9469683,-53.529427,1442,11701.69602
D1,Alto Garças/MT,-16.9469683,-53.529427,43,348.94100
1,Alto Horizonte/GO,-14.1954948,-49.3366993,2107,31003.53149
D1,Alto Horizonte/GO,-14.1954948,-49.3366993,16,235.43261
1,Alto Jequitibá/MG,-20.423611,-41.966111,1352,16316.67874
D1,Alto Jequitibá/MG,-20.423611,-41.966111,13,156.89114
1,Alto Longá/PI,-5.2549051,-42.2072388,857,5963.39851
D1,Alto Longá/PI,-5.2549051,-42.2072388,15,104.37687
1,Alto Paraguai/MT,-14.513712,-56.4936374,955,8241.99534
D1,Alto Paraguai/MT,-14.513712,-56.4936374,31,267.54121
1,Alto Paraná/PR,-23.131247,-52.318893,2624,17557.71161
D1,Alto Paraná/PR,-23.131247,-52.318893,26,173.97123
1,Alto Paraíso de Goiás/GO,-14.1304779,-47.5100161,1216,15688.29828
D1,Alto Paraíso de Goiás/GO,-14.1304779,-47.5100161,9,116.11405
1,Alto Paraíso/PR,-23.508137,-53.728537,909,34562.73764
D1,Alto Paraíso/PR,-23.508137,-53.728537,10,380.22814
1,Alto Paraíso/RO,-9.7240103,-63.3188123,3522,15823.52413
D1,Alto Paraíso/RO,-9.7240103,-63.3188123,62,278.55153
1,Alto Parnaíba/MA,-9.112506,-45.9310154,1021,9089.29048
D1,Alto Parnaíba/MA,-9.112506,-45.9310154,11,97.92575
1,Alto Piquiri/PR,-24.0239021,-53.4417448,2195,22577.65892
D1,Alto Piquiri/PR,-24.0239021,-53.4417448,31,318.86443
1,Alto Rio Doce/MG,-21.0239537,-43.4133507,930,8672.94600
D1,Alto Rio Doce/MG,-21.0239537,-43.4133507,31,289.09820
1,Alto Rio Novo/ES,-19.0577208,-41.0171518,1414,17873.84654
D1,Alto Rio Novo/ES,-19.0577208,-41.0171518,28,353.93756
1,Alto Santo/CE,-5.5190371,-38.2719351,2522,15687.00628
D1,Alto Santo/CE,-5.5190371,-38.2719351,41,255.02270
1,Alto Taquari/MT,-17.8269099,-53.2831736,1672,14649.96057
D1,Alto Taquari/MT,-17.8269099,-53.2831736,29,254.09621
1,Alto do Rodrigues/RN,-5.290868,-36.7616726,3439,23044.96415
D1,Alto do Rodrigues/RN,-5.290868,-36.7616726,42,281.44475
1,Altos/PI,-5.0393915,-42.4611694,5556,13657.48138
D1,Altos/PI,-5.0393915,-42.4611694,105,258.10575
1,Altônia/PR,-23.8722004,-53.894037,4176,18732.33751
D1,Altônia/PR,-23.8722004,-53.894037,52,233.25708
1,Alumínio/SP,-23.5203479,-47.2575256,1677,8871.60768
D1,Alumínio/SP,-23.5203479,-47.2575256,55,290.95911
1,Alvarenga/MG,-19.4175,-41.728334,541,14300.81946
D1,Alvarenga/MG,-19.4175,-41.728334,6,158.60428
1,Alvarães/AM,-3.214786,-64.8143124,3704,22590.87582
D1,Alvarães/AM,-3.214786,-64.8143124,46,280.55623
1,Alvinlândia/SP,-22.4431852,-49.7643596,148,4552.44540
D1,Alvinlândia/SP,-22.4431852,-49.7643596,9,276.83790
1,Alvinópolis/MG,-20.1105199,-43.0601805,1877,12401.71787
D1,Alvinópolis/MG,-20.1105199,-43.0601805,24,158.57284
1,Alvorada D'Oeste/RO,-11.346271,-62.284697,1926,13949.44593
D1,Alvorada D'Oeste/RO,-11.346271,-62.284697,36,260.73731
1,Alvorada de Minas/MG,-18.7318587,-43.3641479,455,12621.35922
D1,Alvorada de Minas/MG,-18.7318587,-43.3641479,4,110.95700
1,Alvorada do Gurguéia/PI,-8.4465288,-43.8655915,708,12945.69391
D1,Alvorada do Gurguéia/PI,-8.4465288,-43.8655915,13,237.70342
1,Alvorada do Norte/GO,-14.483911,-46.4959897,1205,13773.00263
D1,Alvorada do Norte/GO,-14.483911,-46.4959897,18,205.73780
1,Alvorada do Sul/PR,-22.7807269,-51.2307721,1289,11113.98517
D1,Alvorada do Sul/PR,-22.7807269,-51.2307721,31,267.28746
1,Alvorada/RS,-29.9981184,-51.0772509,29247,13772.88653
D1,Alvorada/RS,-29.9981184,-51.0772509,859,404.51703
1,Alvorada/TO,-12.478465,-49.124926,2740,32692.99606
D1,Alvorada/TO,-12.478465,-49.124926,31,369.88426
1,Além Paraíba/MG,-21.8760576,-42.6810473,5903,16657.26057
D1,Além Paraíba/MG,-21.8760576,-42.6810473,170,479.71104
1,Amajari/RR,3.6523869,-61.4194315,1256,9261.85385
D1,Amajari/RR,3.6523869,-61.4194315,25,184.35219
1,Amambai/MS,-23.1082701,-55.2284854,5685,14125.27642
D1,Amambai/MS,-23.1082701,-55.2284854,100,248.46572
1,Amaporã/PR,-23.094272,-52.786597,824,12864.94926
D1,Amaporã/PR,-23.094272,-52.786597,8,124.90242
1,Amapá do Maranhão/MA,-1.6762114,-46.0109669,172,2440.75493
D1,Amapá do Maranhão/MA,-1.6762114,-46.0109669,6,85.14261
1,Amapá/AP,2.0529997,-50.7930003,1876,20248.24609
D1,Amapá/AP,2.0529997,-50.7930003,13,140.31301
1,Amaraji/PE,-8.373925,-35.4536527,1139,4971.62811
D1,Amaraji/PE,-8.373925,-35.4536527,49,213.88040
1,Amaral Ferrador/RS,-30.8750633,-52.2542051,488,6838.56502
D1,Amaral Ferrador/RS,-30.8750633,-52.2542051,12,168.16143
1,Amaralina/GO,-13.9236199,-49.2962411,207,5341.93548
D1,Amaralina/GO,-13.9236199,-49.2962411,2,51.61290
1,Amarante do Maranhão/MA,-5.56913,-46.747284,1844,4388.69981
D1,Amarante do Maranhão/MA,-5.56913,-46.747284,61,145.17933
1,Amarante/PI,-6.2459374,-42.8476238,1735,9852.91612
D1,Amarante/PI,-6.2459374,-42.8476238,36,204.44091
1,Amargosa/BA,-13.03793715,-39.60796443875596,4503,11966.19808
D1,Amargosa/BA,-13.03793715,-39.60796443875596,60,159.44301
1,Amaturá/AM,-3.3640509,-68.1994689,2623,21979.21904
D1,Amaturá/AM,-3.3640509,-68.1994689,19,159.20898
1,Americana/SP,-22.7392463,-47.3306032,27744,11353.27577
D1,Americana/SP,-22.7392463,-47.3306032,944,386.29946
1,Americano do Brasil/GO,-16.2515808,-49.9806104,1339,21527.33119
D1,Americano do Brasil/GO,-16.2515808,-49.9806104,25,401.92926
1,Ametista do Sul/RS,-27.3617341,-53.1826575,1630,22038.93997
D1,Ametista do Sul/RS,-27.3617341,-53.1826575,27,365.06220
1,Amontada/CE,-3.3634586,-39.8284791,3558,8050.68447
D1,Amontada/CE,-3.3634586,-39.8284791,61,138.02466
1,Amorinópolis/GO,-16.6211308,-51.0949921,541,17967.45267
D1,Amorinópolis/GO,-16.6211308,-51.0949921,11,365.32713
1,Amparo de São Francisco/SE,-10.1299754,-36.9269099,258,10813.07628
D1,Amparo de São Francisco/SE,-10.1299754,-36.9269099,5,209.55574
1,Amparo do Serra/MG,-20.5070255,-42.8028462,277,5965.97028
D1,Amparo do Serra/MG,-20.5070255,-42.8028462,11,236.91579
1,Amparo/PB,-7.56394725,-37.04652873235175,282,12455.83039
D1,Amparo/PB,-7.56394725,-37.04652873235175,4,176.67845
1,Amparo/SP,-22.70111,-46.76444,9894,13526.55684
D1,Amparo/SP,-22.70111,-46.76444,244,333.58398
1,Ampére/PR,-25.9168712,-53.4742414,4940,25377.58142
D1,Ampére/PR,-25.9168712,-53.4742414,66,339.05271
1,Amélia Rodrigues/BA,-12.4015388,-38.7516971,2806,11225.34704
D1,Amélia Rodrigues/BA,-12.4015388,-38.7516971,53,212.02544
1,América Dourada/BA,-11.4515262,-41.4357517,1070,6651.74686
D1,América Dourada/BA,-11.4515262,-41.4357517,13,80.81562
1,Américo Brasiliense/SP,-21.7297099,-48.1052092,4931,11869.05765
D1,Américo Brasiliense/SP,-21.7297099,-48.1052092,104,250.33097
1,Américo de Campos/SP,-20.298476,-49.735904,1279,21341.56516
D1,Américo de Campos/SP,-20.298476,-49.735904,36,600.70082
1,Anadia/AL,-9.6830208,-36.3052699,1696,9687.55355
D1,Anadia/AL,-9.6830208,-36.3052699,37,211.34403
1,Anagé/BA,-14.6134669,-41.1376308,1213,5713.88195
D1,Anagé/BA,-14.6134669,-41.1376308,31,146.02666
1,Anahy/PR,-24.6450861,-53.1337957,660,23792.35761
D1,Anahy/PR,-24.6450861,-53.1337957,15,540.73540
1,Anajatuba/MA,-3.26441,-44.6179916,1531,5634.89142
D1,Anajatuba/MA,-3.26441,-44.6179916,29,106.73537
1,Anajás/PA,-0.9878802,-49.9390114,1385,4602.70513
D1,Anajás/PA,-0.9878802,-49.9390114,22,73.11156
1,Analândia/SP,-22.128917,-47.661939,478,9345.06354
D1,Analândia/SP,-22.128917,-47.661939,5,97.75171
1,Anamã/AM,-3.5797356,-61.4049996,2477,17331.37420
D1,Anamã/AM,-3.5797356,-61.4049996,11,76.96613
1,Ananindeua/PA,-1.374035,-48.4016623,29302,5422.17946
D1,Ananindeua/PA,-1.374035,-48.4016623,848,156.91790
1,Ananás/TO,-6.3663053,-48.080238,2173,23031.26656
D1,Ananás/TO,-6.3663053,-48.080238,28,296.76736
1,Anapu/PA,-3.4668292,-51.2057035,2154,7348.52620
D1,Anapu/PA,-3.4668292,-51.2057035,65,221.75218
1,Anapurus/MA,-3.6751298,-43.1046001,832,5182.50903
D1,Anapurus/MA,-3.6751298,-43.1046001,15,93.43466
1,Anastácio/MS,-20.4832458,-55.8048448,3164,12488.15914
D1,Anastácio/MS,-20.4832458,-55.8048448,91,359.17272
1,Anaurilândia/MS,-22.185169,-52.719056,1104,12110.57481
D1,Anaurilândia/MS,-22.185169,-52.719056,16,175.51558
1,Anchieta/ES,-20.8057672,-40.6454564,9193,30354.96120
D1,Anchieta/ES,-20.8057672,-40.6454564,111,366.51808
1,Anchieta/SC,-26.5350527,-53.3293938,1047,19116.30455
D1,Anchieta/SC,-26.5350527,-53.3293938,11,200.83988
1,Andaraí/BA,-12.8059674,-41.3322919,1262,9617.43637
D1,Andaraí/BA,-12.8059674,-41.3322919,14,106.69105
1,Andirá/PR,-23.0494761,-50.2310027,4876,24597.68955
D1,Andirá/PR,-23.0494761,-50.2310027,97,489.33058
1,Andorinha/BA,-10.3445708,-39.8334411,1239,8594.61709
D1,Andorinha/BA,-10.3445708,-39.8334411,18,124.86127
1,Andradas/MG,-22.0680484,-46.5688976,6518,15629.19624
D1,Andradas/MG,-22.0680484,-46.5688976,134,321.31210
1,Andradina/SP,-20.896505,-51.3742765,11253,19657.61202
D1,Andradina/SP,-20.896505,-51.3742765,306,534.54450
1,Andrelândia/MG,-21.739722,-44.308889,206,1690.04840
D1,Andrelândia/MG,-21.739722,-44.308889,18,147.67413
1,André da Rocha/RS,-28.6309124,-51.5733328,188,13915.61806
D1,André da Rocha/RS,-28.6309124,-51.5733328,1,74.01925
1,Angatuba/SP,-23.4938938,-48.4110675,3260,12672.99020
D1,Angatuba/SP,-23.4938938,-48.4110675,84,326.54331
1,Angelim/PE,-8.8902038,-36.2872987,276,2442.26175
D1,Angelim/PE,-8.8902038,-36.2872987,13,115.03407
1,Angelina/SC,-27.5805287,-48.9838759,854,18224.49851
D1,Angelina/SC,-27.5805287,-48.9838759,6,128.04097
1,Angelândia/MG,-17.7253,-42.2728,382,4444.96160
D1,Angelândia/MG,-17.7253,-42.2728,4,46.54410
1,Angical do Piauí/PI,-6.0872666,-42.7366138,901,13291.04588
D1,Angical do Piauí/PI,-6.0872666,-42.7366138,12,177.01726
1,Angical/BA,-12.005623,-44.7000236,1054,7581.64293
D1,Angical/BA,-12.005623,-44.7000236,20,143.86419
1,Angico/TO,-6.3893733,-47.8656722,259,7453.23741
D1,Angico/TO,-6.3893733,-47.8656722,5,143.88489
1,Angicos/RN,-5.6666344,-36.6009064,1166,9970.07268
D1,Angicos/RN,-5.6666344,-36.6009064,27,230.86789
1,Angra dos Reis/RJ,-23.0063966,-44.316326,21190,10082.26635
D1,Angra dos Reis/RJ,-23.0063966,-44.316326,591,281.19959
1,Anguera/BA,-12.1509425,-39.2452469,625,5497.40522
D1,Anguera/BA,-12.1509425,-39.2452469,2,17.59170
1,Angélica/MS,-22.1588196,-53.7728504,2047,18473.06200
D1,Angélica/MS,-22.1588196,-53.7728504,22,198.53804
1,Anhanguera/GO,-18.3338749,-48.220363,185,15798.46285
D1,Anhanguera/GO,-18.3338749,-48.220363,7,597.77968
1,Anhembi/SP,-22.7891096,-48.1316776,426,6164.08624
D1,Anhembi/SP,-22.7891096,-48.1316776,13,188.10592
1,Anhumas/SP,-22.2956478,-51.3873401,402,9635.66635
D1,Anhumas/SP,-22.2956478,-51.3873401,9,215.72387
1,Anicuns/GO,-16.4606451,-49.9572265,5779,26133.94836
D1,Anicuns/GO,-16.4606451,-49.9572265,78,352.73369
1,Anita Garibaldi/SC,-27.6855032,-51.1293873,1880,27716.34970
D1,Anita Garibaldi/SC,-27.6855032,-51.1293873,11,162.17013
1,Anitápolis/SC,-27.9041185,-49.1287395,428,13279.55321
D1,Anitápolis/SC,-27.9041185,-49.1287395,6,186.16196
1,Anori/AM,-3.7435254,-61.6605203,2670,12171.21758
D1,Anori/AM,-3.7435254,-61.6605203,33,150.43078
1,Anta Gorda/RS,-28.9718745,-52.0069187,963,16209.39236
D1,Anta Gorda/RS,-28.9718745,-52.0069187,8,134.65747
1,Antas/BA,-10.4114649,-38.3308815,1418,7212.98133
D1,Antas/BA,-10.4114649,-38.3308815,14,71.21420
1,Antonina do Norte/CE,-6.7754187,-39.9879345,990,13374.76358
D1,Antonina do Norte/CE,-6.7754187,-39.9879345,26,351.25642
1,Antonina/PR,-25.4298854,-48.7125431,4064,21481.05080
D1,Antonina/PR,-25.4298854,-48.7125431,74,391.14118
1,Antônio Almeida/PI,-7.2186016,-44.1950248,409,12881.88976
D1,Antônio Almeida/PI,-7.2186016,-44.1950248,11,346.45669
1,Antônio Cardoso/BA,-12.4363122,-39.1200307,763,6538.13196
D1,Antônio Cardoso/BA,-12.4363122,-39.1200307,11,94.25878
1,Antônio Carlos/MG,-21.318334,-43.746666,1659,14462.55775
D1,Antônio Carlos/MG,-21.318334,-43.746666,20,174.35272
1,Antônio Carlos/SC,-27.5168462,-48.7684715,2539,29143.70983
D1,Antônio Carlos/SC,-27.5168462,-48.7684715,29,332.87420
1,Antônio Dias/MG,-19.6525,-42.872778,793,8588.75772
D1,Antônio Dias/MG,-19.6525,-42.872778,29,314.09076
1,Antônio Gonçalves/BA,-10.5715409,-40.2748824,1018,8515.26558
D1,Antônio Gonçalves/BA,-10.5715409,-40.2748824,10,83.64701
1,Antônio João/MS,-22.1892837,-55.9508227,1037,11418.18983
D1,Antônio João/MS,-22.1892837,-55.9508227,21,231.22660
1,Antônio Martins/RN,-6.2155812,-37.8890129,957,13362.18933
D1,Antônio Martins/RN,-6.2155812,-37.8890129,7,97.73806
1,Antônio Olinto/PR,-25.9849006,-50.1974516,950,12801.50923
D1,Antônio Olinto/PR,-25.9849006,-50.1974516,16,215.60437
1,Antônio Prado de Minas/MG,-21.0171988,-42.1101106,166,10526.31579
D1,Antônio Prado de Minas/MG,-21.0171988,-42.1101106,5,317.05770
1,Antônio Prado/RS,-28.8567806,-51.2801355,4234,32466.83537
D1,Antônio Prado/RS,-28.8567806,-51.2801355,35,268.38433
1,Anápolis/GO,-16.3332828,-48.9525756,63485,16010.29945
D1,Anápolis/GO,-16.3332828,-48.9525756,1894,477.64838
1,Anísio de Abreu/PI,-9.185643,-43.04941,291,2911.74705
D1,Anísio de Abreu/PI,-9.185643,-43.04941,15,150.09005
1,Aparecida d'Oeste/SP,-20.4498109,-50.8808706,1337,32435.71082
D1,Aparecida d'Oeste/SP,-20.4498109,-50.8808706,22,533.72149
1,Aparecida de Goiânia/GO,-16.8226769,-49.2452546,110311,18328.83604
D1,Aparecida de Goiânia/GO,-16.8226769,-49.2452546,1883,312.87177
1,Aparecida do Rio Doce/GO,-18.2980167,-51.1491312,541,21867.42118
D1,Aparecida do Rio Doce/GO,-18.2980167,-51.1491312,5,202.10186
1,Aparecida do Rio Negro/TO,-9.9513491,-47.9773786,402,8202.40767
D1,Aparecida do Rio Negro/TO,-9.9513491,-47.9773786,13,265.25199
1,Aparecida do Taboado/MS,-20.0840304,-51.1013943,5600,21223.37603
D1,Aparecida do Taboado/MS,-20.0840304,-51.1013943,67,253.92253
1,Aparecida/PB,-6.7859598, -38.0831353,1494,17613.77034
D1,Aparecida/PB,-6.7859598, -38.0831353,16,188.63476
1,Aparecida/SP,-22.851552,-45.2340924,2951,8149.45735
D1,Aparecida/SP,-22.851552,-45.2340924,123,339.67579
1,Aperibé/RJ,-21.6211928,-42.1028167,1491,12387.83649
D1,Aperibé/RJ,-21.6211928,-42.1028167,32,265.86906
1,Apiacá/ES,-21.152272,-41.569297,2090,27711.48237
D1,Apiacá/ES,-21.152272,-41.569297,38,503.84513
1,Apiacás/MT,-9.5678422,-57.394852,2807,26910.17160
D1,Apiacás/MT,-9.5678422,-57.394852,19,182.14936
1,Apiaí/SP,-24.5076527,-48.8461582,1793,7445.70408
D1,Apiaí/SP,-24.5076527,-48.8461582,104,431.87575
1,Apicum-Açu/MA,-1.5279295,-45.082278,676,3844.84131
D1,Apicum-Açu/MA,-1.5279295,-45.082278,11,62.56399
1,Apiúna/SC,-27.0374658,-49.3885037,1449,13231.66834
D1,Apiúna/SC,-27.0374658,-49.3885037,20,182.63172
1,Apodi/RN,-5.6631109,-37.796927,8549,23810.71747
D1,Apodi/RN,-5.6631109,-37.796927,106,295.23173
1,Aporá/BA,-11.6599747,-38.0794757,709,3974.21525
D1,Aporá/BA,-11.6599747,-38.0794757,21,117.71300
1,Aporé/GO,-18.9642193,-51.92804,821,19245.19456
D1,Aporé/GO,-18.9642193,-51.92804,11,257.85279
1,Apuarema/BA,-13.8517897,-39.7457126,883,12139.12565
D1,Apuarema/BA,-13.8517897,-39.7457126,12,164.97113
1,Apucarana/PR,-23.5525327,-51.4610764,18404,13390.76529
D1,Apucarana/PR,-23.5525327,-51.4610764,526,382.71803
1,Apuiarés/CE,-3.9460303,-39.4313298,1608,10907.61091
D1,Apuiarés/CE,-3.9460303,-39.4313298,26,176.36684
1,Apuí/AM,-7.1940195,-59.8830192,2101,9239.63235
D1,Apuí/AM,-7.1940195,-59.8830192,36,158.31831
1,Aquidabã/SE,-10.2837579,-37.0188687,2593,11896.67829
D1,Aquidabã/SE,-10.2837579,-37.0188687,43,197.28391
1,Aquidauana/MS,-20.473969,-55.7821375,7287,15123.27744
D1,Aquidauana/MS,-20.473969,-55.7821375,173,359.04035
1,Aquiraz/CE,-3.9063117,-38.387504,9962,12211.17662
D1,Aquiraz/CE,-3.9063117,-38.387504,106,129.93221
1,Arabutã/SC,-27.1587028,-52.1438142,631,14784.44236
D1,Arabutã/SC,-27.1587028,-52.1438142,10,234.30178
1,Aracaju/SE,-10.9162061,-37.0774655,149730,22260.91042
D1,Aracaju/SE,-10.9162061,-37.0774655,2520,374.65768
1,Aracati/CE,-4.558259,-37.767894,12084,16028.22581
D1,Aracati/CE,-4.558259,-37.767894,177,234.77292
1,Aracatu/BA,-14.4274236,-41.4604105,1284,9907.40741
D1,Aracatu/BA,-14.4274236,-41.4604105,22,169.75309
1,Araci/BA,-11.3356065,-38.9573261,4275,7786.45976
D1,Araci/BA,-11.3356065,-38.9573261,59,107.46225
1,Aracitaba/MG,-21.3425,-43.378611,109,5301.55642
D1,Aracitaba/MG,-21.3425,-43.378611,11,535.01946
1,Aracoiaba/CE,-4.3702577,-38.8084313,4847,18221.80451
D1,Aracoiaba/CE,-4.3702577,-38.8084313,37,139.09774
1,Aracruz/ES,-19.8245218,-40.2735025,33508,31930.01849
D1,Aracruz/ES,-19.8245218,-40.2735025,270,257.28498
1,Aragarças/GO,-15.8957166,-52.2514538,4106,20117.58942
D1,Aragarças/GO,-15.8957166,-52.2514538,83,406.66340
1,Aragoiânia/GO,-16.9146388,-49.4499148,2233,20908.23970
D1,Aragoiânia/GO,-16.9146388,-49.4499148,30,280.89888
1,Aragominas/TO,-7.1654101,-48.525488,847,14846.62577
D1,Aragominas/TO,-7.1654101,-48.525488,11,192.81332
1,Araguacema/TO,-8.8067391,-49.5560969,1079,14938.39125
D1,Araguacema/TO,-8.8067391,-49.5560969,19,263.04859
1,Araguaiana/MT,-15.729144,-51.834112,535,17460.83551
D1,Araguaiana/MT,-15.729144,-51.834112,8,261.09661
1,Araguainha/MT,-16.857016,-53.031778,47,5170.51705
D1,Araguainha/MT,-16.857016,-53.031778,1,110.01100
1,Araguanã/MA,-2.9508403,-45.6651986,845,5390.74960
D1,Araguanã/MA,-2.9508403,-45.6651986,6,38.27751
1,Araguanã/TO,-6.5799107,-48.6428482,607,10365.43716
D1,Araguanã/TO,-6.5799107,-48.6428482,16,273.22404
1,Araguapaz/GO,-15.0937927,-50.626417,859,11019.88454
D1,Araguapaz/GO,-15.0937927,-50.626417,31,397.69083
1,Araguari/MG,-18.6511256,-48.1933764,27457,23197.67491
D1,Araguari/MG,-18.6511256,-48.1933764,496,419.05695
1,Araguatins/TO,-5.6522925,-48.1158973,3186,8711.34443
D1,Araguatins/TO,-5.6522925,-48.1158973,76,207.80357
1,Araguaçu/TO,-12.928934,-49.823134,1647,19565.21739
D1,Araguaçu/TO,-12.928934,-49.823134,25,296.98266
1,Araguaína/TO,-7.193241,-48.2018597,45878,24633.14451
D1,Araguaína/TO,-7.193241,-48.2018597,592,317.86088
1,Araioses/MA,-2.890914,-41.904993,687,1458.75358
D1,Araioses/MA,-2.890914,-41.904993,15,31.85051
1,Aral Moreira/MS,-22.951141,-55.6268421,578,4619.93446
D1,Aral Moreira/MS,-22.951141,-55.6268421,19,151.86636
1,Aramari/BA,-12.0907897,-38.4985065,1014,8802.84747
D1,Aramari/BA,-12.0907897,-38.4985065,14,121.53833
1,Arambaré/RS,-30.9132252,-51.4994625,355,10016.93002
D1,Arambaré/RS,-30.9132252,-51.4994625,10,282.16704
1,Arame/MA,-4.8858769,-46.0102484,1708,5203.35110
D1,Arame/MA,-4.8858769,-46.0102484,42,127.95126
1,Aramina/SP,-20.0876144,-47.789201,383,6732.29038
D1,Aramina/SP,-20.0876144,-47.789201,20,351.55563
1,Arandu/SP,-23.1345103,-49.0545651,658,10324.80778
D1,Arandu/SP,-23.1345103,-49.0545651,22,345.20634
1,Arantina/MG,-21.911667,-44.255833,461,16588.70097
D1,Arantina/MG,-21.911667,-44.255833,6,215.90500
1,Arapeí/SP,-22.6738889,-44.4477778,269,10970.63622
D1,Arapeí/SP,-22.6738889,-44.4477778,4,163.13214
1,Arapiraca/AL,-9.754866,-36.661471,35732,15249.94772
D1,Arapiraca/AL,-9.754866,-36.661471,558,238.14706
1,Arapoema/TO,-7.6575001,-49.0641484,620,9408.19423
D1,Arapoema/TO,-7.6575001,-49.0641484,12,182.09408
1,Araponga/MG,-20.666667,-42.520556,971,11468.05244
D1,Araponga/MG,-20.666667,-42.520556,14,165.34782
1,Arapongas/PR,-23.415296,-51.42592,22710,17946.18515
D1,Arapongas/PR,-23.415296,-51.42592,625,493.89545
1,Araporã/MG,-18.4318188,-49.188313,2669,38172.19680
D1,Araporã/MG,-18.4318188,-49.188313,43,614.98856
1,Arapoti/PR,-24.1457957,-49.8224605,5314,18658.70787
D1,Arapoti/PR,-24.1457957,-49.8224605,70,245.78652
1,Araputanga/MT,-15.4710868,-58.346796,3430,20084.31901
D1,Araputanga/MT,-15.4710868,-58.346796,56,327.90725
1,Arapuá/MG,-19.034444,-46.155556,442,15585.33145
D1,Arapuá/MG,-19.034444,-46.155556,3,105.78279
1,Arapuã/PR,-24.3079525,-51.7901941,754,25550.66079
D1,Arapuã/PR,-24.3079525,-51.7901941,9,304.98136
1,Araquari/SC,-26.3703324,-48.7210994,6457,15791.14698
D1,Araquari/SC,-26.3703324,-48.7210994,94,229.88506
1,Arara/PB,-6.8271895,-35.7605703,1145,8411.07765
D1,Arara/PB,-6.8271895,-35.7605703,31,227.72350
1,Araranguá/SC,-28.9348832,-49.4858389,15299,22015.16700
D1,Araranguá/SC,-28.9348832,-49.4858389,273,392.84532
1,Araraquara/SP,-21.7886713,-48.1773096,27648,11494.04262
D1,Araraquara/SP,-21.7886713,-48.1773096,587,244.03223
1,Araras/SP,-22.3569477,-47.3838889,19596,14330.95167
D1,Araras/SP,-22.3569477,-47.3838889,424,310.07979
1,Ararendá/CE,-4.7504395,-40.8303611,1822,16589.27433
D1,Ararendá/CE,-4.7504395,-40.8303611,22,200.30957
1,Arari/MA,-3.4547602,-44.7772723,1102,3671.61991
D1,Arari/MA,-3.4547602,-44.7772723,36,119.94403
1,Araricá/RS,-29.6168543,-50.929121,1601,27414.38356
D1,Araricá/RS,-29.6168543,-50.929121,29,496.57534
1,Araripe/CE,-7.212861,-40.1359222,1742,8025.06104
D1,Araripe/CE,-7.212861,-40.1359222,27,124.38384
1,Araripina/PE,-7.5768582,-40.5038509,9501,11138.20471
D1,Araripina/PE,-7.5768582,-40.5038509,175,205.15586
1,Araruama/RJ,-22.8733203,-42.3428897,9249,6795.28907
D1,Araruama/RJ,-22.8733203,-42.3428897,505,371.02616
1,Araruna/PB,-6.5321155,-35.7397595,921,4468.70451
D1,Araruna/PB,-6.5321155,-35.7397595,18,87.33624
1,Araruna/PR,-23.9320308,-52.4976047,2967,21149.04840
D1,Araruna/PR,-23.9320308,-52.4976047,38,270.86749
1,Arataca/BA,-15.2617424,-39.4122943,954,8749.08291
D1,Arataca/BA,-15.2617424,-39.4122943,16,146.73514
1,Aratiba/RS,-27.3955734,-52.3024325,787,12807.16029
D1,Aratiba/RS,-27.3955734,-52.3024325,8,130.18714
1,Aratuba/CE,-4.4195958,-39.0463737,2032,17280.38098
D1,Aratuba/CE,-4.4195958,-39.0463737,14,119.05774
1,Aratuípe/BA,-13.077137,-39.0010786,1134,12816.45570
D1,Aratuípe/BA,-13.077137,-39.0010786,12,135.62387
1,Araucária/PR,-25.5861107,-49.4051209,40154,27035.72535
D1,Araucária/PR,-25.5861107,-49.4051209,570,383.78153
1,Arauá/SE,-11.2644014,-37.6181058,1409,14319.10569
D1,Arauá/SE,-11.2644014,-37.6181058,23,233.73984
1,Araxá/MG,-19.5928536,-46.940241,30784,28397.73807
D1,Araxá/MG,-19.5928536,-46.940241,274,252.76053
1,Araçagi/PB,-6.8519969,-35.3835602,2209,13104.34834
D1,Araçagi/PB,-6.8519969,-35.3835602,27,160.17085
1,Araçariguama/SP,-23.438611,-47.061389,2602,11146.81061
D1,Araçariguama/SP,-23.438611,-47.061389,75,321.29546
1,Araçatuba/SP,-21.207992,-50.4390225,41542,20853.37081
D1,Araçatuba/SP,-21.207992,-50.4390225,975,489.43326
1,Araçaí/MG,-19.200833,-44.2475,104,4406.77966
D1,Araçaí/MG,-19.200833,-44.2475,2,84.74576
1,Araçoiaba da Serra/SP,-23.5045367,-47.6168158,3230,9127.12990
D1,Araçoiaba da Serra/SP,-23.5045367,-47.6168158,96,271.27073
1,Araçoiaba/PE,-7.7856903,-35.0898881,1081,5163.35499
D1,Araçoiaba/PE,-7.7856903,-35.0898881,33,157.62323
1,Araçu/GO,-16.3561579,-49.6815269,1238,35884.05797
D1,Araçu/GO,-16.3561579,-49.6815269,20,579.71014
1,Araçuaí/MG,-16.8484451,-42.0661868,3373,9186.98080
D1,Araçuaí/MG,-16.8484451,-42.0661868,61,166.14463
1,Araçás/BA,-12.2139176,-38.2026159,892,7289.36831
D1,Araçás/BA,-12.2139176,-38.2026159,17,138.92294
1,Araújos/MG,-19.948055,-45.165556,947,9944.34527
D1,Araújos/MG,-19.948055,-45.165556,14,147.01250
1,Arceburgo/MG,-21.364444,-46.939722,2049,18644.22202
D1,Arceburgo/MG,-21.364444,-46.939722,34,309.37216
1,Arco-Íris/SP,-21.7741308,-50.4668814,398,22678.06268
D1,Arco-Íris/SP,-21.7741308,-50.4668814,8,455.84046
1,Arcos/MG,-20.282223,-45.539444,10137,24932.36263
D1,Arcos/MG,-20.282223,-45.539444,142,349.25476
1,Arcoverde/PE,-8.415192,-37.057748,9268,12308.91825
D1,Arcoverde/PE,-8.415192,-37.057748,139,184.60721
1,Areado/MG,-21.3582771,-46.1476688,2510,16418.10570
D1,Areado/MG,-21.3582771,-46.1476688,35,228.93773
1,Areal/RJ,-22.2314922,-43.1056264,1815,14220.79448
D1,Areal/RJ,-22.2314922,-43.1056264,52,407.42772
1,Arealva/SP,-22.0301906,-48.9111936,1500,17311.02135
D1,Arealva/SP,-22.0301906,-48.9111936,23,265.43566
1,Areia Branca/RN,-4.9506652,-37.1263312,3949,14025.42975
D1,Areia Branca/RN,-4.9506652,-37.1263312,114,404.88706
1,Areia Branca/SE,-10.7591455,-37.3148072,2372,12600.26560
D1,Areia Branca/SE,-10.7591455,-37.3148072,50,265.60425
1,Areia de Baraúnas/PB,-7.1233949,-36.9446216,332,15771.97150
D1,Areia de Baraúnas/PB,-7.1233949,-36.9446216,7,332.54157
1,Areia/PB,-6.9680243,-35.6994783,2782,12368.29236
D1,Areia/PB,-6.9680243,-35.6994783,35,155.60397
1,Areial/PB,-7.0501306,-35.9245244,546,7740.28920
D1,Areial/PB,-7.0501306,-35.9245244,13,184.29260
1,Areias/SP,-22.5800929,-44.6975127,363,9293.39478
D1,Areias/SP,-22.5800929,-44.6975127,2,51.20328
1,Areiópolis/SP,-22.6758064,-48.6673653,1909,17065.97533
D1,Areiópolis/SP,-22.6758064,-48.6673653,28,250.31289
1,Arenápolis/MT,-14.4610369,-56.8432806,2712,28854.13342
D1,Arenápolis/MT,-14.4610369,-56.8432806,43,457.49548
1,Arenópolis/GO,-16.3859286,-51.55937,594,24126.72624
D1,Arenópolis/GO,-16.3859286,-51.55937,9,365.55646
1,Argirita/MG,-21.612761,-42.8371922,520,19395.74786
D1,Argirita/MG,-21.612761,-42.8371922,14,522.19321
1,Aricanduva/MG,-17.8678,-42.5569,345,6503.29877
1,Arinos/MG,-15.917223,-46.106111,2180,12212.88515
D1,Arinos/MG,-15.917223,-46.106111,30,168.06723
1,Aripuanã/MT,-10.175806,-59.4439663,5579,24186.06668
D1,Aripuanã/MT,-10.175806,-59.4439663,54,234.10066
1,Ariquemes/RO,-9.9076522,-63.033069,29565,26599.66891
D1,Ariquemes/RO,-9.9076522,-63.033069,548,493.03631
1,Ariranha do Ivaí/PR,-24.3834527,-51.5876772,542,26752.22113
D1,Ariranha do Ivaí/PR,-24.3834527,-51.5876772,5,246.79171
1,Ariranha/SP,-21.18716,-48.790418,1031,10465.94254
D1,Ariranha/SP,-21.18716,-48.790418,35,355.29388
1,Armazém/SC,-28.2624996,-49.0190126,1639,18534.43402
D1,Armazém/SC,-28.2624996,-49.0190126,36,407.10166
1,Armação dos Búzios/RJ,-22.7597805,-41.8875267,7577,21611.52310
D1,Armação dos Búzios/RJ,-22.7597805,-41.8875267,81,231.03252
1,Arneiroz/CE,-6.3235099,-40.1603859,832,10601.42712
D1,Arneiroz/CE,-6.3235099,-40.1603859,21,267.58410
1,Aroazes/PI,-6.1108814,-41.7886137,699,12012.37326
D1,Aroazes/PI,-6.1108814,-41.7886137,14,240.59117
1,Aroeiras do Itaim/PI,-7.2797031,-41.5629681,188,7369.65896
D1,Aroeiras do Itaim/PI,-7.2797031,-41.5629681,2,78.40063
1,Aroeiras/PB,-7.5462904,-35.7080002,2674,14013.94057
D1,Aroeiras/PB,-7.5462904,-35.7080002,20,104.81631
1,Arraial do Cabo/RJ,-22.9662839,-42.024427,2216,7188.50358
D1,Arraial do Cabo/RJ,-22.9662839,-42.024427,50,162.19548
1,Arraial/PI,-6.6541632,-42.5335332,172,3649.48016
D1,Arraial/PI,-6.6541632,-42.5335332,3,63.65372
1,Arraias/TO,-12.9287788,-46.9437231,1304,12416.68254
D1,Arraias/TO,-12.9287788,-46.9437231,13,123.78595
1,Arroio Grande/RS,-32.2384246,-53.0866661,2527,13896.06819
D1,Arroio Grande/RS,-32.2384246,-53.0866661,61,335.44130
1,Arroio Trinta/SC,-26.9301976,-51.334928,1058,29828.02368
D1,Arroio Trinta/SC,-26.9301976,-51.334928,15,422.89259
1,Arroio do Meio/RS,-29.4020392,-51.9444993,4537,21480.99048
D1,Arroio do Meio/RS,-29.4020392,-51.9444993,56,265.13896
1,Arroio do Padre/RS,-31.4428773,-52.4228985,383,12913.01416
D1,Arroio do Padre/RS,-31.4428773,-52.4228985,4,134.86177
1,Arroio do Sal/RS,-29.549852,-49.8874395,2764,26366.49814
D1,Arroio do Sal/RS,-29.549852,-49.8874395,42,400.64867
1,Arroio do Tigre/RS,-29.334158,-53.0888935,2445,18175.73595
D1,Arroio do Tigre/RS,-29.334158,-53.0888935,23,170.97829
1,Arroio dos Ratos/RS,-30.0894524,-51.7265541,1869,13161.04500
D1,Arroio dos Ratos/RS,-30.0894524,-51.7265541,47,330.96261
1,Artur Nogueira/SP,-22.572737,-47.172679,7551,13424.71598
D1,Artur Nogueira/SP,-22.572737,-47.172679,153,272.01451
1,Aruanã/GO,-14.9162439,-51.0715692,1213,11731.14120
D1,Aruanã/GO,-14.9162439,-51.0715692,20,193.42360
1,Arujá/SP,-23.396266,-46.3175449,10220,11054.26541
D1,Arujá/SP,-23.396266,-46.3175449,358,387.22378
1,Arvoredo/SC,-27.0752908,-52.4571847,428,19210.05386
D1,Arvoredo/SC,-27.0752908,-52.4571847,5,224.41652
1,Arvorezinha/RS,-28.87369,-52.17808,1513,14517.36711
D1,Arvorezinha/RS,-28.87369,-52.17808,30,287.85262
1,Arês/RN,-6.1969216,-35.1642968,1409,9699.84855
D1,Arês/RN,-6.1969216,-35.1642968,27,185.87361
1,Ascurra/SC,-26.9569975,-49.3767752,2169,27041.51602
D1,Ascurra/SC,-26.9569975,-49.3767752,13,162.07455
1,Aspásia/SP,-20.160028,-50.728046,335,18457.30028
D1,Aspásia/SP,-20.160028,-50.728046,10,550.96419
1,Assaré/CE,-6.8746791,-39.8741385,2860,12151.08128
D1,Assaré/CE,-6.8746791,-39.8741385,51,216.68012
1,Assaí/PR,-23.3736041,-50.8454929,2866,19375.33802
D1,Assaí/PR,-23.3736041,-50.8454929,60,405.62466
1,Assis Brasil/AC,-10.9409203,-69.5672108,2000,26147.20879
D1,Assis Brasil/AC,-10.9409203,-69.5672108,25,326.84011
1,Assis Chateaubriand/PR,-24.4054826,-53.5120468,8583,25770.13151
D1,Assis Chateaubriand/PR,-24.4054826,-53.5120468,139,417.34222
1,Assis/SP,-22.6620892,-50.420623,13669,12923.56857
D1,Assis/SP,-22.6620892,-50.420623,448,423.56857
1,Assunção do Piauí/PI,-5.8610212,-41.0485091,410,5203.70605
D1,Assunção do Piauí/PI,-5.8610212,-41.0485091,10,126.91966
1,Assunção/PB,-7.073396,-36.7274003,668,16424.88321
D1,Assunção/PB,-7.073396,-36.7274003,6,147.52889
1,Astolfo Dutra/MG,-21.3132636,-42.8624102,2104,14653.85151
D1,Astolfo Dutra/MG,-21.3132636,-42.8624102,30,208.94275
1,Astorga/PR,-23.2350184,-51.6647074,7554,28718.06569
D1,Astorga/PR,-23.2350184,-51.6647074,103,391.57543
1,Atalaia do Norte/AM,-4.3658547,-70.1908742,3910,18736.82193
D1,Atalaia do Norte/AM,-4.3658547,-70.1908742,11,52.71229
1,Atalaia/AL,-9.5029595,-36.0219316,1831,3851.49348
D1,Atalaia/AL,-9.5029595,-36.0219316,55,115.69205
1,Atalaia/PR,-23.1513833,-52.0529697,929,23998.96668
D1,Atalaia/PR,-23.1513833,-52.0529697,25,645.82795
1,Atalanta/SC,-27.421916,-49.778863,829,26077.38282
D1,Atalanta/SC,-27.421916,-49.778863,11,346.02076
1,Ataléia/MG,-18.04432,-41.1110524,1516,12131.88220
D1,Ataléia/MG,-18.04432,-41.1110524,12,96.03073
1,Atibaia/SP,-23.1177393,-46.5547861,12877,8857.59881
D1,Atibaia/SP,-23.1177393,-46.5547861,317,218.05225
1,Atilio Vivacqua/ES,-20.9139369,-41.1947519,2750,22412.38794
D1,Atilio Vivacqua/ES,-20.9139369,-41.1947519,36,293.39853
1,Augustinópolis/TO,-5.4662267,-47.8897519,2059,10911.49974
D1,Augustinópolis/TO,-5.4662267,-47.8897519,32,169.58135
1,Augusto Corrêa/PA,-1.0229335,-46.6404029,2471,5264.50348
D1,Augusto Corrêa/PA,-1.0229335,-46.6404029,53,112.91731
1,Augusto Pestana/RS,-28.5148413,-53.9906433,1621,24766.99771
D1,Augusto Pestana/RS,-28.5148413,-53.9906433,14,213.90374
1,Augusto de Lima/MG,-18.1092963,-44.2651945,327,6765.98386
D1,Augusto de Lima/MG,-18.1092963,-44.2651945,11,227.60190
1,Aurelino Leal/BA,-14.3167137,-39.3256107,1293,11670.72841
D1,Aurelino Leal/BA,-14.3167137,-39.3256107,38,342.99124
1,Auriflama/SP,-20.6840418,-50.5554616,2189,14292.24341
D1,Auriflama/SP,-20.6840418,-50.5554616,82,535.38783
1,Aurilândia/GO,-16.6772599,-50.4641231,836,27866.66667
D1,Aurilândia/GO,-16.6772599,-50.4641231,15,500.00000
1,Aurora do Pará/PA,-2.1323199,-47.558436,1906,5919.25466
D1,Aurora do Pará/PA,-2.1323199,-47.558436,17,52.79503
1,Aurora do Tocantins/TO,-12.71045,-46.407604,427,11210.29142
D1,Aurora do Tocantins/TO,-12.71045,-46.407604,8,210.02888
1,Aurora/CE,-6.9426019,-38.9693765,2460,10013.43265
D1,Aurora/CE,-6.9426019,-38.9693765,44,179.10205
1,Aurora/SC,-27.3166417,-49.6368502,1387,24388.95727
D1,Aurora/SC,-27.3166417,-49.6368502,20,351.67927
1,Autazes/AM,-3.5833283,-59.1301518,4038,9847.57956
D1,Autazes/AM,-3.5833283,-59.1301518,102,248.75015
1,Avanhandava/SP,-21.4603331,-49.9465156,1241,8824.57513
D1,Avanhandava/SP,-21.4603331,-49.9465156,47,334.21034
1,Avaré/SP,-23.1045215,-48.9259103,13025,14189.68973
D1,Avaré/SP,-23.1045215,-48.9259103,300,326.82587
1,Avaí/SP,-22.1564662,-49.3316395,809,14797.87818
D1,Avaí/SP,-22.1564662,-49.3316395,13,237.79038
1,Aveiro/PA,-3.6049239,-55.3310742,1052,6406.43079
D1,Aveiro/PA,-3.6049239,-55.3310742,16,97.43621
1,Avelino Lopes/PI,-10.1346855,-43.9489525,527,4638.67617
D1,Avelino Lopes/PI,-10.1346855,-43.9489525,23,202.44697
1,Avelinópolis/GO,-16.4672409,-49.7578661,454,18908.78800
D1,Avelinópolis/GO,-16.4672409,-49.7578661,17,708.03832
1,Axixá do Tocantins/TO,-5.612747,-47.77007,1250,12733.01416
D1,Axixá do Tocantins/TO,-5.612747,-47.77007,24,244.47387
1,Axixá/MA,-2.8379465,-44.0561053,192,1569.39676
D1,Axixá/MA,-2.8379465,-44.0561053,8,65.39153
1,Açailândia/MA,-4.9514278,-47.4844564,6394,5619.46864
D1,Açailândia/MA,-4.9514278,-47.4844564,290,254.87111
1,Açu/RN,-5.5836157,-36.9139541,9859,16783.27631
D1,Açu/RN,-5.5836157,-36.9139541,165,280.88453
1,Açucena/MG,-19.073056,-42.546666,845,9115.42611
D1,Açucena/MG,-19.073056,-42.546666,38,409.92449
1,Babaçulândia/TO,-7.2034355,-47.761613,896,8398.95013
D1,Babaçulândia/TO,-7.2034355,-47.761613,8,74.99063
1,Bacabal/MA,-4.2318132,-44.781167,5706,5429.42509
D1,Bacabal/MA,-4.2318132,-44.781167,216,205.53029
1,Bacabeira/MA,-2.9775747,-44.3155943,573,3284.42050
D1,Bacabeira/MA,-2.9775747,-44.3155943,11,63.05170
1,Bacuri/MA,-1.728894,-45.1417148,841,4491.08192
D1,Bacuri/MA,-1.728894,-45.1417148,4,21.36067
1,Bacurituba/MA,-2.7082587,-44.7381309,117,2054.07303
D1,Bacurituba/MA,-2.7082587,-44.7381309,2,35.11236
1,Bady Bassitt/SP,-20.9178969,-49.4517911,4388,24360.18431
D1,Bady Bassitt/SP,-20.9178969,-49.4517911,94,521.84533
1,Baependi/MG,-21.959162,-44.8899249,2865,14883.89007
D1,Baependi/MG,-21.959162,-44.8899249,36,187.02270
1,Bagre/PA,-1.8994498,-50.2103844,1324,4141.77120
D1,Bagre/PA,-1.8994498,-50.2103844,13,40.66694
1,Bagé/RS,-31.3314264,-54.1062808,16409,13503.34930
D1,Bagé/RS,-31.3314264,-54.1062808,321,264.15840
1,Baianópolis/BA,-12.3067564,-44.5383591,1237,8848.98777
D1,Baianópolis/BA,-12.3067564,-44.5383591,25,178.83969
1,Baixa Grande do Ribeiro/PI,-7.862861,-45.2113289,2672,22738.49034
D1,Baixa Grande do Ribeiro/PI,-7.862861,-45.2113289,36,306.35691
1,Baixa Grande/BA,-11.9630941,-40.1657537,1323,6475.45397
D1,Baixa Grande/BA,-11.9630941,-40.1657537,23,112.57403
1,Baixio/CE,-6.7303544,-38.7170095,834,13200.37987
D1,Baixio/CE,-6.7303544,-38.7170095,17,269.07249
1,Baixo Guandu/ES,-19.5138322,-41.0182089,9158,29293.41394
D1,Baixo Guandu/ES,-19.5138322,-41.0182089,99,316.66827
1,Baião/PA,-2.7903479,-49.6702845,931,1882.55753
D1,Baião/PA,-2.7903479,-49.6702845,39,78.86116
1,Balbinos/SP,-21.9006253,-49.3583966,599,9776.39954
D1,Balbinos/SP,-21.9006253,-49.3583966,4,65.28480
1,Baldim/MG,-19.2913568,-43.9558262,733,9421.59383
D1,Baldim/MG,-19.2913568,-43.9558262,24,308.48329
1,Baliza/GO,-16.1978119,-52.542789,664,12255.44481
D1,Baliza/GO,-16.1978119,-52.542789,11,203.02695
1,Balneário Arroio do Silva/SC,-28.9815269,-49.4189932,3196,23189.66768
D1,Balneário Arroio do Silva/SC,-28.9815269,-49.4189932,63,457.11798
1,Balneário Barra do Sul/SC,-26.459842,-48.6061471,2089,18534.29154
D1,Balneário Barra do Sul/SC,-26.459842,-48.6061471,52,461.36101
1,Balneário Camboriú/SC,-26.9924395,-48.6339782,34499,23118.47052
D1,Balneário Camboriú/SC,-26.9924395,-48.6339782,482,322.99785
1,Balneário Gaivota/SC,-29.1553098,-49.5808712,2818,24425.76060
D1,Balneário Gaivota/SC,-29.1553098,-49.5808712,39,338.04282
1,Balneário Pinhal/RS,-30.2482978,-50.234585,3120,21304.19939
D1,Balneário Pinhal/RS,-30.2482978,-50.234585,62,423.35268
1,Balneário Piçarras/SC,-26.7638889,-48.6716667,7008,28738.97888
D1,Balneário Piçarras/SC,-26.7638889,-48.6716667,71,291.16260
1,Balneário Rincão/SC,-28.8235718,-49.2241642,2270,17289.96877
D1,Balneário Rincão/SC,-28.8235718,-49.2241642,54,411.30322
1,Balsa Nova/PR,-25.5842234,-49.6312741,2753,20796.19278
D1,Balsa Nova/PR,-25.5842234,-49.6312741,36,271.94440
1,Balsas/MA,-7.53214,-46.037163,14849,15315.98436
D1,Balsas/MA,-7.53214,-46.037163,230,237.23324
1,Bambuí/MG,-20.0131996,-45.9777034,5442,22709.06360
D1,Bambuí/MG,-20.0131996,-45.9777034,41,171.08997
1,Banabuiú/CE,-5.3046404,-38.919766,2709,14792.77016
D1,Banabuiú/CE,-5.3046404,-38.919766,22,120.13324
1,Bananal/SP,-22.6828195,-44.3221095,1135,10281.72842
D1,Bananal/SP,-22.6828195,-44.3221095,4,36.23517
1,Bananeiras/PB,-6.7537682,-35.6338343,1987,9363.80773
D1,Bananeiras/PB,-6.7537682,-35.6338343,28,131.95099
1,Bandeira do Sul/MG,-21.728056,-46.385555,1207,20781.68044
D1,Bandeira do Sul/MG,-21.728056,-46.385555,16,275.48209
1,Bandeira/MG,-15.884444,-40.559167,663,13993.24610
D1,Bandeira/MG,-15.884444,-40.559167,11,232.16547
1,Bandeirante/SC,-26.7677402,-53.6397596,630,24064.17112
D1,Bandeirante/SC,-26.7677402,-53.6397596,7,267.37968
1,Bandeirantes do Tocantins/TO,-7.7635698,-48.579148,631,17378.13275
D1,Bandeirantes do Tocantins/TO,-7.7635698,-48.579148,8,220.32498
1,Bandeirantes/MS,-19.9179623,-54.3646768,712,9778.87653
D1,Bandeirantes/MS,-19.9179623,-54.3646768,12,164.81253
1,Bandeirantes/PR,-23.107788,-50.370407,8447,27194.87460
D1,Bandeirantes/PR,-23.107788,-50.370407,155,499.01806
1,Bannach/PA,-7.3508505,-50.4064531,656,20253.16456
D1,Bannach/PA,-7.3508505,-50.4064531,3,92.62118
1,Banzaê/BA,-10.5827616,-38.6122305,1295,9772.84733
D1,Banzaê/BA,-10.5827616,-38.6122305,12,90.55920
1,Baraúna/PB,-6.643394,-36.2531932,770,15299.02643
D1,Baraúna/PB,-6.643394,-36.2531932,9,178.81979
1,Baraúna/RN,-5.0775002,-37.61752,1746,5997.52679
D1,Baraúna/RN,-5.0775002,-37.61752,31,106.48530
1,Barbacena/MG,-21.2254524,-43.7735087,14276,10265.99837
D1,Barbacena/MG,-21.2254524,-43.7735087,333,239.46326
1,Barbalha/CE,-7.3121067,-39.3036427,9072,14712.46473
D1,Barbalha/CE,-7.3121067,-39.3036427,189,306.50968
1,Barbosa Ferraz/PR,-24.0287182,-52.00811,2863,25365.46469
D1,Barbosa Ferraz/PR,-24.0287182,-52.00811,49,434.12776
1,Barbosa/SP,-21.265661,-49.951816,881,11696.76049
D1,Barbosa/SP,-21.265661,-49.951816,23,305.36378
1,Barcarena/PA,-1.5107945,-48.6190679,12674,9799.50979
D1,Barcarena/PA,-1.5107945,-48.6190679,250,193.29947
1,Barcelona/RN,-5.9514918,-35.9260284,380,9526.19704
D1,Barcelona/RN,-5.9514918,-35.9260284,9,225.62046
1,Barcelos/AM,-0.9729214,-62.925635,5303,19094.77171
D1,Barcelos/AM,-0.9729214,-62.925635,60,216.04494
1,Bariri/SP,-22.0746355,-48.7394852,3565,9945.87658
D1,Bariri/SP,-22.0746355,-48.7394852,140,390.58141
1,Barra Bonita/SC,-26.6526364,-53.4419581,400,24615.38462
D1,Barra Bonita/SC,-26.6526364,-53.4419581,2,123.07692
1,Barra Bonita/SP,-22.490859,-48.558349,5068,14029.06574
D1,Barra Bonita/SP,-22.490859,-48.558349,126,348.78893
1,Barra D'Alcântara/PI,-6.5209258,-42.1071089,156,3946.36985
D1,Barra D'Alcântara/PI,-6.5209258,-42.1071089,5,126.48621
1,Barra Funda/RS,-27.9230048,-53.0401045,929,36246.58603
D1,Barra Funda/RS,-27.9230048,-53.0401045,14,546.23488
1,Barra Longa/MG,-20.2833541,-43.0423516,589,12008.15494
D1,Barra Longa/MG,-20.2833541,-43.0423516,13,265.03568
1,Barra Mansa/RJ,-22.5394843,-44.1735129,42874,23145.48389
D1,Barra Mansa/RJ,-22.5394843,-44.1735129,730,394.08973
1,Barra Velha/SC,-26.6338203,-48.6835001,6082,19915.51786
D1,Barra Velha/SC,-26.6338203,-48.6835001,142,464.97921
1,Barra da Estiva/BA,-13.6269662,-41.3278287,3482,17239.33063
D1,Barra da Estiva/BA,-13.6269662,-41.3278287,35,173.28448
1,Barra de Guabiraba/PE,-8.4173522,-35.6626669,645,4408.14653
D1,Barra de Guabiraba/PE,-8.4173522,-35.6626669,19,129.85238
1,Barra de Santa Rosa/PB,-6.7218007,-36.0564638,1743,11168.06561
D1,Barra de Santa Rosa/PB,-6.7218007,-36.0564638,16,102.51810
1,Barra de Santana/PB,-7.5230865,-35.9988518,1083,12988.72631
D1,Barra de Santana/PB,-7.5230865,-35.9988518,8,95.94627
1,Barra de Santo Antônio/AL,-9.4038098,-35.5117693,603,3721.99247
D1,Barra de Santo Antônio/AL,-9.4038098,-35.5117693,33,203.69113
1,Barra de São Francisco/ES,-18.7570902,-40.8916119,10659,23529.28191
D1,Barra de São Francisco/ES,-18.7570902,-40.8916119,252,556.27911
1,Barra de São Miguel/AL,-9.8261357,-35.8837777,929,11014.93953
D1,Barra de São Miguel/AL,-9.8261357,-35.8837777,10,118.56770
1,Barra de São Miguel/PB,-7.7528088,-36.3170996,1172,19228.87613
D1,Barra de São Miguel/PB,-7.7528088,-36.3170996,10,164.06891
1,Barra do Bugres/MT,-15.0683712,-57.1853688,5857,16432.86011
D1,Barra do Bugres/MT,-15.0683712,-57.1853688,96,269.34515
1,Barra do Chapéu/SP,-24.472203,-49.023784,454,7835.69210
D1,Barra do Chapéu/SP,-24.472203,-49.023784,12,207.11080
1,Barra do Choça/BA,-14.8638173,-40.5761637,2705,8773.63692
D1,Barra do Choça/BA,-14.8638173,-40.5761637,38,123.25257
1,Barra do Corda/MA,-5.496823,-45.248496,5876,6610.04556
D1,Barra do Corda/MA,-5.496823,-45.248496,79,88.86889
1,Barra do Garças/MT,-15.8916033,-52.2615413,13866,22472.52925
D1,Barra do Garças/MT,-15.8916033,-52.2615413,400,648.27720
1,Barra do Guarita/RS,-27.1888016,-53.7147086,131,4011.02266
D1,Barra do Guarita/RS,-27.1888016,-53.7147086,8,244.94795
1,Barra do Jacaré/PR,-23.1151788,-50.1813945,569,20460.26609
D1,Barra do Jacaré/PR,-23.1151788,-50.1813945,7,251.70802
1,Barra do Mendes/BA,-11.8053298,-42.057037,1048,7982.93723
D1,Barra do Mendes/BA,-11.8053298,-42.057037,19,144.72882
1,Barra do Ouro/TO,-7.7113784,-47.6743925,175,3744.91761
D1,Barra do Ouro/TO,-7.7113784,-47.6743925,8,171.19623
1,Barra do Piraí/RJ,-22.4703403,-43.8263256,10040,9926.93224
D1,Barra do Piraí/RJ,-22.4703403,-43.8263256,433,428.12367
1,Barra do Quaraí/RS,-30.208947,-57.5505128,799,18853.23266
D1,Barra do Quaraí/RS,-30.208947,-57.5505128,9,212.36432
1,Barra do Ribeiro/RS,-30.2930206,-51.301437,1547,11359.96475
D1,Barra do Ribeiro/RS,-30.2930206,-51.301437,56,411.22044
1,Barra do Rio Azul/RS,-27.4101581,-52.4117471,207,12769.89513
D1,Barra do Rio Azul/RS,-27.4101581,-52.4117471,1,61.69031
1,Barra do Rocha/BA,-14.2090974,-39.6004395,660,11967.36174
D1,Barra do Rocha/BA,-14.2090974,-39.6004395,8,145.05893
1,Barra do Turvo/SP,-24.756421,-48.5056942,743,9768.60373
D1,Barra do Turvo/SP,-24.756421,-48.5056942,25,328.68788
1,Barra dos Coqueiros/SE,-10.9075694,-37.0386249,8391,26689.78021
D1,Barra dos Coqueiros/SE,-10.9075694,-37.0386249,106,337.16085
1,Barra/BA,-11.0892702,-43.1420453,3114,5742.73859
D1,Barra/BA,-11.0892702,-43.1420453,70,129.09175
1,Barracão/PR,-26.252395,-53.6349576,2469,23861.98898
D1,Barracão/PR,-26.252395,-53.6349576,39,376.92085
1,Barracão/RS,-27.6728964,-51.4582928,826,15772.38877
D1,Barracão/RS,-27.6728964,-51.4582928,17,324.61333
1,Barras/PI,-4.2446153,-42.2920241,5936,12550.21354
D1,Barras/PI,-4.2446153,-42.2920241,103,217.76819
1,Barreira/CE,-4.2883361,-38.641094,2103,9258.19943
D1,Barreira/CE,-4.2883361,-38.641094,52,228.92362
1,Barreiras do Piauí/PI,-9.9224524,-45.4763776,114,3396.90107
D1,Barreiras do Piauí/PI,-9.9224524,-45.4763776,4,119.18951
1,Barreiras/BA,-12.1440031,-44.9967406,23295,14703.46900
D1,Barreiras/BA,-12.1440031,-44.9967406,352,222.17734
1,Barreirinha/AM,-2.798863,-57.067897,3752,11397.67308
D1,Barreirinha/AM,-2.798863,-57.067897,68,206.56764
1,Barreirinhas/MA,-2.7541271,-42.8259693,2768,4332.37858
D1,Barreirinhas/MA,-2.7541271,-42.8259693,48,75.12795
1,Barreiros/PE,-8.8159644,-35.1831905,907,2115.89605
D1,Barreiros/PE,-8.8159644,-35.1831905,67,156.30103
1,Barretos/SP,-20.5531437,-48.5697509,20597,16671.52316
D1,Barretos/SP,-20.5531437,-48.5697509,621,502.64679
1,Barrinha/SP,-21.1898849,-48.1550642,1735,5173.39058
D1,Barrinha/SP,-21.1898849,-48.1550642,88,262.39676
1,Barro Alto/BA,-11.7618025,-41.9094904,1158,7632.98398
D1,Barro Alto/BA,-11.7618025,-41.9094904,17,112.05590
1,Barro Alto/GO,-14.9696025,-48.9190985,1889,16224.34081
D1,Barro Alto/GO,-14.9696025,-48.9190985,24,206.13244
1,Barro Duro/PI,-5.8180139,-42.5106589,810,11535.17516
D1,Barro Duro/PI,-5.8180139,-42.5106589,12,170.89148
1,Barro Preto/BA,-14.8068289,-39.4727588,748,14081.32530
D1,Barro Preto/BA,-14.8068289,-39.4727588,14,263.55422
1,Barro/CE,-7.1713587,-38.7742136,2500,10948.58544
D1,Barro/CE,-7.1713587,-38.7742136,49,214.59227
1,Barrocas/BA,-11.5165,-39.099282894736845,1043,6428.35131
D1,Barrocas/BA,-11.5165,-39.099282894736845,27,166.40986
1,Barrolândia/TO,-9.837246,-48.7264346,841,14835.06791
D1,Barrolândia/TO,-9.837246,-48.7264346,20,352.79591
1,Barroquinha/CE,-3.0200371,-41.1339229,1598,10604.55239
D1,Barroquinha/CE,-3.0200371,-41.1339229,26,172.53965
1,Barros Cassal/RS,-29.094938,-52.5832366,1412,12644.39867
D1,Barros Cassal/RS,-29.094938,-52.5832366,15,134.32435
1,Barroso/MG,-21.187222,-43.976111,4824,22992.23107
D1,Barroso/MG,-21.187222,-43.976111,67,319.33654
1,Barueri/SP,-23.5112184,-46.8764612,38129,13631.91088
D1,Barueri/SP,-23.5112184,-46.8764612,1239,442.96828
1,Barão de Antonina/SP,-23.6295651,-49.5632104,602,17078.01418
D1,Barão de Antonina/SP,-23.6295651,-49.5632104,11,312.05674
1,Barão de Cocais/MG,-19.9452437,-43.4870298,6584,19812.22918
D1,Barão de Cocais/MG,-19.9452437,-43.4870298,84,252.76842
1,Barão de Cotegipe/RS,-27.6214694,-52.3765316,1014,15326.48126
D1,Barão de Cotegipe/RS,-27.6214694,-52.3765316,11,166.26360
1,Barão de Grajaú/MA,-6.7542591,-43.0263477,481,2528.11942
D1,Barão de Grajaú/MA,-6.7542591,-43.0263477,7,36.79176
1,Barão de Melgaço/MT,-16.195776,-55.9668049,915,11206.36865
D1,Barão de Melgaço/MT,-16.195776,-55.9668049,18,220.45315
1,Barão de Monte Alto/MG,-21.244722,-42.2375,387,7286.76332
D1,Barão de Monte Alto/MG,-21.244722,-42.2375,16,301.26153
1,Barão do Triunfo/RS,-30.3909877,-51.7375349,691,9152.31788
D1,Barão do Triunfo/RS,-30.3909877,-51.7375349,8,105.96026
1,Barão/RS,-29.372474,-51.494908,1148,18421.05263
D1,Barão/RS,-29.372474,-51.494908,14,224.64698
1,Bastos/SP,-21.9222474,-50.7317727,2212,10557.46468
D1,Bastos/SP,-21.9222474,-50.7317727,54,257.73196
1,Bataguassu/MS,-21.715899,-52.422058,4113,17413.20914
D1,Bataguassu/MS,-21.715899,-52.422058,52,220.15241
1,Batalha/AL,-9.6733809,-37.1265481,1260,6832.97180
D1,Batalha/AL,-9.6733809,-37.1265481,23,124.72885
1,Batalha/PI,-4.022391,-42.0780926,1450,5380.13432
D1,Batalha/PI,-4.022391,-42.0780926,40,148.41750
1,Batatais/SP,-20.892867,-47.592149,6658,10495.28674
D1,Batatais/SP,-20.892867,-47.592149,193,304.23406
1,Batayporã/MS,-22.2976466,-53.2685608,1714,15077.41027
D1,Batayporã/MS,-22.2976466,-53.2685608,30,263.89866
1,Baturité/CE,-4.3290203,-38.8821055,5266,14576.35563
D1,Baturité/CE,-4.3290203,-38.8821055,89,246.35314
1,Bauru/SP,-22.3218102,-49.0705863,69102,18103.46183
D1,Bauru/SP,-22.3218102,-49.0705863,1377,360.74885
1,Bayeux/PB,-7.1301631,-34.936532,10473,10739.44565
D1,Bayeux/PB,-7.1301631,-34.936532,268,274.81824
1,Baía Formosa/RN,-6.3691885,-35.0063741,661,7052.17113
D1,Baía Formosa/RN,-6.3691885,-35.0063741,10,106.68943
1,Baía da Traição/PB,-6.691258,-34.9371244,1605,17451.34283
D1,Baía da Traição/PB,-6.691258,-34.9371244,12,130.47733
1,Bebedouro/SP,-20.949077,-48.479083,4991,6430.70659
D1,Bebedouro/SP,-20.949077,-48.479083,337,434.21120
1,Beberibe/CE,-4.1810469,-38.1298101,8465,15585.01335
D1,Beberibe/CE,-4.1810469,-38.1298101,140,257.75568
1,Bela Cruz/CE,-3.0529129,-40.167582,4018,12230.98231
D1,Bela Cruz/CE,-3.0529129,-40.167582,77,234.39165
1,Bela Vista da Caroba/PR,-25.8792818,-53.6672545,646,18977.67333
D1,Bela Vista da Caroba/PR,-25.8792818,-53.6672545,8,235.01763
1,Bela Vista de Goiás/GO,-16.9692949,-48.9513071,4541,14646.49723
D1,Bela Vista de Goiás/GO,-16.9692949,-48.9513071,88,283.83434
1,Bela Vista de Minas/MG,-19.8289721,-43.0973688,1300,12659.46051
D1,Bela Vista de Minas/MG,-19.8289721,-43.0973688,25,243.45116
1,Bela Vista do Maranhão/MA,-3.7416367,-45.2514192,230,2026.96748
D1,Bela Vista do Maranhão/MA,-3.7416367,-45.2514192,20,176.25804
1,Bela Vista do Paraíso/PR,-22.9948493,-51.1907996,3152,20467.53247
D1,Bela Vista do Paraíso/PR,-22.9948493,-51.1907996,80,519.48052
1,Bela Vista do Piauí/PI,-7.9716353,-41.8715061,324,8011.86944
D1,Bela Vista do Piauí/PI,-7.9716353,-41.8715061,7,173.09594
1,Bela Vista do Toldo/SC,-26.274625,-50.466354,98,1534.60695
D1,Bela Vista do Toldo/SC,-26.274625,-50.466354,5,78.29627
1,Bela Vista/MS,-22.107327,-56.5317344,2460,9902.58433
D1,Bela Vista/MS,-22.107327,-56.5317344,41,165.04307
1,Belford Roxo/RJ,-22.7667284,-43.4033603,36712,7125.23703
D1,Belford Roxo/RJ,-22.7667284,-43.4033603,1001,194.27877
1,Belmiro Braga/MG,-21.9486291,-43.413564,640,18702.51315
D1,Belmiro Braga/MG,-21.9486291,-43.413564,4,116.89071
1,Belmonte/BA,-15.8630837,-38.8792845,1603,6809.68564
D1,Belmonte/BA,-15.8630837,-38.8792845,32,135.93883
1,Belmonte/SC,-26.8448262,-53.578916,565,20833.33333
D1,Belmonte/SC,-26.8448262,-53.578916,5,184.36578
1,Belo Campo/BA,-15.0338286,-41.2585109,1157,6800.68183
D1,Belo Campo/BA,-15.0338286,-41.2585109,21,123.43502
1,Belo Horizonte/MG,-19.9227318,-43.9450948,345673,13659.17981
D1,Belo Horizonte/MG,-19.9227318,-43.9450948,7459,294.74047
1,Belo Jardim/PE,-8.3338293,-36.4176419,7986,10380.86572
D1,Belo Jardim/PE,-8.3338293,-36.4176419,132,171.58456
1,Belo Monte/AL,-9.8269944,-37.2787165,598,8902.78398
D1,Belo Monte/AL,-9.8269944,-37.2787165,9,133.98839
1,Belo Oriente/MG,-19.2232523,-42.4807033,3301,12101.77072
D1,Belo Oriente/MG,-19.2232523,-42.4807033,77,282.28911
1,Belo Vale/MG,-20.407778,-44.024167,1637,21196.42626
D1,Belo Vale/MG,-20.407778,-44.024167,13,168.32837
1,Belterra/PA,-2.636091,-54.937392,2792,15559.51850
D1,Belterra/PA,-2.636091,-54.937392,38,211.76995
1,Belágua/MA,-3.1604031,-43.5085052,446,5879.25125
D1,Belágua/MA,-3.1604031,-43.5085052,4,52.72871
1,Belém de Maria/PE,-8.6242497,-35.8388934,506,4158.10666
D1,Belém de Maria/PE,-8.6242497,-35.8388934,8,65.74082
1,Belém do Brejo do Cruz/PB,-6.1880727,-37.5332267,816,11092.98532
D1,Belém do Brejo do Cruz/PB,-6.1880727,-37.5332267,8,108.75476
1,Belém do Piauí/PI,-7.3767305,-40.9712156,613,16994.73246
D1,Belém do Piauí/PI,-7.3767305,-40.9712156,8,221.79096
1,Belém do São Francisco/PE,-8.7517707,-38.9625715,1351,6517.12494
D1,Belém do São Francisco/PE,-8.7517707,-38.9625715,15,72.35890
1,Belém/AL,-9.5715351,-36.492841,210,4969.23805
D1,Belém/AL,-9.5715351,-36.492841,8,189.30431
1,Belém/PA,-1.45056,-48.4682453,130524,8664.51587
D1,Belém/PA,-1.45056,-48.4682453,5270,349.83604
1,Belém/PB,-6.6967586,-35.5369626,3060,17255.96346
D1,Belém/PB,-6.6967586,-35.5369626,48,270.68178
1,Beneditinos/PI,-5.4565671,-42.3605061,1436,13703.59767
D1,Beneditinos/PI,-5.4565671,-42.3605061,41,391.25871
1,Benedito Leite/MA,-7.2173453,-44.5523331,339,6007.44285
D1,Benedito Leite/MA,-7.2173453,-44.5523331,2,35.44214
1,Benedito Novo/SC,-26.7840657,-49.3629511,1485,12483.18763
D1,Benedito Novo/SC,-26.7840657,-49.3629511,22,184.93611
1,Benevides/PA,-1.3555577,-48.252235,6233,9621.79685
D1,Benevides/PA,-1.3555577,-48.252235,111,171.34918
1,Benjamin Constant do Sul/RS,-27.5105555,-52.6007689,203,10550.93555
D1,Benjamin Constant do Sul/RS,-27.5105555,-52.6007689,3,155.92516
1,Benjamin Constant/AM,-4.3782748,-70.0290603,3985,8880.61863
D1,Benjamin Constant/AM,-4.3782748,-70.0290603,88,196.10902
1,Bento Fernandes/RN,-5.6926846,-35.8207423,190,3422.19020
D1,Bento Fernandes/RN,-5.6926846,-35.8207423,3,54.03458
1,Bento Gonçalves/RS,-29.1654014,-51.5197627,34505,28032.33406
D1,Bento Gonçalves/RS,-29.1654014,-51.5197627,441,358.27443
1,Bento de Abreu/SP,-21.2707225,-50.8120444,588,19418.75826
D1,Bento de Abreu/SP,-21.2707225,-50.8120444,5,165.12550
1,Bequimão/MA,-2.4495376,-44.7884889,499,2340.85472
D1,Bequimão/MA,-2.4495376,-44.7884889,29,136.04166
1,Berilo/MG,-16.9515764,-42.4643732,387,3276.05181
D1,Berilo/MG,-16.9515764,-42.4643732,1,8.46525
1,Berizal/MG,-15.6118785,-41.7417382,331,6907.34558
D1,Berizal/MG,-15.6118785,-41.7417382,3,62.60434
1,Bernardino Batista/PB,-6.4532173,-38.5495418,434,12153.45842
D1,Bernardino Batista/PB,-6.4532173,-38.5495418,2,56.00672
1,Bernardino de Campos/SP,-23.0140216,-49.4760724,1932,17299.42693
D1,Bernardino de Campos/SP,-23.0140216,-49.4760724,38,340.25788
1,Bernardo Sayão/TO,-7.8794244,-48.8968905,947,21333.63370
D1,Bernardo Sayão/TO,-7.8794244,-48.8968905,13,292.85875
1,Bernardo do Mearim/MA,-4.6315929,-44.7617508,577,9455.91609
D1,Bernardo do Mearim/MA,-4.6315929,-44.7617508,7,114.71649
1,Bertioga/SP,-23.848568,-46.139586,7749,11713.57741
D1,Bertioga/SP,-23.848568,-46.139586,185,279.65051
1,Bertolínia/PI,-7.6372159,-43.9540611,1131,20518.86792
D1,Bertolínia/PI,-7.6372159,-43.9540611,12,217.70682
1,Bertópolis/MG,-17.063333,-40.573889,725,15730.09330
D1,Bertópolis/MG,-17.063333,-40.573889,6,130.18008
1,Beruri/AM,-3.9007135,-61.3717319,2883,14061.35687
D1,Beruri/AM,-3.9007135,-61.3717319,35,170.70673
1,Betim/MG,-19.968056,-44.198333,45635,10140.57028
D1,Betim/MG,-19.968056,-44.198333,1411,313.53883
1,Betânia do Piauí/PI,-8.1460635,-40.7961387,183,2944.96299
D1,Betânia do Piauí/PI,-8.1460635,-40.7961387,4,64.37078
1,Betânia/PE,-8.2742779,-38.0351767,552,4308.79713
D1,Betânia/PE,-8.2742779,-38.0351767,19,148.31005
1,Bezerros/PE,-8.2372132,-35.7558262,7176,11771.65354
D1,Bezerros/PE,-8.2372132,-35.7558262,129,211.61417
1,Bias Fortes/MG,-21.605833,-43.756944,119,3625.83790
D1,Bias Fortes/MG,-21.605833,-43.756944,4,121.87690
1,Bicas/MG,-21.7213723,-43.0604327,3340,22857.92499
D1,Bicas/MG,-21.7213723,-43.0604327,51,349.02820
1,Biguaçu/SC,-27.4961277,-48.6542432,15812,22437.59844
D1,Biguaçu/SC,-27.4961277,-48.6542432,181,256.84324
1,Bilac/SP,-21.403962,-50.47464,962,11736.00098
D1,Bilac/SP,-21.403962,-50.47464,23,280.59046
1,Biquinhas/MG,-18.783611,-45.502222,388,15632.55439
D1,Biquinhas/MG,-18.783611,-45.502222,4,161.16035
1,Birigui/SP,-21.2908491,-50.34144,20888,16565.41945
D1,Birigui/SP,-21.2908491,-50.34144,634,502.79950
1,Biritiba Mirim/SP,-23.5697765,-46.0407456,1575,4734.70615
D1,Biritiba Mirim/SP,-23.5697765,-46.0407456,115,345.70870
1,Biritinga/BA,-11.6227908,-38.8066738,727,4546.87598
D1,Biritinga/BA,-11.6227908,-38.8066738,9,56.28870
1,Bituruna/PR,-26.161281,-51.5533319,2501,15239.77820
D1,Bituruna/PR,-26.161281,-51.5533319,36,219.36506
1,Blumenau/SC,-26.9195567,-49.0658025,84709,23118.13284
D1,Blumenau/SC,-26.9195567,-49.0658025,766,209.05087
1,Boa Esperança do Iguaçu/PR,-25.6362851,-53.2139114,438,17972.91752
D1,Boa Esperança do Iguaçu/PR,-25.6362851,-53.2139114,1,41.03406
1,Boa Esperança do Sul/SP,-21.9930206,-48.3917372,2605,17239.09735
D1,Boa Esperança do Sul/SP,-21.9930206,-48.3917372,25,165.44239
1,Boa Esperança/ES,-18.5395472,-40.2904088,3891,25689.95114
D1,Boa Esperança/ES,-18.5395472,-40.2904088,51,336.72257
1,Boa Esperança/MG,-21.0901253,-45.5660195,7793,19333.63104
D1,Boa Esperança/MG,-21.0901253,-45.5660195,148,367.17277
1,Boa Esperança/PR,-24.2411024,-52.7860277,1297,32498.12077
D1,Boa Esperança/PR,-24.2411024,-52.7860277,20,501.12754
1,Boa Hora/PI,-4.4094627,-42.1255341,607,8863.90187
D1,Boa Hora/PI,-4.4094627,-42.1255341,7,102.21963
1,Boa Nova/BA,-14.365907,-40.2063056,1193,9909.46092
D1,Boa Nova/BA,-14.365907,-40.2063056,23,191.04577
1,Boa Ventura de São Roque/PR,-24.88177,-51.5441292,1035,16317.20006
D1,Boa Ventura de São Roque/PR,-24.88177,-51.5441292,9,141.88870
1,Boa Ventura/PB,-7.4202462,-38.2156782,923,17587.65244
D1,Boa Ventura/PB,-7.4202462,-38.2156782,12,228.65854
1,Boa Viagem/CE,-5.1261877,-39.7300055,5267,9632.40673
D1,Boa Viagem/CE,-5.1261877,-39.7300055,121,221.28749
1,Boa Vista da Aparecida/PR,-25.4357216,-53.4067721,1719,22846.88995
D1,Boa Vista da Aparecida/PR,-25.4357216,-53.4067721,38,505.05051
1,Boa Vista das Missões/RS,-27.6677983,-53.3127622,367,17585.05031
D1,Boa Vista das Missões/RS,-27.6677983,-53.3127622,7,335.40968
1,Boa Vista do Buricá/RS,-27.6687782,-54.1111913,1614,24046.48391
D1,Boa Vista do Buricá/RS,-27.6687782,-54.1111913,13,193.68296
1,Boa Vista do Cadeado/RS,-28.5783827,-53.8123759,337,13665.85564
D1,Boa Vista do Cadeado/RS,-28.5783827,-53.8123759,4,162.20600
1,Boa Vista do Gurupi/MA,-1.7981168,-46.3071882,16,188.36826
D1,Boa Vista do Gurupi/MA,-1.7981168,-46.3071882,5,58.86508
1,Boa Vista do Incra/RS,-28.8195551,-53.3866624,585,22260.27397
D1,Boa Vista do Incra/RS,-28.8195551,-53.3866624,5,190.25875
1,Boa Vista do Ramos/AM,-2.9716927,-57.5869819,1667,8318.36327
D1,Boa Vista do Ramos/AM,-2.9716927,-57.5869819,13,64.87026
1,Boa Vista do Sul/RS,-29.3510488,-51.6779679,508,18319.50956
D1,Boa Vista do Sul/RS,-29.3510488,-51.6779679,4,144.24811
1,Boa Vista do Tupim/BA,-12.6605988,-40.6083594,308,1665.67519
D1,Boa Vista do Tupim/BA,-12.6605988,-40.6083594,12,64.89644
1,Boa Vista/PB,-7.2620711,-36.2415161,1415,19603.76836
D1,Boa Vista/PB,-7.2620711,-36.2415161,16,221.66805
1,Boa Vista/RR,2.8208478,-60.6719582,118711,27190.43682
D1,Boa Vista/RR,2.8208478,-60.6719582,1614,369.68238
1,Boca da Mata/AL,-9.6452054,-36.2116658,2534,9238.39732
D1,Boca da Mata/AL,-9.6452054,-36.2116658,49,178.64304
1,Boca do Acre/AM,-8.7553487,-67.3930873,4175,11942.90291
D1,Boca do Acre/AM,-8.7553487,-67.3930873,32,91.53842
1,Bocaina de Minas/MG,-22.167778,-44.394722,421,8274.37107
D1,Bocaina de Minas/MG,-22.167778,-44.394722,7,137.57862
1,Bocaina do Sul/SC,-27.745494,-49.942279,762,21765.20994
D1,Bocaina do Sul/SC,-27.745494,-49.942279,5,142.81634
1,Bocaina/PI,-6.9445939,-41.3224599,451,10002.21779
D1,Bocaina/PI,-6.9445939,-41.3224599,11,243.95653
1,Bocaina/SP,-22.1421831,-48.522276,2232,17755.15074
D1,Bocaina/SP,-22.1421831,-48.522276,37,294.32822
1,Bocaiúva do Sul/PR,-25.206591,-49.114131,2954,22197.17463
D1,Bocaiúva do Sul/PR,-25.206591,-49.114131,29,217.91404
1,Bocaiúva/MG,-17.1160208,-43.8122678,4336,8582.56962
D1,Bocaiúva/MG,-17.1160208,-43.8122678,73,144.49437
1,Bodocó/PE,-7.777592,-39.933797,2257,5846.39295
D1,Bodocó/PE,-7.777592,-39.933797,44,113.97487
1,Bodoquena/MS,-20.5508775,-56.6769653,628,8049.21815
D1,Bodoquena/MS,-20.5508775,-56.6769653,22,281.97898
1,Bodó/RN,-5.9866104,-36.4134824,440,20267.15799
D1,Bodó/RN,-5.9866104,-36.4134824,1,46.06172
1,Bofete/SP,-23.1019554,-48.2610535,1754,14487.48658
D1,Bofete/SP,-23.1019554,-48.2610535,26,214.75180
1,Boituva/SP,-23.2838893,-47.6738231,7004,11063.02322
D1,Boituva/SP,-23.2838893,-47.6738231,208,328.54209
1,Bom Conselho/PE,-9.169191,-36.685683,3408,6958.65237
D1,Bom Conselho/PE,-9.169191,-36.685683,82,167.43236
1,Bom Despacho/MG,-19.7375242,-45.2517288,10627,20660.62680
D1,Bom Despacho/MG,-19.7375242,-45.2517288,120,233.29963
1,Bom Jardim da Serra/SC,-28.3380324,-49.625588,977,20349.92710
D1,Bom Jardim da Serra/SC,-28.3380324,-49.625588,8,166.63195
1,Bom Jardim de Goiás/GO,-16.2062659,-52.172793,1839,20635.09874
D1,Bom Jardim de Goiás/GO,-16.2062659,-52.172793,30,336.62478
1,Bom Jardim de Minas/MG,-21.9476466,-44.1906033,1065,16527.00186
D1,Bom Jardim de Minas/MG,-21.9476466,-44.1906033,5,77.59156
1,Bom Jardim/MA,-3.54129,-45.606004,1994,4746.48893
D1,Bom Jardim/MA,-3.54129,-45.606004,58,138.06237
1,Bom Jardim/PE,-7.7961572,-35.5871696,2220,5544.73250
D1,Bom Jardim/PE,-7.7961572,-35.5871696,73,182.32679
1,Bom Jardim/RJ,-22.1515328,-42.4186683,3897,14028.58274
D1,Bom Jardim/RJ,-22.1515328,-42.4186683,59,212.39065
1,Bom Jesus da Lapa/BA,-13.250571,-43.410754,7257,10344.82759
D1,Bom Jesus da Lapa/BA,-13.250571,-43.410754,105,149.67713
1,Bom Jesus da Penha/MG,-21.0165299,-46.5226644,1091,25550.35129
D1,Bom Jesus da Penha/MG,-21.0165299,-46.5226644,20,468.38407
1,Bom Jesus da Serra/BA,-14.3724084,-40.5047119,595,6091.31859
D1,Bom Jesus da Serra/BA,-14.3724084,-40.5047119,12,122.85012
1,Bom Jesus das Selvas/MA,-4.4878075,-46.8526639,4420,12594.38666
D1,Bom Jesus das Selvas/MA,-4.4878075,-46.8526639,48,136.77162
1,Bom Jesus de Goiás/GO,-18.2174587,-49.739721,4738,18174.84368
D1,Bom Jesus de Goiás/GO,-18.2174587,-49.739721,120,460.31685
1,Bom Jesus do Amparo/MG,-19.7045132,-43.4752911,482,7796.82951
D1,Bom Jesus do Amparo/MG,-19.7045132,-43.4752911,8,129.40796
1,Bom Jesus do Araguaia/MT,-12.1725897,-51.5074425,1130,16544.65593
D1,Bom Jesus do Araguaia/MT,-12.1725897,-51.5074425,17,248.90190
1,Bom Jesus do Galho/MG,-19.8283191,-42.3162256,1007,6807.73391
D1,Bom Jesus do Galho/MG,-19.8283191,-42.3162256,39,263.65603
1,Bom Jesus do Itabapoana/RJ,-21.1341025,-41.680095,7302,19573.25899
D1,Bom Jesus do Itabapoana/RJ,-21.1341025,-41.680095,118,316.30301
1,Bom Jesus do Norte/ES,-21.1254776,-41.6711646,2223,22256.70805
D1,Bom Jesus do Norte/ES,-21.1254776,-41.6711646,31,310.37245
1,Bom Jesus do Oeste/SC,-26.6929713,-53.0967453,359,16807.11610
D1,Bom Jesus do Oeste/SC,-26.6929713,-53.0967453,6,280.89888
1,Bom Jesus do Sul/PR,-26.1922507,-53.6002033,1197,34475.80645
D1,Bom Jesus do Sul/PR,-26.1922507,-53.6002033,6,172.81106
1,Bom Jesus do Tocantins/PA,-5.0471796,-48.5978362,1216,7047.64113
D1,Bom Jesus do Tocantins/PA,-5.0471796,-48.5978362,29,168.07697
1,Bom Jesus do Tocantins/TO,-8.96306,-48.165043,187,3652.34375
D1,Bom Jesus do Tocantins/TO,-8.96306,-48.165043,3,58.59375
1,Bom Jesus dos Perdões/SP,-23.1353864,-46.4648052,2498,9424.28129
D1,Bom Jesus dos Perdões/SP,-23.1353864,-46.4648052,32,120.72738
1,Bom Jesus/PB,-6.8156725,-38.6551841,359,13871.71561
D1,Bom Jesus/PB,-6.8156725,-38.6551841,3,115.91963
1,Bom Jesus/PI,-9.0711644,-44.3583926,3840,15009.38086
D1,Bom Jesus/PI,-9.0711644,-44.3583926,51,199.34334
1,Bom Jesus/RN,-5.9887544,-35.5821149,1318,12767.60632
D1,Bom Jesus/RN,-5.9887544,-35.5821149,20,193.74213
1,Bom Jesus/RS,-28.6692723,-50.4346894,1661,14738.24312
D1,Bom Jesus/RS,-28.6692723,-50.4346894,25,221.82786
1,Bom Jesus/SC,-26.7350604,-52.3916519,763,24581.18557
D1,Bom Jesus/SC,-26.7350604,-52.3916519,11,354.38144
1,Bom Lugar/MA,-4.3728019,-45.0366054,656,3957.05151
D1,Bom Lugar/MA,-4.3728019,-45.0366054,7,42.22464
1,Bom Princípio do Piauí/PI,-3.1912777,-41.6430185,240,4232.80423
D1,Bom Princípio do Piauí/PI,-3.1912777,-41.6430185,13,229.27690
1,Bom Princípio/RS,-29.489788,-51.3566782,3383,23418.24727
D1,Bom Princípio/RS,-29.489788,-51.3566782,34,235.35927
1,Bom Progresso/RS,-27.5490948,-53.8655601,306,16469.32185
D1,Bom Progresso/RS,-27.5490948,-53.8655601,3,161.46394
1,Bom Repouso/MG,-22.4657069,-46.1485376,1925,18286.31139
D1,Bom Repouso/MG,-22.4657069,-46.1485376,33,313.47962
1,Bom Retiro do Sul/RS,-29.6000007,-51.9359243,1991,15994.53728
D1,Bom Retiro do Sul/RS,-29.6000007,-51.9359243,39,313.30334
1,Bom Retiro/SC,-27.798993,-49.486994,1223,12045.70078
D1,Bom Retiro/SC,-27.798993,-49.486994,22,216.68472
1,Bom Sucesso de Itararé/SP,-24.3190016,-49.1446207,261,6503.86245
D1,Bom Sucesso de Itararé/SP,-24.3190016,-49.1446207,7,174.43309
1,Bom Sucesso do Sul/PR,-26.0749256,-52.8348629,844,26017.26264
D1,Bom Sucesso do Sul/PR,-26.0749256,-52.8348629,10,308.26141
1,Bom Sucesso/MG,-21.0323516,-44.7598082,1955,11100.38610
D1,Bom Sucesso/MG,-21.0323516,-44.7598082,30,170.33841
1,Bom Sucesso/PB,-6.4458948,-37.9297662,664,13449.46324
D1,Bom Sucesso/PB,-6.4458948,-37.9297662,5,101.27608
1,Bom Sucesso/PR,-23.7088019,-51.7651297,2222,31282.55667
D1,Bom Sucesso/PR,-23.7088019,-51.7651297,22,309.72828
1,Bombinhas/SC,-27.1519159,-48.4875691,4415,21135.52587
D1,Bombinhas/SC,-27.1519159,-48.4875691,73,349.46623
1,Bonfim do Piauí/PI,-9.1648678,-42.8734415,518,9087.71930
D1,Bonfim do Piauí/PI,-9.1648678,-42.8734415,8,140.35088
1,Bonfim/MG,-20.3266626, -44.2386157,823,12011.09165
D1,Bonfim/MG,-20.3266626, -44.2386157,19,277.29130
1,Bonfim/RR,3.3613818,-59.8427241,2867,22573.02575
D1,Bonfim/RR,3.3613818,-59.8427241,36,283.44225
1,Bonfinópolis de Minas/MG,-16.5660011,-45.98645,923,17102.09376
D1,Bonfinópolis de Minas/MG,-16.5660011,-45.98645,14,259.40337
1,Bonfinópolis/GO,-16.6172709,-48.9615701,567,5602.76680
D1,Bonfinópolis/GO,-16.6172709,-48.9615701,36,355.73123
1,Boninal/BA,-12.7095183,-41.8299984,900,6199.20099
D1,Boninal/BA,-12.7095183,-41.8299984,9,61.99201
1,Bonito de Minas/MG,-15.3191266,-44.7544,379,3295.07912
D1,Bonito de Minas/MG,-15.3191266,-44.7544,3,26.08242
1,Bonito de Santa Fé/PB,-7.3143332,-38.5146677,810,6679.86145
D1,Bonito de Santa Fé/PB,-7.3143332,-38.5146677,14,115.45440
1,Bonito/BA,-11.9665473,-41.2649896,1348,7929.87823
D1,Bonito/BA,-11.9665473,-41.2649896,14,82.35779
1,Bonito/MS,-21.1264766,-56.4902208,4731,21119.59288
D1,Bonito/MS,-21.1264766,-56.4902208,80,357.12691
1,Bonito/PA,-1.3605722,-47.3049907,514,3065.17980
D1,Bonito/PA,-1.3605722,-47.3049907,16,95.41416
1,Bonito/PE,-8.4721161,-35.7314591,2261,5934.22745
D1,Bonito/PE,-8.4721161,-35.7314591,46,120.73174
1,Bonópolis/GO,-13.649331,-49.8329113,655,14304.43328
D1,Bonópolis/GO,-13.649331,-49.8329113,3,65.51649
1,Boqueirão do Leão/RS,-29.30332,-52.4296817,706,9179.56053
D1,Boqueirão do Leão/RS,-29.30332,-52.4296817,35,455.07736
1,Boqueirão do Piauí/PI,-4.4850148,-42.1095161,883,13704.79590
D1,Boqueirão do Piauí/PI,-4.4850148,-42.1095161,14,217.29008
1,Boqueirão/PB,-7.487004,-36.130887,2451,13666.77819
D1,Boqueirão/PB,-7.487004,-36.130887,49,273.22404
1,Boquim/SE,-11.1450175,-37.6204228,3528,13076.35285
D1,Boquim/SE,-11.1450175,-37.6204228,75,277.98369
1,Boquira/BA,-12.8184859,-42.7270883,1043,4854.32375
D1,Boquira/BA,-12.8184859,-42.7270883,24,111.70064
1,Boracéia/SP,-22.195355,-48.7801925,1028,20924.07897
D1,Boracéia/SP,-22.195355,-48.7801925,26,529.20822
1,Borba/AM,-4.3934778,-59.5947721,3539,8360.89586
D1,Borba/AM,-4.3934778,-59.5947721,71,167.73767
1,Borborema/PB,-6.8066718,-35.5990191,476,8962.53060
D1,Borborema/PB,-6.8066718,-35.5990191,14,263.60384
1,Borborema/SP,-21.6212706,-49.074135,2731,16777.24536
D1,Borborema/SP,-21.6212706,-49.074135,58,356.30913
1,Borda da Mata/MG,-22.274167,-46.165278,4265,21530.61740
D1,Borda da Mata/MG,-22.274167,-46.165278,61,307.94083
1,Borebi/SP,-22.5700178,-48.9714871,298,10984.15039
D1,Borebi/SP,-22.5700178,-48.9714871,4,147.43826
1,Borrazópolis/PR,-23.9393362,-51.5850786,1624,25818.75994
D1,Borrazópolis/PR,-23.9393362,-51.5850786,36,572.33704
1,Borá/SP,-22.2701088,-50.544407,161,19189.51132
D1,Borá/SP,-22.2701088,-50.544407,1,119.18951
1,Bossoroca/RS,-28.7278885,-54.9120278,591,9633.25183
D1,Bossoroca/RS,-28.7278885,-54.9120278,22,358.59821
1,Botelhos/MG,-21.65,-46.394722,3210,21504.65599
D1,Botelhos/MG,-21.65,-46.394722,35,234.47444
1,Botucatu/SP,-22.8879628,-48.4410712,34975,23360.58457
D1,Botucatu/SP,-22.8879628,-48.4410712,359,239.78413
1,Botumirim/MG,-16.862778,-43.011111,605,9666.08084
D1,Botumirim/MG,-16.862778,-43.011111,4,63.90797
1,Botuporã/BA,-13.3744752,-42.5198469,688,6845.77114
D1,Botuporã/BA,-13.3744752,-42.5198469,8,79.60199
1,Botuverá/SC,-27.200749,-49.068892,1480,27427.72424
D1,Botuverá/SC,-27.200749,-49.068892,12,222.38695
1,Bozano/RS,-28.3669953,-53.7705165,494,23535.01667
D1,Bozano/RS,-28.3669953,-53.7705165,8,381.13387
1,Braga/RS,-27.617348,-53.740514,668,20421.88933
D1,Braga/RS,-27.617348,-53.740514,10,305.71691
1,Braganey/PR,-24.8179919,-53.118506,1187,22236.79281
D1,Braganey/PR,-24.8179919,-53.118506,12,224.80330
1,Bragança Paulista/SP,-22.9520235,-46.5418586,25588,14846.87779
D1,Bragança Paulista/SP,-22.9520235,-46.5418586,622,360.90191
1,Bragança/PA,-1.0573967,-46.7635406,6900,5302.71591
D1,Bragança/PA,-1.0573967,-46.7635406,179,137.56321
1,Branquinha/AL,-9.2478057,-36.0152009,1090,10454.63265
D1,Branquinha/AL,-9.2478057,-36.0152009,16,153.46250
1,Brasil Novo/PA,-3.3055853,-52.539198,4086,27454.14231
D1,Brasil Novo/PA,-3.3055853,-52.539198,44,295.63932
1,Brasileira/PI,-4.131182,-41.7824969,739,8835.48541
D1,Brasileira/PI,-4.131182,-41.7824969,20,239.12004
1,Brasilândia de Minas/MG,-17.0096469,-46.0087183,2719,16041.29794
D1,Brasilândia de Minas/MG,-17.0096469,-46.0087183,28,165.19174
1,Brasilândia do Sul/PR,-24.1975793,-53.527551,821,32566.44189
D1,Brasilândia do Sul/PR,-24.1975793,-53.527551,13,515.66839
1,Brasilândia do Tocantins/TO,-8.3886619,-48.4842729,258,11616.38901
D1,Brasilândia do Tocantins/TO,-8.3886619,-48.4842729,6,270.14858
1,Brasilândia/MS,-21.255575,-52.0365617,1747,14761.30123
D1,Brasilândia/MS,-21.255575,-52.0365617,27,228.13688
1,Brasiléia/AC,-11.0010413,-68.7487894,3573,13173.32154
D1,Brasiléia/AC,-11.0010413,-68.7487894,46,169.59776
1,Brasnorte/MT,-12.1227151,-58.0050109,3093,15035.72991
D1,Brasnorte/MT,-12.1227151,-58.0050109,44,213.89335
1,Brasília de Minas/MG,-16.2075114,-44.430559,2164,6666.66667
D1,Brasília de Minas/MG,-16.2075114,-44.430559,10,30.80715
1,Brasília/DF,-15.7934036,-47.8823172,686162,22174.85235
D1,Brasília/DF,-15.7934036,-47.8823172,11477,370.90480
1,Brazabrantes/GO,-16.4291635,-49.3858216,762,19989.50682
D1,Brazabrantes/GO,-16.4291635,-49.3858216,8,209.86359
1,Brazópolis/MG,-22.4742842,-45.6165577,1683,11716.79198
D1,Brazópolis/MG,-22.4742842,-45.6165577,36,250.62657
1,Braço do Norte/SC,-28.2728633,-49.1622712,12247,35711.78632
D1,Braço do Norte/SC,-28.2728633,-49.1622712,118,344.08351
1,Braço do Trombudo/SC,-27.358578,-49.882145,1232,32472.32472
D1,Braço do Trombudo/SC,-27.358578,-49.882145,7,184.50185
1,Braúna/SP,-21.5015319,-50.3175246,631,10888.69715
D1,Braúna/SP,-21.5015319,-50.3175246,26,448.66264
1,Braúnas/MG,-19.055556,-42.716111,341,7198.64893
D1,Braúnas/MG,-19.055556,-42.716111,11,232.21448
1,Brejetuba/ES,-20.1465817,-41.2902303,2875,23092.36948
D1,Brejetuba/ES,-20.1465817,-41.2902303,20,160.64257
1,Brejinho de Nazaré/TO,-11.0205883,-48.5722906,1103,19909.74729
D1,Brejinho de Nazaré/TO,-11.0205883,-48.5722906,19,342.96029
1,Brejinho/PE,-7.3482153,-37.28538,971,12965.68300
D1,Brejinho/PE,-7.3482153,-37.28538,22,293.76419
1,Brejinho/RN,-6.1957907,-35.3583019,1716,13330.22605
D1,Brejinho/RN,-6.1957907,-35.3583019,20,155.36394
1,Brejo Alegre/SP,-21.1671191,-50.1850393,626,21504.63758
D1,Brejo Alegre/SP,-21.1671191,-50.1850393,13,446.58193
1,Brejo Grande do Araguaia/PA,-5.7011449,-48.4037308,1128,15332.33655
D1,Brejo Grande do Araguaia/PA,-5.7011449,-48.4037308,6,81.55498
1,Brejo Grande/SE,-10.4287358,-36.4667918,600,7146.26012
D1,Brejo Grande/SE,-10.4287358,-36.4667918,13,154.83564
1,Brejo Santo/CE,-7.4909841,-38.9859152,9815,19553.74041
D1,Brejo Santo/CE,-7.4909841,-38.9859152,159,316.76462
1,Brejo da Madre de Deus/PE,-8.1409718,-36.3712527,2926,5660.01238
D1,Brejo da Madre de Deus/PE,-8.1409718,-36.3712527,59,114.12875
1,Brejo de Areia/MA,-4.3316785,-45.5833334,412,4660.10632
D1,Brejo de Areia/MA,-4.3316785,-45.5833334,11,124.42031
1,Brejo do Cruz/PB,-6.32926065,-37.48746163303929,2062,14432.70106
D1,Brejo do Cruz/PB,-6.32926065,-37.48746163303929,25,174.98425
1,Brejo do Piauí/PI,-8.207583,-42.8359849,160,4184.10042
D1,Brejo do Piauí/PI,-8.207583,-42.8359849,5,130.75314
1,Brejo dos Santos/PB,-6.3769367,-37.8243125,1328,20496.99028
D1,Brejo dos Santos/PB,-6.3769367,-37.8243125,8,123.47585
1,Brejo/MA,-3.6804397,-42.7529313,1076,2915.98916
D1,Brejo/MA,-3.6804397,-42.7529313,19,51.49051
1,Brejolândia/BA,-12.4843845,-43.9611861,218,2042.15457
D1,Brejolândia/BA,-12.4843845,-43.9611861,12,112.41218
1,Brejão/PE,-9.029146,-36.566034,569,6335.59737
D1,Brejão/PE,-9.029146,-36.566034,9,100.21156
1,Brejões/BA,-13.1033754,-39.7909837,1041,7354.29177
D1,Brejões/BA,-13.1033754,-39.7909837,14,98.90498
1,Breu Branco/PA,-3.7785073,-49.5684795,1373,2001.54526
D1,Breu Branco/PA,-3.7785073,-49.5684795,71,103.50307
1,Breves/PA,-1.68036,-50.479085,4798,4601.07403
D1,Breves/PA,-1.68036,-50.479085,125,119.86958
1,Britânia/GO,-15.2427599,-51.1602061,805,13843.50817
D1,Britânia/GO,-15.2427599,-51.1602061,9,154.77214
1,Brochier/RS,-29.556766,-51.5963047,1034,20148.09041
D1,Brochier/RS,-29.556766,-51.5963047,7,136.39906
1,Brodowski/SP,-20.984532,-47.657217,3333,13016.98887
D1,Brodowski/SP,-20.984532,-47.657217,83,324.15544
1,Brotas de Macaúbas/BA,-12.0019007,-42.6257506,464,4334.42317
D1,Brotas de Macaúbas/BA,-12.0019007,-42.6257506,9,84.07286
1,Brotas/SP,-22.2840884,-48.1267265,3092,12436.65031
D1,Brotas/SP,-22.2840884,-48.1267265,75,301.66519
1,Brumadinho/MG,-20.143611,-44.2,6473,15708.11493
D1,Brumadinho/MG,-20.143611,-44.2,104,252.37818
1,Brumado/BA,-14.29507325,-41.659307508575985,11125,16489.29863
D1,Brumado/BA,-14.29507325,-41.659307508575985,203,300.88338
1,Brunópolis/SC,-27.310953,-50.837585,629,27135.46160
D1,Brunópolis/SC,-27.310953,-50.837585,9,388.26575
1,Brusque/SC,-27.0964628,-48.9136323,35477,25233.11308
D1,Brusque/SC,-27.0964628,-48.9136323,349,248.22720
1,Brás Pires/MG,-20.8483109,-43.2430524,612,14383.07873
D1,Brás Pires/MG,-20.8483109,-43.2430524,10,235.01763
1,Bueno Brandão/MG,-22.441976,-46.3517971,1604,14605.71845
D1,Bueno Brandão/MG,-22.441976,-46.3517971,33,300.49171
1,Buenos Aires/PE,-7.7218931,-35.326587,667,5043.85965
D1,Buenos Aires/PE,-7.7218931,-35.326587,25,189.05021
1,Buenópolis/MG,-17.8756607,-44.1749365,790,7638.75459
D1,Buenópolis/MG,-17.8756607,-44.1749365,19,183.71688
1,Buerarema/BA,-14.9571177,-39.3008035,1569,8588.31901
D1,Buerarema/BA,-14.9571177,-39.3008035,50,273.68767
1,Bugre/MG,-19.4257687,-42.2556,378,9487.95181
D1,Bugre/MG,-19.4257687,-42.2556,13,326.30522
1,Bujari/AC,-9.8309656,-67.9520886,1591,15049.18653
D1,Bujari/AC,-9.8309656,-67.9520886,17,160.80212
1,Bujaru/PA,-1.5169239,-48.0410699,1870,6292.69442
D1,Bujaru/PA,-1.5169239,-48.0410699,43,144.69832
1,Buri/SP,-23.79849,-48.598924,3239,16154.61347
D1,Buri/SP,-23.79849,-48.598924,101,503.74065
1,Buritama/SP,-21.0664017,-50.1448077,4617,26513.15034
D1,Buritama/SP,-21.0664017,-50.1448077,87,499.59802
1,Buriti Alegre/GO,-18.1377879,-49.0404411,1513,15901.20862
D1,Buriti Alegre/GO,-18.1377879,-49.0404411,37,388.85970
1,Buriti Bravo/MA,-5.8391884,-43.8367876,1996,8319.09307
D1,Buriti Bravo/MA,-5.8391884,-43.8367876,21,87.52553
1,Buriti de Goiás/GO,-16.180644,-50.4287479,584,23701.29870
D1,Buriti de Goiás/GO,-16.180644,-50.4287479,9,365.25974
1,Buriti do Tocantins/TO,-5.3187439,-48.2256609,1632,14015.80213
D1,Buriti do Tocantins/TO,-5.3187439,-48.2256609,26,223.29097
1,Buriti dos Lopes/PI,-3.1776723,-41.8707444,1492,7523.19484
D1,Buriti dos Lopes/PI,-3.1776723,-41.8707444,37,186.56716
1,Buriti dos Montes/PI,-5.3136171,-41.0971256,722,8717.70104
D1,Buriti dos Montes/PI,-5.3136171,-41.0971256,10,120.74378
1,Buriti/MA,-3.9430944,-42.9244281,1097,3793.74741
D1,Buriti/MA,-3.9430944,-42.9244281,9,31.12464
1,Buriticupu/MA,-4.3227472,-46.4516989,4547,6178.40886
D1,Buriticupu/MA,-4.3227472,-46.4516989,87,118.21455
1,Buritinópolis/GO,-14.4589282,-46.4293104,444,13569.68215
D1,Buritinópolis/GO,-14.4589282,-46.4293104,3,91.68704
1,Buritirama/BA,-10.7148421,-43.6362327,1298,6072.79873
D1,Buritirama/BA,-10.7148421,-43.6362327,25,116.96454
1,Buritirana/MA,-5.5897455,-47.0148915,451,2909.11436
D1,Buritirana/MA,-5.5897455,-47.0148915,28,180.61020
1,Buritis/MG,-15.621389,-46.423889,4568,18142.10255
D1,Buritis/MG,-15.621389,-46.423889,55,218.43600
1,Buritis/RO,-10.2054937,-63.8281954,10280,25046.90203
D1,Buritis/RO,-10.2054937,-63.8281954,97,236.33750
1,Buritizal/SP,-20.1933264,-47.7097165,358,7873.32307
D1,Buritizal/SP,-20.1933264,-47.7097165,10,219.92523
1,Buritizeiro/MG,-17.3667765,-44.9647781,2683,9519.58558
D1,Buritizeiro/MG,-17.3667765,-44.9647781,43,152.56883
1,Butiá/RS,-30.1256795,-51.9692224,2860,13643.08544
D1,Butiá/RS,-30.1256795,-51.9692224,61,290.98889
1,Buíque/PE,-8.6239732,-37.157296,2665,4482.90943
D1,Buíque/PE,-8.6239732,-37.157296,49,82.42498
1,Bálsamo/SP,-20.7343722,-49.5807484,2295,24921.27267
D1,Bálsamo/SP,-20.7343722,-49.5807484,71,770.98491
0,CASO SEM LOCALIZAÇÃO DEFINIDA/BA,-13.415069300066518,-38.14174656569957,16660,112.01458
D0,CASO SEM LOCALIZAÇÃO DEFINIDA/BA,-13.415069300066518,-38.14174656569957,344,2.31291
0,CASO SEM LOCALIZAÇÃO DEFINIDA/CE,-3.3445126297392798,-38.624961942434304,16464,180.28755
0,CASO SEM LOCALIZAÇÃO DEFINIDA/ES,-20.30989267097039,-39.81745156645774,8494,211.36451
D0,CASO SEM LOCALIZAÇÃO DEFINIDA/ES,-20.30989267097039,-39.81745156645774,269,6.69379
0,CASO SEM LOCALIZAÇÃO DEFINIDA/MG,-19.97049116501593,-43.8852149072783,4266,20.15231
D0,CASO SEM LOCALIZAÇÃO DEFINIDA/MG,-19.97049116501593,-43.8852149072783,405,1.91319
0,CASO SEM LOCALIZAÇÃO DEFINIDA/MT,-15.54791153961863,-56.17143998972475,4763,136.69239
D0,CASO SEM LOCALIZAÇÃO DEFINIDA/MT,-15.54791153961863,-56.17143998972475,267,7.66258
0,CASO SEM LOCALIZAÇÃO DEFINIDA/PR,-25.69415946385943,-48.10141676336737,10640,93.05615
D0,CASO SEM LOCALIZAÇÃO DEFINIDA/PR,-25.69415946385943,-48.10141676336737,230,2.01155
0,CASO SEM LOCALIZAÇÃO DEFINIDA/RR,2.813328208465927,-60.663338675861986,3546,585.37938
D0,CASO SEM LOCALIZAÇÃO DEFINIDA/RR,2.813328208465927,-60.663338675861986,23,3.79688
0,CASO SEM LOCALIZAÇÃO DEFINIDA/SP,-24.30968974555485,-46.21366504207253,128,0.27875
1,Caapiranga/AM,-3.3188884,-61.2096404,994,7372.79335
D1,Caapiranga/AM,-3.3188884,-61.2096404,23,170.59783
1,Caaporã/PB,-7.510234,-34.9154114,2726,12346.57367
D1,Caaporã/PB,-7.510234,-34.9154114,39,176.63843
1,Caarapó/MS,-22.6349267,-54.8240903,5523,17813.25593
D1,Caarapó/MS,-22.6349267,-54.8240903,60,193.51717
1,Caatiba/BA,-14.9782759,-40.4092325,999,16030.16688
D1,Caatiba/BA,-14.9782759,-40.4092325,16,256.73941
1,Cabaceiras do Paraguaçu/BA,-12.5377868,-39.1901339,1340,7048.92162
D1,Cabaceiras do Paraguaçu/BA,-12.5377868,-39.1901339,7,36.82272
1,Cabaceiras/PB,-7.4899156,-36.2860501,562,9842.38179
D1,Cabaceiras/PB,-7.4899156,-36.2860501,5,87.56567
1,Cabeceira Grande/MG,-16.0297,-47.0906,876,12469.75089
D1,Cabeceira Grande/MG,-16.0297,-47.0906,7,99.64413
1,Cabeceiras do Piauí/PI,-4.4733665,-42.3098716,758,7103.36426
D1,Cabeceiras do Piauí/PI,-4.4733665,-42.3098716,17,159.31028
1,Cabeceiras/GO,-15.7995459,-46.9264991,970,11978.26624
D1,Cabeceiras/GO,-15.7995459,-46.9264991,18,222.27711
1,Cabedelo/PB,-6.97324,-34.8351609,12623,18091.52538
D1,Cabedelo/PB,-6.97324,-34.8351609,217,311.00856
1,Cabixi/RO,-13.4956065,-60.5424442,1670,32958.35800
D1,Cabixi/RO,-13.4956065,-60.5424442,22,434.18196
1,Cabo Frio/RJ,-22.8804369,-42.0189227,25132,10736.63794
D1,Cabo Frio/RJ,-22.8804369,-42.0189227,969,413.96634
1,Cabo Verde/MG,-21.4743338,-46.3964995,1804,12817.96220
D1,Cabo Verde/MG,-21.4743338,-46.3964995,12,85.26361
1,Cabo de Santo Agostinho/PE,-8.2838945,-35.0320984,11257,5340.23416
D1,Cabo de Santo Agostinho/PE,-8.2838945,-35.0320984,550,260.91577
1,Cabreúva/SP,-23.3075813,-47.1324417,6017,11768.04225
D1,Cabreúva/SP,-23.3075813,-47.1324417,149,291.41404
1,Cabrobó/PE,-8.5083701,-39.3106961,4477,12873.08068
D1,Cabrobó/PE,-8.5083701,-39.3106961,34,97.76295
1,Cabrália Paulista/SP,-22.4562909,-49.3385645,798,18900.99479
D1,Cabrália Paulista/SP,-22.4562909,-49.3385645,9,213.16911
1,Cacaulândia/RO,-10.3380043,-62.9007231,1636,25939.43238
D1,Cacaulândia/RO,-10.3380043,-62.9007231,17,269.54178
1,Cacequi/RS,-29.8838059,-54.8273443,1277,10389.71605
D1,Cacequi/RS,-29.8838059,-54.8273443,15,122.04052
1,Cachoeira Alta/GO,-18.7618269,-50.9432431,2951,22977.49747
D1,Cachoeira Alta/GO,-18.7618269,-50.9432431,33,256.94931
1,Cachoeira Dourada/GO,-18.4934204,-49.481062,1046,13079.90496
D1,Cachoeira Dourada/GO,-18.4934204,-49.481062,33,412.65475
1,Cachoeira Dourada/MG,-18.517136,-49.5002062,563,20698.52941
D1,Cachoeira Dourada/MG,-18.517136,-49.5002062,2,73.52941
1,Cachoeira Grande/MA,-2.9290492,-44.0573223,446,4682.90634
D1,Cachoeira Grande/MA,-2.9290492,-44.0573223,8,83.99832
1,Cachoeira Paulista/SP,-22.666498,-45.015384,3561,10527.09374
D1,Cachoeira Paulista/SP,-22.666498,-45.015384,51,150.76714
1,Cachoeira da Prata/MG,-19.524723,-44.453056,226,6312.84916
D1,Cachoeira da Prata/MG,-19.524723,-44.453056,15,418.99441
1,Cachoeira de Goiás/GO,-16.6688414,-50.6435997,340,25449.10180
D1,Cachoeira de Goiás/GO,-16.6688414,-50.6435997,6,449.10180
1,Cachoeira de Minas/MG,-22.3554043,-45.7796324,1912,16469.98019
D1,Cachoeira de Minas/MG,-22.3554043,-45.7796324,21,180.89413
1,Cachoeira de Pajeú/MG,-15.965833,-41.496666,662,6990.49630
D1,Cachoeira de Pajeú/MG,-15.965833,-41.496666,11,116.15628
1,Cachoeira do Arari/PA,-1.0143572,-48.9621089,621,2549.78444
D1,Cachoeira do Arari/PA,-1.0143572,-48.9621089,25,102.64833
1,Cachoeira do Piriá/PA,-1.7599443,-46.5446954,1546,4378.73510
D1,Cachoeira do Piriá/PA,-1.7599443,-46.5446954,11,31.15529
1,Cachoeira do Sul/RS,-30.0474778,-52.8905413,16132,19781.24387
D1,Cachoeira do Sul/RS,-30.0474778,-52.8905413,222,272.21895
1,Cachoeira dos Índios/PB,-6.9259193,-38.6742159,1407,13575.83944
D1,Cachoeira dos Índios/PB,-6.9259193,-38.6742159,24,231.57082
1,Cachoeira/BA,-12.5998256,-38.9665918,2114,6280.63817
D1,Cachoeira/BA,-12.5998256,-38.9665918,33,98.04213
1,Cachoeiras de Macacu/RJ,-22.4626861,-42.6534414,3731,6254.61007
D1,Cachoeiras de Macacu/RJ,-22.4626861,-42.6534414,118,197.81399
1,Cachoeirinha/PE,-8.4906364,-36.2338963,970,4704.62702
D1,Cachoeirinha/PE,-8.4906364,-36.2338963,35,169.75458
1,Cachoeirinha/RS,-29.9493353,-51.0898927,18986,14367.65952
D1,Cachoeirinha/RS,-29.9493353,-51.0898927,523,395.78036
1,Cachoeirinha/TO,-6.118647,-47.9208885,131,5713.03969
D1,Cachoeirinha/TO,-6.118647,-47.9208885,2,87.22198
1,Cachoeiro de Itapemirim/ES,-20.848084,-41.11129,48651,22929.98134
D1,Cachoeiro de Itapemirim/ES,-20.848084,-41.11129,705,332.27759
1,Cacimba de Areia/PB,-7.1288513,-37.1575194,324,8737.86408
D1,Cacimba de Areia/PB,-7.1288513,-37.1575194,5,134.84358
1,Cacimba de Dentro/PB,-6.6425101,-35.7929304,1475,8591.06529
D1,Cacimba de Dentro/PB,-6.6425101,-35.7929304,39,227.15359
1,Cacimbas/PB,-7.2125451,-37.0593398,448,6200.69204
D1,Cacimbas/PB,-7.2125451,-37.0593398,9,124.56747
1,Cacimbinhas/AL,-9.401212,-36.991082,1015,9294.87179
D1,Cacimbinhas/AL,-9.401212,-36.991082,12,109.89011
1,Cacique Doble/RS,-27.7700117,-51.6616409,1035,20361.99095
D1,Cacique Doble/RS,-27.7700117,-51.6616409,14,275.42790
1,Cacoal/RO,-11.4333,-61.4420502,24929,28847.66710
D1,Cacoal/RO,-11.4333,-61.4420502,337,389.97408
1,Caconde/SP,-21.527995,-46.643659,2394,12579.47559
D1,Caconde/SP,-21.527995,-46.643659,44,231.20172
1,Caculé/BA,-14.4990734,-42.2233006,3199,13666.85180
D1,Caculé/BA,-14.4990734,-42.2233006,28,119.62234
1,Caetanos/BA,-14.3387456,-40.9085971,814,5548.36071
D1,Caetanos/BA,-14.3387456,-40.9085971,12,81.79402
1,Caetanópolis/MG,-19.2947496,-44.4138386,1625,13691.12815
D1,Caetanópolis/MG,-19.2947496,-44.4138386,21,176.93150
1,Caetité/BA,-14.0691776,-42.4852428,4655,9094.63895
D1,Caetité/BA,-14.0691776,-42.4852428,50,97.68678
1,Caeté/MG,-19.897777,-43.670278,2936,6472.09241
D1,Caeté/MG,-19.897777,-43.670278,81,178.55568
1,Caetés/PE,-8.7728788,-36.6255835,2248,7734.38844
D1,Caetés/PE,-8.7728788,-36.6255835,25,86.01411
1,Cafarnaum/BA,-11.691399,-41.468823,1169,6290.01883
D1,Cafarnaum/BA,-11.691399,-41.468823,24,129.13640
1,Cafeara/PR,-22.78905,-51.714195,776,26101.58089
D1,Cafeara/PR,-22.78905,-51.714195,13,437.26875
1,Cafelândia/PR,-24.6176963,-53.3218057,4851,25826.54528
D1,Cafelândia/PR,-24.6176963,-53.3218057,47,250.22627
1,Cafelândia/SP,-21.8054355,-49.6030627,844,4710.61004
D1,Cafelândia/SP,-21.8054355,-49.6030627,57,318.13362
1,Cafezal do Sul/PR,-23.900508,-53.512418,975,24528.30189
D1,Cafezal do Sul/PR,-23.900508,-53.512418,10,251.57233
1,Caiabu/SP,-22.0143038,-51.2356597,326,7771.15614
D1,Caiabu/SP,-22.0143038,-51.2356597,8,190.70322
1,Caiana/MG,-20.695555,-41.924723,271,4853.15186
D1,Caiana/MG,-20.695555,-41.924723,7,125.35817
1,Caiapônia/GO,-16.9538779,-51.8090761,2715,14064.44260
D1,Caiapônia/GO,-16.9538779,-51.8090761,46,238.29258
1,Caibaté/RS,-28.290475,-54.645407,519,10807.99667
D1,Caibaté/RS,-28.290475,-54.645407,8,166.59725
1,Caibi/SC,-27.0751925,-53.2502133,1216,19895.28796
D1,Caibi/SC,-27.0751925,-53.2502133,16,261.78010
1,Caicó/RN,-6.4594544,-37.0971911,16503,24012.74627
D1,Caicó/RN,-6.4594544,-37.0971911,177,257.54445
1,Caieiras/SP,-23.3644621,-46.7484765,11188,10753.14290
D1,Caieiras/SP,-23.3644621,-46.7484765,348,334.47388
1,Cairu/BA,-13.4860505,-39.0455744,1755,9402.12150
D1,Cairu/BA,-13.4860505,-39.0455744,18,96.43202
1,Caiuá/SP,-21.8319357,-51.9887179,434,7212.89679
D1,Caiuá/SP,-21.8319357,-51.9887179,12,199.43493
1,Caiçara do Norte/RN,-5.0645017,-36.0561226,670,10194.76567
D1,Caiçara do Norte/RN,-5.0645017,-36.0561226,12,182.59282
1,Caiçara do Rio do Vento/RN,-5.757968,-36.00089,633,16902.53672
D1,Caiçara do Rio do Vento/RN,-5.757968,-36.00089,8,213.61816
1,Caiçara/PB,-6.6146866,-35.4681434,1080,15037.59398
D1,Caiçara/PB,-6.6146866,-35.4681434,15,208.85547
1,Caiçara/RS,-27.2750478,-53.4310053,1038,22279.45911
D1,Caiçara/RS,-27.2750478,-53.4310053,12,257.56600
1,Cajamar/SP,-23.3561111,-46.8769444,5593,7076.70117
D1,Cajamar/SP,-23.3561111,-46.8769444,253,320.11539
1,Cajapió/MA,-2.8778715,-44.6746871,386,3429.58685
D1,Cajapió/MA,-2.8778715,-44.6746871,8,71.07952
1,Cajari/MA,-3.3213076,-45.0118757,431,2207.87869
D1,Cajari/MA,-3.3213076,-45.0118757,9,46.10420
1,Cajati/SP,-24.7272376,-48.1077914,5879,20670.86249
D1,Cajati/SP,-24.7272376,-48.1077914,108,379.73348
1,Cajazeiras do Piauí/PI,-6.794271,-42.3935024,83,2314.55661
D1,Cajazeiras do Piauí/PI,-6.794271,-42.3935024,2,55.77245
1,Cajazeiras/PB,-6.8897849,-38.5570389,14933,23863.78164
D1,Cajazeiras/PB,-6.8897849,-38.5570389,184,294.04244
1,Cajazeirinhas/PB,-6.961442,-37.7993733,328,10195.83463
D1,Cajazeirinhas/PB,-6.961442,-37.7993733,1,31.08486
1,Cajobi/SP,-20.8776238,-48.8106972,1764,16564.93567
D1,Cajobi/SP,-20.8776238,-48.8106972,36,338.05991
1,Cajueiro da Praia/PI,-2.931114,-41.340801,499,6477.15472
D1,Cajueiro da Praia/PI,-2.931114,-41.340801,21,272.58567
1,Cajueiro/AL,-9.399589,-36.1524309,827,3865.02781
D1,Cajueiro/AL,-9.399589,-36.1524309,33,154.22723
1,Cajuri/MG,-20.7901414,-42.7954489,713,18000.50492
D1,Cajuri/MG,-20.7901414,-42.7954489,8,201.96920
1,Cajuru/SP,-21.2759978,-47.3046035,2035,7646.63886
D1,Cajuru/SP,-21.2759978,-47.3046035,65,244.24154
1,Caldas Brandão/PB,-7.1027959,-35.3254676,950,15632.71351
D1,Caldas Brandão/PB,-7.1027959,-35.3254676,12,197.46585
1,Caldas Novas/GO,-17.745,-48.625,15714,16509.25060
D1,Caldas Novas/GO,-17.745,-48.625,332,348.80178
1,Caldas/MG,-21.923611,-46.386111,1660,11369.86301
D1,Caldas/MG,-21.923611,-46.386111,42,287.67123
1,Caldazinha/GO,-16.7116649,-49.0012601,998,25589.74359
D1,Caldazinha/GO,-16.7116649,-49.0012601,12,307.69231
1,Caldeirão Grande do Piauí/PI,-7.3310393,-40.6374433,551,9522.98652
D1,Caldeirão Grande do Piauí/PI,-7.3310393,-40.6374433,2,34.56619
1,Caldeirão Grande/BA,-11.0208483,-40.3041387,630,4683.31847
D1,Caldeirão Grande/BA,-11.0208483,-40.3041387,6,44.60303
1,Califórnia/PR,-23.6672543,-51.3554556,1972,22821.43270
D1,Califórnia/PR,-23.6672543,-51.3554556,40,462.90939
1,Calmon/SC,-26.6023644,-51.0992893,69,2075.18797
D1,Calmon/SC,-26.6023644,-51.0992893,7,210.52632
1,Calumbi/PE,-7.9389746,-38.1516871,1184,20612.81337
D1,Calumbi/PE,-7.9389746,-38.1516871,5,87.04735
1,Calçado/PE,-8.7413446,-36.3351787,668,6082.12692
D1,Calçado/PE,-8.7413446,-36.3351787,9,81.94482
1,Calçoene/AP,2.4981757,-50.9539503,2634,22918.29809
D1,Calçoene/AP,2.4981757,-50.9539503,15,130.51423
1,Camacan/BA,-15.4166631,-39.4930088,3516,10979.60841
D1,Camacan/BA,-15.4166631,-39.4930088,95,296.66177
1,Camacho/MG,-20.625556,-45.156667,349,12293.06094
D1,Camacho/MG,-20.625556,-45.156667,2,70.44734
1,Camalaú/PB,-7.885031,-36.824191,894,14781.74603
D1,Camalaú/PB,-7.885031,-36.824191,8,132.27513
1,Camamu/BA,-13.9438142,-39.1060917,2933,8275.02539
D1,Camamu/BA,-13.9438142,-39.1060917,62,174.92382
1,Camanducaia/MG,-22.755278,-46.144444,4481,20525.85773
D1,Camanducaia/MG,-22.755278,-46.144444,75,343.54817
1,Camapuã/MS,-19.5291747,-54.0434641,1712,12519.19561
D1,Camapuã/MS,-19.5291747,-54.0434641,37,270.56673
1,Camaquã/RS,-30.8524752,-51.8075619,8797,13191.67441
D1,Camaquã/RS,-30.8524752,-51.8075619,175,262.42390
1,Camaragibe/PE,-8.0213832,-34.9810768,9600,6002.06321
D1,Camaragibe/PE,-8.0213832,-34.9810768,465,290.72494
1,Camargo/RS,-28.5865661,-52.2031474,658,23927.27273
D1,Camargo/RS,-28.5865661,-52.2031474,8,290.90909
1,Camaçari/BA,-12.6998188,-38.3260762,31386,10150.44889
D1,Camaçari/BA,-12.6998188,-38.3260762,666,215.38899
1,Cambará do Sul/RS,-29.0489517,-50.145412,404,6329.31224
D1,Cambará do Sul/RS,-29.0489517,-50.145412,12,187.99937
1,Cambará/PR,-23.042273,-50.075281,5262,20579.60812
D1,Cambará/PR,-23.042273,-50.075281,69,269.85803
1,Cambira/PR,-23.600265,-51.581045,2278,28592.94590
D1,Cambira/PR,-23.600265,-51.581045,31,389.10506
1,Camboriú/SC,-27.0273601,-48.6535657,17972,20615.05638
D1,Camboriú/SC,-27.0273601,-48.6535657,207,237.44250
1,Cambuci/RJ,-21.5749919,-41.9107833,2756,17756.58785
D1,Cambuci/RJ,-21.5749919,-41.9107833,45,289.92977
1,Cambuquira/MG,-21.853056,-45.2953619,1421,11092.89617
D1,Cambuquira/MG,-21.853056,-45.2953619,34,265.41764
1,Cambuí/MG,-22.6122501,-46.0572137,7447,24767.19436
D1,Cambuí/MG,-22.6122501,-46.0572137,63,209.52508
1,Cambé/PR,-23.2782035,-51.2779583,20461,18923.29319
D1,Cambé/PR,-23.2782035,-51.2779583,371,343.11821
1,Cametá/PA,-2.242949,-49.497885,10443,7416.16601
D1,Cametá/PA,-2.242949,-49.497885,304,215.88762
1,Camocim de São Félix/PE,-8.3616757,-35.7638903,956,5023.11896
D1,Camocim de São Félix/PE,-8.3616757,-35.7638903,21,110.34048
1,Camocim/CE,-2.9009918,-40.8427389,7520,11723.07357
D1,Camocim/CE,-2.9009918,-40.8427389,165,257.22169
1,Campanha/MG,-21.8361108,-45.401986,3429,20344.11154
