type,name,lat,lon,total,total_per_100k_inhabitants
1,Abadia de Goiás/GO,-16.7572644,-49.4412205,785,8763.11677
D1,Abadia de Goiás/GO,-16.7572644,-49.4412205,10,111.63206
1,Abadia dos Dourados/MG,-18.4911191,-47.4063589,110,1570.08279
D1,Abadia dos Dourados/MG,-18.4911191,-47.4063589,1,14.27348
1,Abadiânia/GO,-16.1940946,-48.7067767,201,982.35668
D1,Abadiânia/GO,-16.1940946,-48.7067767,14,68.42285
1,Abaetetuba/PA,-1.721828,-48.878843,5427,3411.49107
D1,Abaetetuba/PA,-1.721828,-48.878843,124,77.94820
1,Abaeté/MG,-19.1566833,-45.4481213,383,1647.31183
D1,Abaeté/MG,-19.1566833,-45.4481213,5,21.50538
1,Abaiara/CE,-7.3607808,-39.0487878,169,1425.79938
D1,Abaiara/CE,-7.3607808,-39.0487878,4,33.74673
1,Abaré/BA,-8.7239913,-39.1139689,168,825.67455
D1,Abaré/BA,-8.7239913,-39.1139689,1,4.91473
1,Abatiá/PR,-23.3052967,-50.3102532,178,2402.80778
D1,Abatiá/PR,-23.3052967,-50.3102532,1,13.49892
1,Abaíra/BA,-13.2503296,-41.6640342,148,1699.19633
D1,Abaíra/BA,-13.2503296,-41.6640342,2,22.96211
1,Abdon Batista/SC,-27.612419,-51.022992,160,6279.43485
D1,Abdon Batista/SC,-27.612419,-51.022992,1,39.24647
1,Abel Figueiredo/PA,-4.953001,-48.3958485,442,5904.35480
D1,Abel Figueiredo/PA,-4.953001,-48.3958485,2,26.71654
1,Abelardo Luz/SC,-26.5705893,-52.3280339,739,4114.69933
D1,Abelardo Luz/SC,-26.5705893,-52.3280339,17,94.65479
1,Abre Campo/MG,-20.2976097,-42.4764741,235,1747.99167
D1,Abre Campo/MG,-20.2976097,-42.4764741,3,22.31479
1,Abreu e Lima/PE,-7.900719,-34.898389,1348,1343.35200
D1,Abreu e Lima/PE,-7.900719,-34.898389,146,145.49658
1,Abreulândia/TO,-9.6221526,-49.1558343,106,4086.35312
D1,Abreulândia/TO,-9.6221526,-49.1558343,4,154.20200
1,Acaiaca/MG,-20.3621646,-43.1444162,101,2528.79319
D1,Acaiaca/MG,-20.3621646,-43.1444162,3,75.11267
1,Acajutiba/BA,-11.6609659,-38.0186381,252,1659.31389
D1,Acajutiba/BA,-11.6609659,-38.0186381,6,39.50747
1,Acarape/CE,-4.2237866,-38.7071663,1965,13068.63528
D1,Acarape/CE,-4.2237866,-38.7071663,14,93.10987
1,Acaraú/CE,-2.8869514,-40.1194713,2772,4392.74848
D1,Acaraú/CE,-2.8869514,-40.1194713,58,91.91176
1,Acari/RN,-6.4364689,-36.6394777,339,3048.28702
D1,Acari/RN,-6.4364689,-36.6394777,7,62.94398
1,Acará/PA,-1.961388,-48.1987043,879,1578.97573
D1,Acará/PA,-1.961388,-48.1987043,16,28.74131
1,Acauã/PI,-8.219542,-41.083059,115,1619.26218
D1,Acauã/PI,-8.219542,-41.083059,1,14.08054
1,Aceguá/RS,-31.8695131,-54.1615593,60,1214.08337
1,Acopiara/CE,-6.0936464,-39.4543204,1400,2569.70320
D1,Acopiara/CE,-6.0936464,-39.4543204,60,110.13014
1,Acorizal/MT,-15.2001544,-56.3668953,223,4180.72741
D1,Acorizal/MT,-15.2001544,-56.3668953,7,131.23360
1,Acrelândia/AC,-10.0759167,-67.0526898,591,3815.36475
D1,Acrelândia/AC,-10.0759167,-67.0526898,14,90.38089
1,Acreúna/GO,-17.3959899,-50.3749031,1051,4661.58077
D1,Acreúna/GO,-17.3959899,-50.3749031,27,119.75517
1,Adamantina/SP,-21.6866517,-51.0762975,871,2480.70405
D1,Adamantina/SP,-21.6866517,-51.0762975,20,56.96221
1,Adelândia/GO,-16.4155077,-50.1665834,92,3656.59777
D1,Adelândia/GO,-16.4155077,-50.1665834,2,79.49126
1,Adolfo/SP,-21.2356597,-49.6441918,165,4642.65616
D1,Adolfo/SP,-21.2356597,-49.6441918,5,140.68655
1,Adrianópolis/PR,-24.6557863,-48.9912769,533,9100.22196
D1,Adrianópolis/PR,-24.6557863,-48.9912769,8,136.58870
1,Adustina/BA,-10.5358875,-38.114479,174,1015.99907
D1,Adustina/BA,-10.5358875,-38.114479,4,23.35630
1,Afogados da Ingazeira/PE,-7.750429,-37.6356375,1961,5242.75479
D1,Afogados da Ingazeira/PE,-7.750429,-37.6356375,26,69.51128
1,Afonso Bezerra/RN,-5.4745,-36.57625071327935,218,1976.60713
D1,Afonso Bezerra/RN,-5.4745,-36.57625071327935,11,99.73706
1,Afonso Cláudio/ES,-20.077841,-41.12606,1843,6051.55147
D1,Afonso Cláudio/ES,-20.077841,-41.12606,33,108.35659
1,Afonso Cunha/MA,-4.1326105,-43.3230026,152,2310.73275
D1,Afonso Cunha/MA,-4.1326105,-43.3230026,2,30.40438
1,Afrânio/PE,-8.5198919,-41.0070197,483,2438.16254
D1,Afrânio/PE,-8.5198919,-41.0070197,7,35.33569
1,Afuá/PA,-0.1535664,-50.3879223,2563,6477.62024
D1,Afuá/PA,-0.1535664,-50.3879223,11,27.80095
1,Agrestina/PE,-8.4558021,-35.9442663,695,2772.79074
D1,Agrestina/PE,-8.4558021,-35.9442663,33,131.65769
1,Agricolândia/PI,-5.7967843,-42.6605131,73,1422.72462
1,Agrolândia/SC,-27.4122212,-49.8295774,451,4095.16027
D1,Agrolândia/SC,-27.4122212,-49.8295774,6,54.48107
1,Agronômica/SC,-27.2660744,-49.7104753,249,4519.87657
D1,Agronômica/SC,-27.2660744,-49.7104753,6,108.91269
1,Aguanil/MG,-20.9424533,-45.3927152,160,3538.25741
D1,Aguanil/MG,-20.9424533,-45.3927152,3,66.34233
1,Aguaí/SP,-22.0592036,-46.979384,707,1929.16394
D1,Aguaí/SP,-22.0592036,-46.979384,16,43.65859
1,Agudo/RS,-29.6423259,-53.2494005,285,1737.69892
D1,Agudo/RS,-29.6423259,-53.2494005,3,18.29157
1,Agudos do Sul/PR,-25.9890808,-49.3328175,243,2565.99789
D1,Agudos do Sul/PR,-25.9890808,-49.3328175,1,10.55966
1,Agudos/SP,-22.471162,-48.987822,1130,3021.30959
D1,Agudos/SP,-22.471162,-48.987822,19,50.80078
1,Aguiar/PB,-7.0928404,-38.1727215,61,1083.48135
D1,Aguiar/PB,-7.0928404,-38.1727215,1,17.76199
1,Aguiarnópolis/TO,-6.5600452,-47.4721189,468,6790.48172
D1,Aguiarnópolis/TO,-6.5600452,-47.4721189,9,130.58619
1,Aimorés/MG,-19.4917754,-41.0615603,896,3563.89961
D1,Aimorés/MG,-19.4917754,-41.0615603,14,55.68593
1,Aiquara/BA,-14.126918,-39.8887574,345,7812.50000
D1,Aiquara/BA,-14.126918,-39.8887574,6,135.86957
1,Aiuaba/CE,-6.5710836,-40.1212278,89,508.77494
D1,Aiuaba/CE,-6.5710836,-40.1212278,1,5.71657
1,Aiuruoca/MG,-21.9759554,-44.6036637,39,652.61044
D1,Aiuruoca/MG,-21.9759554,-44.6036637,4,66.93440
1,Ajuricaba/RS,-28.239654,-53.7693013,433,6197.22341
D1,Ajuricaba/RS,-28.239654,-53.7693013,4,57.24918
1,Alagoa Grande/PB,-7.0415212,-35.6285322,1774,6237.91273
D1,Alagoa Grande/PB,-7.0415212,-35.6285322,30,105.48894
1,Alagoa Nova/PB,-7.0653703,-35.76695977336711,467,2232.20687
D1,Alagoa Nova/PB,-7.0653703,-35.76695977336711,10,47.79886
1,Alagoa/MG,-22.1697202,-44.6400042,127,4765.47842
1,Alagoinha do Piauí/PI,-7.0090952,-40.939675,165,2152.64188
D1,Alagoinha do Piauí/PI,-7.0090952,-40.939675,5,65.23157
1,Alagoinha/PB,-6.97063215,-35.51490901897793,1124,7719.78022
D1,Alagoinha/PB,-6.97063215,-35.51490901897793,16,109.89011
1,Alagoinha/PE,-8.50355635,-36.77701174370496,357,2425.60130
D1,Alagoinha/PE,-8.50355635,-36.77701174370496,12,81.53282
1,Alagoinhas/BA,-12.133526,-38.420772,7274,4775.25324
D1,Alagoinhas/BA,-12.133526,-38.420772,102,66.96121
1,Alambari/SP,-23.550338,-47.897971,141,2300.53842
D1,Alambari/SP,-23.550338,-47.897971,4,65.26350
1,Albertina/MG,-20.66164,-43.784039,77,2557.28994
D1,Albertina/MG,-20.66164,-43.784039,5,166.05779
1,Alcantil/PB,-7.7425491,-36.0609604,102,1851.51570
D1,Alcantil/PB,-7.7425491,-36.0609604,1,18.15211
1,Alcinópolis/MS,-18.3264121,-53.7094463,67,1236.84696
D1,Alcinópolis/MS,-18.3264121,-53.7094463,2,36.92080
1,Alcobaça/BA,-17.5215875,-39.1965474,885,3935.08226
D1,Alcobaça/BA,-17.5215875,-39.1965474,16,71.14273
1,Alcântara/MA,-2.4038956,-44.4154241,202,913.53111
D1,Alcântara/MA,-2.4038956,-44.4154241,8,36.17945
1,Alcântaras/CE,-3.586247,-40.5457641,617,5237.24641
D1,Alcântaras/CE,-3.586247,-40.5457641,4,33.95298
1,Aldeias Altas/MA,-4.6291957,-43.4708622,947,3539.26075
D1,Aldeias Altas/MA,-4.6291957,-43.4708622,11,41.11074
1,Alecrim/RS,-27.6566142,-54.7653195,71,1218.46576
D1,Alecrim/RS,-27.6566142,-54.7653195,2,34.32298
1,Alegre/ES,-20.7625787,-41.5318886,1004,3349.45788
D1,Alegre/ES,-20.7625787,-41.5318886,25,83.40284
1,Alegrete do Piauí/PI,-7.2440138,-40.8602296,353,7177.71452
D1,Alegrete do Piauí/PI,-7.2440138,-40.8602296,3,61.00041
1,Alegrete/RS,-29.790166,-55.794862,2344,3209.72778
D1,Alegrete/RS,-29.790166,-55.794862,43,58.88152
1,Alegria/RS,-27.8332103,-54.0574959,186,5512.74452
D1,Alegria/RS,-27.8332103,-54.0574959,1,29.63841
1,Alenquer/PA,-1.946229,-54.738355,1647,2884.81749
D1,Alenquer/PA,-1.946229,-54.738355,30,52.54677
1,Alexandria/RN,-6.414779,-38.0135516,455,3357.19029
D1,Alexandria/RN,-6.414779,-38.0135516,9,66.40596
1,Alexânia/GO,-16.0834049,-48.5077803,1500,5355.23027
D1,Alexânia/GO,-16.0834049,-48.5077803,25,89.25384
1,Alfenas/MG,-21.4297405,-45.9479419,3129,3887.24625
D1,Alfenas/MG,-21.4297405,-45.9479419,67,83.23602
1,Alfredo Chaves/ES,-20.624970400000002,-40.75006690147988,1433,9790.92648
D1,Alfredo Chaves/ES,-20.624970400000002,-40.75006690147988,18,122.98442
1,Alfredo Marcondes/SP,-21.9527,-51.413956,112,2676.86424
D1,Alfredo Marcondes/SP,-21.9527,-51.413956,4,95.60229
1,Alfredo Vasconcelos/MG,-21.145833,-43.776389,107,1532.73170
D1,Alfredo Vasconcelos/MG,-21.145833,-43.776389,3,42.97379
1,Alfredo Wagner/SC,-27.6961513,-49.3326734,478,4739.24251
D1,Alfredo Wagner/SC,-27.6961513,-49.3326734,1,9.91473
1,Algodão de Jandaíra/PB,-6.9040175,-36.0089879,42,1629.80210
1,Alhandra/PB,-7.4304246,-34.9106103,785,3979.31769
D1,Alhandra/PB,-7.4304246,-34.9106103,19,96.31470
1,Aliança do Tocantins/TO,-11.3055927,-48.9409096,219,4096.52076
D1,Aliança do Tocantins/TO,-11.3055927,-48.9409096,4,74.82230
1,Aliança/PE,-7.60398,-35.222696,414,1078.20924
D1,Aliança/PE,-7.60398,-35.222696,30,78.13110
1,Almadina/BA,-14.70466,-39.6381994,389,7249.34775
D1,Almadina/BA,-14.70466,-39.6381994,6,111.81513
1,Almas/TO,-11.5681309,-47.1702803,138,1977.36065
D1,Almas/TO,-11.5681309,-47.1702803,2,28.65740
1,Almeirim/PA,-1.5290377,-52.5788111,275,807.01960
D1,Almeirim/PA,-1.5290377,-52.5788111,18,52.82310
1,Almenara/MG,-16.1740678,-40.6904907,1747,4145.40968
D1,Almenara/MG,-16.1740678,-40.6904907,19,45.08459
1,Almino Afonso/RN,-6.1544208,-37.7649018,106,2250.53079
D1,Almino Afonso/RN,-6.1544208,-37.7649018,4,84.92569
1,Almirante Tamandaré do Sul/RS,-28.1141129,-52.9134874,69,3540.27707
1,Almirante Tamandaré/PR,-25.3133048,-49.2997838,4199,3497.97153
D1,Almirante Tamandaré/PR,-25.3133048,-49.2997838,103,85.80402
1,Aloândia/GO,-17.7277983,-49.4809338,145,7301.10775
D1,Aloândia/GO,-17.7277983,-49.4809338,5,251.76234
1,Alpercata/MG,-18.9803616,-41.9827637,305,4101.66756
D1,Alpercata/MG,-18.9803616,-41.9827637,12,161.37708
1,Alpestre/RS,-27.2512339,-53.0349646,128,2109.77419
D1,Alpestre/RS,-27.2512339,-53.0349646,2,32.96522
1,Alpinópolis/MG,-20.863611,-46.387777,195,977.05181
D1,Alpinópolis/MG,-20.863611,-46.387777,5,25.05261
1,Alta Floresta D'Oeste/RO,-11.9296917,-61.9961284,1693,7448.96163
D1,Alta Floresta D'Oeste/RO,-11.9296917,-61.9961284,21,92.39704
1,Alta Floresta/MT,-9.8715018,-56.0839881,2402,4622.87573
D1,Alta Floresta/MT,-9.8715018,-56.0839881,29,55.81324
1,Altair/SP,-20.5238955,-49.0606135,56,1337.79264
D1,Altair/SP,-20.5238955,-49.0606135,4,95.55662
1,Altamira do Maranhão/MA,-4.1643006,-45.4674574,274,3345.95189
D1,Altamira do Maranhão/MA,-4.1643006,-45.4674574,6,73.26902
1,Altamira do Paraná/PR,-24.799114,-52.7128633,26,1545.77883
D1,Altamira do Paraná/PR,-24.799114,-52.7128633,2,118.90606
1,Altamira/PA,-3.204065,-52.209961,6549,5647.19882
D1,Altamira/PA,-3.204065,-52.209961,137,118.13502
1,Altaneira/CE,-6.9980933,-39.7385742,239,3124.18301
D1,Altaneira/CE,-6.9980933,-39.7385742,6,78.43137
1,Alterosa/MG,-21.249166,-46.143055,215,1481.02225
D1,Alterosa/MG,-21.249166,-46.143055,4,27.55390
1,Altinho/PE,-8.4904095,-36.0607494,628,2732.33554
D1,Altinho/PE,-8.4904095,-36.0607494,12,52.21023
1,Altinópolis/SP,-21.021364,-47.3712,323,1993.45800
D1,Altinópolis/SP,-21.021364,-47.3712,8,49.37357
1,Alto Alegre do Maranhão/MA,-4.2055693,-44.4525287,396,1421.49472
D1,Alto Alegre do Maranhão/MA,-4.2055693,-44.4525287,18,64.61340
1,Alto Alegre do Pindaré/MA,-3.6698186,-45.8462153,1575,4930.65773
D1,Alto Alegre do Pindaré/MA,-3.6698186,-45.8462153,25,78.26441
1,Alto Alegre dos Parecis/RO,-12.1314515,-61.856265,398,3002.64051
D1,Alto Alegre dos Parecis/RO,-12.1314515,-61.856265,11,82.98755
1,Alto Alegre/RR,2.98858,-61.307167,858,5578.67360
D1,Alto Alegre/RR,2.98858,-61.307167,21,136.54096
1,Alto Alegre/RS,-31.780844700000003,-52.81311114489171,27,1673.89957
1,Alto Alegre/SP,-21.5820592,-50.1661976,126,3082.19178
D1,Alto Alegre/SP,-21.5820592,-50.1661976,3,73.38552
1,Alto Araguaia/MT,-17.3156528,-53.2169365,478,2465.82409
D1,Alto Araguaia/MT,-17.3156528,-53.2169365,9,46.42765
1,Alto Bela Vista/SC,-27.4320737,-51.905771,43,2232.60644
D1,Alto Bela Vista/SC,-27.4320737,-51.905771,1,51.92108
1,Alto Boa Vista/MT,-11.6723985,-51.3744431,105,1513.84083
D1,Alto Boa Vista/MT,-11.6723985,-51.3744431,3,43.25260
1,Alto Caparaó/MG,-20.4405661,-41.8683799,202,3427.21412
D1,Alto Caparaó/MG,-20.4405661,-41.8683799,4,67.86563
1,Alto Feliz/RS,-29.3785943,-51.3123751,88,2898.55072
1,Alto Garças/MT,-16.9469683,-53.529427,326,2682.90676
D1,Alto Garças/MT,-16.9469683,-53.529427,15,123.44663
1,Alto Horizonte/GO,-14.1954948,-49.3366993,214,3239.96972
D1,Alto Horizonte/GO,-14.1954948,-49.3366993,2,30.28009
1,Alto Jequitibá/MG,-20.423611,-41.966111,324,3903.14420
D1,Alto Jequitibá/MG,-20.423611,-41.966111,7,84.32719
1,Alto Longá/PI,-5.2549051,-42.2072388,299,2085.22212
D1,Alto Longá/PI,-5.2549051,-42.2072388,6,41.84392
1,Alto Paraguai/MT,-14.513712,-56.4936374,354,3085.50510
D1,Alto Paraguai/MT,-14.513712,-56.4936374,9,78.44504
1,Alto Paraná/PR,-23.131247,-52.318893,318,2140.11710
D1,Alto Paraná/PR,-23.131247,-52.318893,2,13.45986
1,Alto Paraíso de Goiás/GO,-14.1304779,-47.5100161,372,4838.70968
1,Alto Paraíso/PR,-23.508137,-53.728537,49,1824.95345
1,Alto Paraíso/RO,-9.7240103,-63.3188123,598,2737.21792
D1,Alto Paraíso/RO,-9.7240103,-63.3188123,9,41.19559
1,Alto Parnaíba/MA,-9.112506,-45.9310154,533,4753.83518
D1,Alto Parnaíba/MA,-9.112506,-45.9310154,4,35.67606
1,Alto Piquiri/PR,-24.0239021,-53.4417448,246,2515.85191
D1,Alto Piquiri/PR,-24.0239021,-53.4417448,5,51.13520
1,Alto Rio Doce/MG,-21.0239537,-43.4133507,155,1427.38742
D1,Alto Rio Doce/MG,-21.0239537,-43.4133507,10,92.08951
1,Alto Rio Novo/ES,-19.0577208,-41.0171518,442,5613.41123
D1,Alto Rio Novo/ES,-19.0577208,-41.0171518,14,177.80036
1,Alto Santo/CE,-5.5190371,-38.2719351,537,3122.81926
D1,Alto Santo/CE,-5.5190371,-38.2719351,13,75.59898
1,Alto Taquari/MT,-17.8269099,-53.2831736,595,5344.47139
D1,Alto Taquari/MT,-17.8269099,-53.2831736,8,71.85844
1,Alto do Rodrigues/RN,-5.290868,-36.7616726,712,4834.32917
D1,Alto do Rodrigues/RN,-5.290868,-36.7616726,19,129.00598
1,Altos/PI,-5.0393915,-42.4611694,2275,5602.75828
D1,Altos/PI,-5.0393915,-42.4611694,33,81.27078
1,Altônia/PR,-23.8722004,-53.894037,446,2011.18326
D1,Altônia/PR,-23.8722004,-53.894037,5,22.54690
1,Alumínio/SP,-23.5203479,-47.2575256,509,2712.20760
D1,Alumínio/SP,-23.5203479,-47.2575256,13,69.27053
1,Alvarenga/MG,-19.4175,-41.728334,192,4994.79709
D1,Alvarenga/MG,-19.4175,-41.728334,2,52.02914
1,Alvarães/AM,-3.214786,-64.8143124,1655,10203.45253
D1,Alvarães/AM,-3.214786,-64.8143124,29,178.79162
1,Alvinlândia/SP,-22.4431852,-49.7643596,49,1513.74730
1,Alvinópolis/MG,-20.1105199,-43.0601805,250,1648.09809
D1,Alvinópolis/MG,-20.1105199,-43.0601805,2,13.18478
1,Alvorada D'Oeste/RO,-11.346271,-62.284697,306,2169.28966
D1,Alvorada D'Oeste/RO,-11.346271,-62.284697,8,56.71346
1,Alvorada de Minas/MG,-18.7318587,-43.3641479,84,2330.09709
D1,Alvorada de Minas/MG,-18.7318587,-43.3641479,1,27.73925
1,Alvorada do Gurguéia/PI,-8.4465288,-43.8655915,109,2001.83655
D1,Alvorada do Gurguéia/PI,-8.4465288,-43.8655915,5,91.82736
1,Alvorada do Norte/GO,-14.483911,-46.4959897,358,4112.57898
D1,Alvorada do Norte/GO,-14.483911,-46.4959897,1,11.48765
1,Alvorada do Sul/PR,-22.7807269,-51.2307721,252,2190.73285
D1,Alvorada do Sul/PR,-22.7807269,-51.2307721,7,60.85369
1,Alvorada/RS,-29.9981184,-51.0772509,9304,4402.13483
D1,Alvorada/RS,-29.9981184,-51.0772509,250,118.28608
1,Alvorada/TO,-12.478465,-49.124926,598,7122.43926
D1,Alvorada/TO,-12.478465,-49.124926,10,119.10434
1,Além Paraíba/MG,-21.8760576,-42.6810473,1168,3299.34183
D1,Além Paraíba/MG,-21.8760576,-42.6810473,32,90.39293
1,Amajari/RR,3.6523869,-61.4194315,603,4573.37884
D1,Amajari/RR,3.6523869,-61.4194315,16,121.35002
1,Amambai/MS,-23.1082701,-55.2284854,1479,3713.65440
D1,Amambai/MS,-23.1082701,-55.2284854,26,65.28399
1,Amaporã/PR,-23.094272,-52.786597,64,1010.73910
1,Amapá do Maranhão/MA,-1.6762114,-46.0109669,5,71.37759
1,Amapá/AP,2.0529997,-50.7930003,1042,11342.11386
D1,Amapá/AP,2.0529997,-50.7930003,7,76.19462
1,Amaraji/PE,-8.373925,-35.4536527,368,1609.09488
D1,Amaraji/PE,-8.373925,-35.4536527,24,104.94097
1,Amaral Ferrador/RS,-30.8750633,-52.2542051,108,1524.34721
D1,Amaral Ferrador/RS,-30.8750633,-52.2542051,2,28.22865
1,Amaralina/GO,-13.9236199,-49.2962411,17,442.13264
1,Amarante do Maranhão/MA,-5.56913,-46.747284,1156,2770.25570
D1,Amarante do Maranhão/MA,-5.56913,-46.747284,31,74.28886
1,Amarante/PI,-6.2459374,-42.8476238,790,4487.61645
D1,Amarante/PI,-6.2459374,-42.8476238,14,79.52738
1,Amargosa/BA,-13.03793715,-39.60796443875596,923,2465.21193
D1,Amargosa/BA,-13.03793715,-39.60796443875596,18,48.07564
1,Amaturá/AM,-3.3640509,-68.1994689,1283,10932.17451
D1,Amaturá/AM,-3.3640509,-68.1994689,10,85.20791
1,Americana/SP,-22.7392463,-47.3306032,9058,3742.69682
D1,Americana/SP,-22.7392463,-47.3306032,236,97.51341
1,Americano do Brasil/GO,-16.2515808,-49.9806104,162,2628.16353
D1,Americano do Brasil/GO,-16.2515808,-49.9806104,4,64.89293
1,Ametista do Sul/RS,-27.3617341,-53.1826575,188,2539.51101
D1,Ametista do Sul/RS,-27.3617341,-53.1826575,1,13.50804
1,Amontada/CE,-3.3634586,-39.8284791,1053,2402.51888
D1,Amontada/CE,-3.3634586,-39.8284791,21,47.91348
1,Amorinópolis/GO,-16.6211308,-51.0949921,97,3160.63864
D1,Amorinópolis/GO,-16.6211308,-51.0949921,1,32.58390
1,Amparo de São Francisco/SE,-10.1299754,-36.9269099,76,3193.27731
D1,Amparo de São Francisco/SE,-10.1299754,-36.9269099,2,84.03361
1,Amparo do Serra/MG,-20.5070255,-42.8028462,69,1474.98931
D1,Amparo do Serra/MG,-20.5070255,-42.8028462,3,64.12997
1,Amparo/PB,-7.56394725,-37.04652873235175,31,1377.16570
1,Amparo/SP,-22.70111,-46.76444,2079,2860.60239
D1,Amparo/SP,-22.70111,-46.76444,38,52.28614
1,Ampére/PR,-25.9168712,-53.4742414,438,2268.13733
D1,Ampére/PR,-25.9168712,-53.4742414,9,46.60556
1,Amélia Rodrigues/BA,-12.4015388,-38.7516971,877,3501.27755
D1,Amélia Rodrigues/BA,-12.4015388,-38.7516971,15,59.88502
1,América Dourada/BA,-11.4515262,-41.4357517,361,2243.62958
D1,América Dourada/BA,-11.4515262,-41.4357517,2,12.43008
1,Américo Brasiliense/SP,-21.7297099,-48.1052092,1215,2961.10353
D1,Américo Brasiliense/SP,-21.7297099,-48.1052092,20,48.74244
1,Américo de Campos/SP,-20.298476,-49.735904,390,6520.64872
D1,Américo de Campos/SP,-20.298476,-49.735904,12,200.63535
1,Anadia/AL,-9.6830208,-36.3052699,576,3286.54570
D1,Anadia/AL,-9.6830208,-36.3052699,10,57.05809
1,Anagé/BA,-14.6134669,-41.1376308,346,1601.33290
D1,Anagé/BA,-14.6134669,-41.1376308,7,32.39691
1,Anahy/PR,-24.6450861,-53.1337957,75,2690.10043
D1,Anahy/PR,-24.6450861,-53.1337957,1,35.86801
1,Anajatuba/MA,-3.26441,-44.6179916,363,1345.04224
D1,Anajatuba/MA,-3.26441,-44.6179916,10,37.05351
1,Anajás/PA,-0.9878802,-49.9390114,1001,3371.73269
D1,Anajás/PA,-0.9878802,-49.9390114,11,37.05201
1,Analândia/SP,-22.128917,-47.661939,89,1760.28481
D1,Analândia/SP,-22.128917,-47.661939,2,39.55696
1,Anamã/AM,-3.5797356,-61.4049996,1357,9723.41645
D1,Anamã/AM,-3.5797356,-61.4049996,1,7.16538
1,Ananindeua/PA,-1.374035,-48.4016623,11944,2230.24310
D1,Ananindeua/PA,-1.374035,-48.4016623,395,73.75636
1,Ananás/TO,-6.3663053,-48.080238,778,8196.37590
D1,Ananás/TO,-6.3663053,-48.080238,16,168.56300
1,Anapu/PA,-3.4668292,-51.2057035,1107,3869.68225
D1,Anapu/PA,-3.4668292,-51.2057035,23,80.39990
1,Anapurus/MA,-3.6751298,-43.1046001,821,5165.47125
D1,Anapurus/MA,-3.6751298,-43.1046001,6,37.75009
1,Anastácio/MS,-20.4832458,-55.8048448,1252,4960.97000
D1,Anastácio/MS,-20.4832458,-55.8048448,34,134.72283
1,Anaurilândia/MS,-22.185169,-52.719056,117,1289.11415
D1,Anaurilândia/MS,-22.185169,-52.719056,4,44.07228
1,Anchieta/ES,-20.8057672,-40.6454564,2185,7337.38541
D1,Anchieta/ES,-20.8057672,-40.6454564,36,120.89056
1,Anchieta/SC,-26.5350527,-53.3293938,168,3023.21396
D1,Anchieta/SC,-26.5350527,-53.3293938,4,71.98128
1,Andaraí/BA,-12.8059674,-41.3322919,417,3175.44928
D1,Andaraí/BA,-12.8059674,-41.3322919,2,15.22997
1,Andirá/PR,-23.0494761,-50.2310027,691,3467.83097
D1,Andirá/PR,-23.0494761,-50.2310027,4,20.07427
1,Andorinha/BA,-10.3445708,-39.8334411,396,2730.46956
D1,Andorinha/BA,-10.3445708,-39.8334411,7,48.26588
1,Andradas/MG,-22.0680484,-46.5688976,788,1903.56556
D1,Andradas/MG,-22.0680484,-46.5688976,23,55.56092
1,Andradina/SP,-20.896505,-51.3742765,2503,4375.72113
D1,Andradina/SP,-20.896505,-51.3742765,92,160.83354
1,Andrelândia/MG,-21.739722,-44.308889,151,1237.09651
D1,Andrelândia/MG,-21.739722,-44.308889,2,16.38538
1,André da Rocha/RS,-28.6309124,-51.5733328,50,3723.00819
1,Angatuba/SP,-23.4938938,-48.4110675,480,1883.90439
D1,Angatuba/SP,-23.4938938,-48.4110675,13,51.02241
1,Angelim/PE,-8.8902038,-36.2872987,92,819.52610
D1,Angelim/PE,-8.8902038,-36.2872987,3,26.72368
1,Angelina/SC,-27.5805287,-48.9838759,248,5228.75817
1,Angelândia/MG,-17.7253,-42.2728,35,409.02185
1,Angical do Piauí/PI,-6.0872666,-42.7366138,212,3125.46071
D1,Angical do Piauí/PI,-6.0872666,-42.7366138,5,73.71370
1,Angical/BA,-12.005623,-44.7000236,287,2059.11896
D1,Angical/BA,-12.005623,-44.7000236,5,35.87315
1,Angico/TO,-6.3893733,-47.8656722,173,5008.68558
D1,Angico/TO,-6.3893733,-47.8656722,3,86.85582
1,Angicos/RN,-5.6666344,-36.6009064,196,1674.49808
D1,Angicos/RN,-5.6666344,-36.6009064,6,51.26015
1,Angra dos Reis/RJ,-23.0063966,-44.316326,9316,4499.52667
D1,Angra dos Reis/RJ,-23.0063966,-44.316326,301,145.37973
1,Anguera/BA,-12.1509425,-39.2452469,140,1239.26706
1,Angélica/MS,-22.1588196,-53.7728504,293,2680.20490
D1,Angélica/MS,-22.1588196,-53.7728504,5,45.73729
1,Anhanguera/GO,-18.3338749,-48.220363,22,1896.55172
D1,Anhanguera/GO,-18.3338749,-48.220363,2,172.41379
1,Anhembi/SP,-22.7891096,-48.1316776,47,689.25062
D1,Anhembi/SP,-22.7891096,-48.1316776,1,14.66491
1,Anhumas/SP,-22.2956478,-51.3873401,134,3233.59073
D1,Anhumas/SP,-22.2956478,-51.3873401,1,24.13127
1,Anicuns/GO,-16.4606451,-49.9572265,1023,4654.01938
D1,Anicuns/GO,-16.4606451,-49.9572265,17,77.33952
1,Anita Garibaldi/SC,-27.6855032,-51.1293873,562,8078.19462
D1,Anita Garibaldi/SC,-27.6855032,-51.1293873,3,43.12204
1,Anitápolis/SC,-27.9041185,-49.1287395,180,5576.20818
1,Anori/AM,-3.7435254,-61.6605203,1419,6607.06803
D1,Anori/AM,-3.7435254,-61.6605203,21,97.77902
1,Anta Gorda/RS,-28.9718745,-52.0069187,339,5686.96527
D1,Anta Gorda/RS,-28.9718745,-52.0069187,1,16.77571
1,Antas/BA,-10.4114649,-38.3308815,649,3331.79321
1,Antonina do Norte/CE,-6.7754187,-39.9879345,82,1111.41231
D1,Antonina do Norte/CE,-6.7754187,-39.9879345,2,27.10762
1,Antonina/PR,-25.4298854,-48.7125431,1371,7235.21030
D1,Antonina/PR,-25.4298854,-48.7125431,34,179.42899
1,Antônio Almeida/PI,-7.2186016,-44.1950248,259,8170.34700
D1,Antônio Almeida/PI,-7.2186016,-44.1950248,3,94.63722
1,Antônio Cardoso/BA,-12.4363122,-39.1200307,137,1173.24655
D1,Antônio Cardoso/BA,-12.4363122,-39.1200307,4,34.25537
1,Antônio Carlos/MG,-21.318334,-43.746666,212,1850.07418
D1,Antônio Carlos/MG,-21.318334,-43.746666,3,26.18029
1,Antônio Carlos/SC,-27.5168462,-48.7684715,811,9415.99907
D1,Antônio Carlos/SC,-27.5168462,-48.7684715,14,162.54499
1,Antônio Dias/MG,-19.6525,-42.872778,175,1886.79245
D1,Antônio Dias/MG,-19.6525,-42.872778,6,64.69003
1,Antônio Gonçalves/BA,-10.5715409,-40.2748824,362,3047.65112
D1,Antônio Gonçalves/BA,-10.5715409,-40.2748824,1,8.41893
1,Antônio João/MS,-22.1892837,-55.9508227,163,1807.09534
D1,Antônio João/MS,-22.1892837,-55.9508227,4,44.34590
1,Antônio Martins/RN,-6.2155812,-37.8890129,121,1691.36148
D1,Antônio Martins/RN,-6.2155812,-37.8890129,2,27.95639
1,Antônio Olinto/PR,-25.9849006,-50.1974516,137,1844.62098
D1,Antônio Olinto/PR,-25.9849006,-50.1974516,1,13.46439
1,Antônio Prado de Minas/MG,-21.0171988,-42.1101106,103,6490.23314
D1,Antônio Prado de Minas/MG,-21.0171988,-42.1101106,3,189.03592
1,Antônio Prado/RS,-28.8567806,-51.2801355,1030,7895.74550
D1,Antônio Prado/RS,-28.8567806,-51.2801355,11,84.32350
1,Anápolis/GO,-16.3332828,-48.9525756,17093,4362.99685
D1,Anápolis/GO,-16.3332828,-48.9525756,428,109.24722
1,Anísio de Abreu/PI,-9.185643,-43.04941,211,2123.16361
D1,Anísio de Abreu/PI,-9.185643,-43.04941,2,20.12477
1,Aparecida d'Oeste/SP,-20.4498109,-50.8808706,376,9042.80904
D1,Aparecida d'Oeste/SP,-20.4498109,-50.8808706,9,216.45022
1,Aparecida de Goiânia/GO,-16.8226769,-49.2452546,41180,6977.93427
D1,Aparecida de Goiânia/GO,-16.8226769,-49.2452546,609,103.19480
1,Aparecida do Rio Doce/GO,-18.2980167,-51.1491312,111,4486.66128
D1,Aparecida do Rio Doce/GO,-18.2980167,-51.1491312,3,121.26112
1,Aparecida do Rio Negro/TO,-9.9513491,-47.9773786,133,2743.39934
D1,Aparecida do Rio Negro/TO,-9.9513491,-47.9773786,2,41.25413
1,Aparecida do Taboado/MS,-20.0840304,-51.1013943,1200,4603.16851
D1,Aparecida do Taboado/MS,-20.0840304,-51.1013943,20,76.71948
1,Aparecida/PB,-6.7859598, -38.0831353,567,6737.16730
D1,Aparecida/PB,-6.7859598, -38.0831353,7,83.17490
1,Aparecida/SP,-22.851552,-45.2340924,885,2445.76482
D1,Aparecida/SP,-22.851552,-45.2340924,23,63.56225
1,Aperibé/RJ,-21.6211928,-42.1028167,261,2193.09302
D1,Aperibé/RJ,-21.6211928,-42.1028167,9,75.62390
1,Apiacá/ES,-21.152272,-41.569297,382,5056.92348
D1,Apiacá/ES,-21.152272,-41.569297,9,119.14218
1,Apiacás/MT,-9.5678422,-57.394852,189,1837.98502
D1,Apiacás/MT,-9.5678422,-57.394852,1,9.72479
1,Apiaí/SP,-24.5076527,-48.8461582,380,1568.56270
D1,Apiaí/SP,-24.5076527,-48.8461582,11,45.40576
1,Apicum-Açu/MA,-1.5279295,-45.082278,199,1142.82433
D1,Apicum-Açu/MA,-1.5279295,-45.082278,3,17.22851
1,Apiúna/SC,-27.0374658,-49.3885037,455,4194.32153
D1,Apiúna/SC,-27.0374658,-49.3885037,9,82.96460
1,Apodi/RN,-5.6631109,-37.796927,3456,9633.71801
D1,Apodi/RN,-5.6631109,-37.796927,45,125.43904
1,Aporá/BA,-11.6599747,-38.0794757,301,1692.15201
D1,Aporá/BA,-11.6599747,-38.0794757,8,44.97414
1,Aporé/GO,-18.9642193,-51.92804,165,3898.86578
D1,Aporé/GO,-18.9642193,-51.92804,3,70.88847
1,Apuarema/BA,-13.8517897,-39.7457126,486,6655.71076
D1,Apuarema/BA,-13.8517897,-39.7457126,7,95.86415
1,Apucarana/PR,-23.5525327,-51.4610764,2663,1954.72496
D1,Apucarana/PR,-23.5525327,-51.4610764,103,75.60521
1,Apuiarés/CE,-3.9460303,-39.4313298,264,1799.34569
D1,Apuiarés/CE,-3.9460303,-39.4313298,11,74.97274
1,Apuí/AM,-7.1940195,-59.8830192,639,2857.90957
D1,Apuí/AM,-7.1940195,-59.8830192,10,44.72472
1,Aquidabã/SE,-10.2837579,-37.0188687,1058,4879.84872
D1,Aquidabã/SE,-10.2837579,-37.0188687,19,87.63433
1,Aquidauana/MS,-20.473969,-55.7821375,3002,6250.39039
D1,Aquidauana/MS,-20.473969,-55.7821375,81,168.64811
1,Aquiraz/CE,-3.9063117,-38.387504,1452,1794.03225
D1,Aquiraz/CE,-3.9063117,-38.387504,40,49.42238
1,Arabutã/SC,-27.1587028,-52.1438142,169,3960.62808
D1,Arabutã/SC,-27.1587028,-52.1438142,2,46.87134
1,Aracaju/SE,-10.9162061,-37.0774655,64413,9687.50564
D1,Aracaju/SE,-10.9162061,-37.0774655,954,143.47850
1,Aracati/CE,-4.558259,-37.767894,2475,3301.10037
D1,Aracati/CE,-4.558259,-37.767894,59,78.69290
1,Aracatu/BA,-14.4274236,-41.4604105,460,3526.25527
D1,Aracatu/BA,-14.4274236,-41.4604105,7,53.66041
1,Araci/BA,-11.3356065,-38.9573261,1550,2836.33436
D1,Araci/BA,-11.3356065,-38.9573261,19,34.76797
1,Aracitaba/MG,-21.3425,-43.378611,67,3254.00680
D1,Aracitaba/MG,-21.3425,-43.378611,5,242.83633
1,Aracoiaba/CE,-4.3702577,-38.8084313,920,3467.11890
D1,Aracoiaba/CE,-4.3702577,-38.8084313,17,64.06633
1,Aracruz/ES,-19.8245218,-40.2735025,8820,8554.71819
D1,Aracruz/ES,-19.8245218,-40.2735025,114,110.57119
1,Aragarças/GO,-15.8957166,-52.2514538,1161,5726.82879
D1,Aragarças/GO,-15.8957166,-52.2514538,20,98.65338
1,Aragoiânia/GO,-16.9146388,-49.4499148,459,4373.09451
D1,Aragoiânia/GO,-16.9146388,-49.4499148,5,47.63720
1,Aragominas/TO,-7.1654101,-48.525488,342,5967.54493
D1,Aragominas/TO,-7.1654101,-48.525488,7,122.14273
1,Araguacema/TO,-8.8067391,-49.5560969,95,1327.74284
D1,Araguacema/TO,-8.8067391,-49.5560969,1,13.97624
1,Araguaiana/MT,-15.729144,-51.834112,69,2219.36314
D1,Araguaiana/MT,-15.729144,-51.834112,2,64.32937
1,Araguainha/MT,-16.857016,-53.031778,6,634.24947
1,Araguanã/MA,-2.9508403,-45.6651986,569,3658.92869
D1,Araguanã/MA,-2.9508403,-45.6651986,4,25.72182
1,Araguanã/TO,-6.5799107,-48.6428482,181,3124.46056
D1,Araguanã/TO,-6.5799107,-48.6428482,11,189.88434
1,Araguapaz/GO,-15.0937927,-50.626417,204,2621.09726
D1,Araguapaz/GO,-15.0937927,-50.626417,7,89.93961
1,Araguari/MG,-18.6511256,-48.1933764,5976,5071.92871
D1,Araguari/MG,-18.6511256,-48.1933764,124,105.24082
1,Araguatins/TO,-5.6522925,-48.1158973,1148,3173.90102
D1,Araguatins/TO,-5.6522925,-48.1158973,31,85.70639
1,Araguaçu/TO,-12.928934,-49.823134,582,6873.74513
D1,Araguaçu/TO,-12.928934,-49.823134,9,106.29503
1,Araguaína/TO,-7.193241,-48.2018597,18781,10241.51902
D1,Araguaína/TO,-7.193241,-48.2018597,248,135.23757
1,Araioses/MA,-2.890914,-41.904993,589,1259.32736
D1,Araioses/MA,-2.890914,-41.904993,10,21.38077
1,Aral Moreira/MS,-22.951141,-55.6268421,256,2075.90010
D1,Aral Moreira/MS,-22.951141,-55.6268421,6,48.65391
1,Aramari/BA,-12.0907897,-38.4985065,244,2128.95908
D1,Aramari/BA,-12.0907897,-38.4985065,6,52.35145
1,Arambaré/RS,-30.9132252,-51.4994625,59,1656.37282
D1,Arambaré/RS,-30.9132252,-51.4994625,2,56.14823
1,Arame/MA,-4.8858769,-46.0102484,958,2923.94091
D1,Arame/MA,-4.8858769,-46.0102484,22,67.14687
1,Aramina/SP,-20.0876144,-47.789201,140,2475.68523
D1,Aramina/SP,-20.0876144,-47.789201,5,88.41733
1,Arandu/SP,-23.1345103,-49.0545651,98,1539.67007
D1,Arandu/SP,-23.1345103,-49.0545651,5,78.55460
1,Arantina/MG,-21.911667,-44.255833,35,1255.83064
D1,Arantina/MG,-21.911667,-44.255833,2,71.76175
1,Arapeí/SP,-22.6738889,-44.4477778,62,2520.32520
D1,Arapeí/SP,-22.6738889,-44.4477778,1,40.65041
1,Arapiraca/AL,-9.754866,-36.661471,14717,6315.03516
D1,Arapiraca/AL,-9.754866,-36.661471,191,81.95772
1,Arapoema/TO,-7.6575001,-49.0641484,161,2433.49456
D1,Arapoema/TO,-7.6575001,-49.0641484,4,60.45949
1,Araponga/MG,-20.666667,-42.520556,196,2318.70342
1,Arapongas/PR,-23.415296,-51.42592,5532,4432.33715
D1,Arapongas/PR,-23.415296,-51.42592,167,133.80338
1,Araporã/MG,-18.4318188,-49.188313,1050,15149.32910
D1,Araporã/MG,-18.4318188,-49.188313,10,144.27932
1,Arapoti/PR,-24.1457957,-49.8224605,998,3526.50177
D1,Arapoti/PR,-24.1457957,-49.8224605,5,17.66784
1,Araputanga/MT,-15.4710868,-58.346796,703,4147.24795
D1,Araputanga/MT,-15.4710868,-58.346796,11,64.89293
1,Arapuá/MG,-19.034444,-46.155556,51,1798.94180
1,Arapuã/PR,-24.3079525,-51.7901941,96,3190.42871
D1,Arapuã/PR,-24.3079525,-51.7901941,2,66.46726
1,Araquari/SC,-26.3703324,-48.7210994,1647,4167.08835
D1,Araquari/SC,-26.3703324,-48.7210994,22,55.66238
1,Arara/PB,-6.8271895,-35.7605703,287,2119.33245
D1,Arara/PB,-6.8271895,-35.7605703,9,66.45990
1,Araranguá/SC,-28.9348832,-49.4858389,5903,8571.59452
D1,Araranguá/SC,-28.9348832,-49.4858389,93,135.04291
1,Araraquara/SP,-21.7886713,-48.1773096,8347,3502.15449
D1,Araraquara/SP,-21.7886713,-48.1773096,95,39.85919
1,Araras/SP,-22.3569477,-47.3838889,6701,4945.16848
D1,Araras/SP,-22.3569477,-47.3838889,100,73.79747
1,Ararendá/CE,-4.7504395,-40.8303611,436,3978.46519
D1,Ararendá/CE,-4.7504395,-40.8303611,9,82.12428
1,Arari/MA,-3.4547602,-44.7772723,373,1246.15796
D1,Arari/MA,-3.4547602,-44.7772723,10,33.40906
1,Araricá/RS,-29.6168543,-50.929121,435,7537.68844
D1,Araricá/RS,-29.6168543,-50.929121,9,155.95217
1,Araripe/CE,-7.212861,-40.1359222,332,1533.20403
D1,Araripe/CE,-7.212861,-40.1359222,5,23.09042
1,Araripina/PE,-7.5768582,-40.5038509,3338,3933.35219
D1,Araripina/PE,-7.5768582,-40.5038509,54,63.63122
1,Araruama/RJ,-22.8733203,-42.3428897,2534,1886.91890
D1,Araruama/RJ,-22.8733203,-42.3428897,100,74.46405
1,Araruna/PB,-6.5321155,-35.7397595,489,2389.67893
D1,Araruna/PB,-6.5321155,-35.7397595,15,73.30303
1,Araruna/PR,-23.9320308,-52.4976047,534,3814.28571
D1,Araruna/PR,-23.9320308,-52.4976047,11,78.57143
1,Arataca/BA,-15.2617424,-39.4122943,295,2691.36028
D1,Arataca/BA,-15.2617424,-39.4122943,10,91.23255
1,Aratiba/RS,-27.3955734,-52.3024325,212,3425.43222
D1,Aratiba/RS,-27.3955734,-52.3024325,4,64.63080
1,Aratuba/CE,-4.4195958,-39.0463737,277,2347.05982
D1,Aratuba/CE,-4.4195958,-39.0463737,2,16.94628
1,Aratuípe/BA,-13.077137,-39.0010786,203,2297.15967
D1,Aratuípe/BA,-13.077137,-39.0010786,6,67.89634
1,Araucária/PR,-25.5861107,-49.4051209,11378,7781.74457
D1,Araucária/PR,-25.5861107,-49.4051209,134,91.64649
1,Arauá/SE,-11.2644014,-37.6181058,502,5046.74776
D1,Arauá/SE,-11.2644014,-37.6181058,11,110.58611
1,Araxá/MG,-19.5928536,-46.940241,3746,3489.94289
D1,Araxá/MG,-19.5928536,-46.940241,43,40.06074
1,Araçagi/PB,-6.8519969,-35.3835602,619,3658.17623
D1,Araçagi/PB,-6.8519969,-35.3835602,7,41.36871
1,Araçariguama/SP,-23.438611,-47.061389,599,2620.29746
D1,Araçariguama/SP,-23.438611,-47.061389,15,65.61680
1,Araçatuba/SP,-21.207992,-50.4390225,11828,5969.84793
D1,Araçatuba/SP,-21.207992,-50.4390225,229,115.58126
1,Araçaí/MG,-19.200833,-44.2475,11,467.28972
1,Araçoiaba da Serra/SP,-23.5045367,-47.6168158,1042,2996.31930
D1,Araçoiaba da Serra/SP,-23.5045367,-47.6168158,21,60.38647
1,Araçoiaba/PE,-7.7856903,-35.0898881,206,993.58511
D1,Araçoiaba/PE,-7.7856903,-35.0898881,20,96.46457
1,Araçu/GO,-16.3561579,-49.6815269,164,4704.53242
D1,Araçu/GO,-16.3561579,-49.6815269,4,114.74469
1,Araçuaí/MG,-16.8484451,-42.0661868,350,953.36675
D1,Araçuaí/MG,-16.8484451,-42.0661868,11,29.96295
1,Araçás/BA,-12.2139176,-38.2026159,450,3686.10747
D1,Araçás/BA,-12.2139176,-38.2026159,6,49.14810
1,Araújos/MG,-19.948055,-45.165556,251,2669.92873
D1,Araújos/MG,-19.948055,-45.165556,1,10.63717
1,Arceburgo/MG,-21.364444,-46.939722,257,2361.48121
D1,Arceburgo/MG,-21.364444,-46.939722,3,27.56593
1,Arco-Íris/SP,-21.7741308,-50.4668814,37,2086.85843
D1,Arco-Íris/SP,-21.7741308,-50.4668814,3,169.20474
1,Arcos/MG,-20.282223,-45.539444,1335,3306.09212
D1,Arcos/MG,-20.282223,-45.539444,17,42.10005
1,Arcoverde/PE,-8.415192,-37.057748,3205,4283.49951
D1,Arcoverde/PE,-8.415192,-37.057748,76,101.57440
1,Areado/MG,-21.3582771,-46.1476688,225,1482.11580
D1,Areado/MG,-21.3582771,-46.1476688,3,19.76154
1,Areal/RJ,-22.2314922,-43.1056264,328,2588.99676
D1,Areal/RJ,-22.2314922,-43.1056264,9,71.03955
1,Arealva/SP,-22.0301906,-48.9111936,258,2995.47196
D1,Arealva/SP,-22.0301906,-48.9111936,2,23.22071
1,Areia Branca/RN,-4.9506652,-37.1263312,1057,3779.45436
D1,Areia Branca/RN,-4.9506652,-37.1263312,56,200.23599
1,Areia Branca/SE,-10.7591455,-37.3148072,954,5105.42652
D1,Areia Branca/SE,-10.7591455,-37.3148072,22,117.73520
1,Areia de Baraúnas/PB,-7.1233949,-36.9446216,14,661.62571
1,Areia/PB,-6.9680243,-35.6994783,616,2718.92655
D1,Areia/PB,-6.9680243,-35.6994783,6,26.48305
1,Areial/PB,-7.0501306,-35.9245244,108,1536.92899
D1,Areial/PB,-7.0501306,-35.9245244,4,56.92330
1,Areias/SP,-22.5800929,-44.6975127,65,1668.37782
1,Areiópolis/SP,-22.6758064,-48.6673653,233,2088.18785
D1,Areiópolis/SP,-22.6758064,-48.6673653,4,35.84872
1,Arenápolis/MT,-14.4610369,-56.8432806,599,6303.93601
D1,Arenápolis/MT,-14.4610369,-56.8432806,8,84.19280
1,Arenópolis/GO,-16.3859286,-51.55937,32,1261.82965
1,Argirita/MG,-21.612761,-42.8371922,131,4844.67456
D1,Argirita/MG,-21.612761,-42.8371922,5,184.91124
1,Aricanduva/MG,-17.8678,-42.5569,18,341.62080
1,Arinos/MG,-15.917223,-46.106111,168,940.54417
D1,Arinos/MG,-15.917223,-46.106111,4,22.39391
1,Aripuanã/MT,-10.175806,-59.4439663,1052,4631.50480
D1,Aripuanã/MT,-10.175806,-59.4439663,16,70.44114
1,Ariquemes/RO,-9.9076522,-63.033069,9010,8226.58254
D1,Ariquemes/RO,-9.9076522,-63.033069,160,146.08804
1,Ariranha do Ivaí/PR,-24.3834527,-51.5876772,42,2032.91384
D1,Ariranha do Ivaí/PR,-24.3834527,-51.5876772,1,48.40271
1,Ariranha/SP,-21.18716,-48.790418,218,2233.37773
D1,Ariranha/SP,-21.18716,-48.790418,11,112.69337
1,Armazém/SC,-28.2624996,-49.0190126,682,7786.27697
D1,Armazém/SC,-28.2624996,-49.0190126,6,68.50097
1,Armação dos Búzios/RJ,-22.7597805,-41.8875267,1855,5380.39853
D1,Armação dos Búzios/RJ,-22.7597805,-41.8875267,22,63.81066
1,Arneiroz/CE,-6.3235099,-40.1603859,72,917.89903
D1,Arneiroz/CE,-6.3235099,-40.1603859,6,76.49159
1,Aroazes/PI,-6.1108814,-41.7886137,157,2694.35387
D1,Aroazes/PI,-6.1108814,-41.7886137,5,85.80745
1,Aroeiras do Itaim/PI,-7.2797031,-41.5629681,93,3645.62917
D1,Aroeiras do Itaim/PI,-7.2797031,-41.5629681,1,39.20031
1,Aroeiras/PB,-7.5462904,-35.7080002,323,1689.68403
D1,Aroeiras/PB,-7.5462904,-35.7080002,3,15.69366
1,Arraial do Cabo/RJ,-22.9662839,-42.024427,419,1369.59435
D1,Arraial do Cabo/RJ,-22.9662839,-42.024427,9,29.41849
1,Arraial/PI,-6.6541632,-42.5335332,83,1758.47458
D1,Arraial/PI,-6.6541632,-42.5335332,1,21.18644
1,Arraias/TO,-12.9287788,-46.9437231,174,1651.79419
1,Arroio Grande/RS,-32.2384246,-53.0866661,518,2840.22371
D1,Arroio Grande/RS,-32.2384246,-53.0866661,5,27.41529
1,Arroio Trinta/SC,-26.9301976,-51.334928,225,6339.81403
D1,Arroio Trinta/SC,-26.9301976,-51.334928,2,56.35390
1,Arroio do Meio/RS,-29.4020392,-51.9444993,1050,5007.86951
D1,Arroio do Meio/RS,-29.4020392,-51.9444993,9,42.92460
1,Arroio do Padre/RS,-31.4428773,-52.4228985,72,2439.85090
1,Arroio do Sal/RS,-29.549852,-49.8874395,450,4377.85777
D1,Arroio do Sal/RS,-29.549852,-49.8874395,10,97.28573
1,Arroio do Tigre/RS,-29.334158,-53.0888935,281,2094.98248
D1,Arroio do Tigre/RS,-29.334158,-53.0888935,3,22.36636
1,Arroio dos Ratos/RS,-30.0894524,-51.7265541,352,2482.89483
D1,Arroio dos Ratos/RS,-30.0894524,-51.7265541,16,112.85886
1,Artur Nogueira/SP,-22.572737,-47.172679,1618,2923.74413
D1,Artur Nogueira/SP,-22.572737,-47.172679,41,74.08746
1,Aruanã/GO,-14.9162439,-51.0715692,201,1988.13056
D1,Aruanã/GO,-14.9162439,-51.0715692,1,9.89120
1,Arujá/SP,-23.396266,-46.3175449,3263,3579.53860
D1,Arujá/SP,-23.396266,-46.3175449,118,129.44700
1,Arvoredo/SC,-27.0752908,-52.4571847,85,3804.83438
D1,Arvoredo/SC,-27.0752908,-52.4571847,1,44.76276
1,Arvorezinha/RS,-28.87369,-52.17808,352,3377.14669
D1,Arvorezinha/RS,-28.87369,-52.17808,9,86.34750
1,Arês/RN,-6.1969216,-35.1642968,403,2795.31109
D1,Arês/RN,-6.1969216,-35.1642968,11,76.29881
1,Ascurra/SC,-26.9569975,-49.3767752,584,7320.13036
D1,Ascurra/SC,-26.9569975,-49.3767752,2,25.06894
1,Aspásia/SP,-20.160028,-50.728046,60,3300.33003
D1,Aspásia/SP,-20.160028,-50.728046,2,110.01100
1,Assaré/CE,-6.8746791,-39.8741385,932,3969.67374
D1,Assaré/CE,-6.8746791,-39.8741385,13,55.37099
1,Assaí/PR,-23.3736041,-50.8454929,476,3183.09482
D1,Assaí/PR,-23.3736041,-50.8454929,15,100.30761
1,Assis Brasil/AC,-10.9409203,-69.5672108,813,10791.08044
D1,Assis Brasil/AC,-10.9409203,-69.5672108,9,119.45846
1,Assis Chateaubriand/PR,-24.4054826,-53.5120468,1565,4694.06119
D1,Assis Chateaubriand/PR,-24.4054826,-53.5120468,22,65.98680
1,Assis/SP,-22.6620892,-50.420623,2637,2509.34940
D1,Assis/SP,-22.6620892,-50.420623,45,42.82166
1,Assunção do Piauí/PI,-5.8610212,-41.0485091,157,1996.69337
D1,Assunção do Piauí/PI,-5.8610212,-41.0485091,3,38.15338
1,Assunção/PB,-7.073396,-36.7274003,70,1737.40382
1,Astolfo Dutra/MG,-21.3132636,-42.8624102,714,5003.50385
D1,Astolfo Dutra/MG,-21.3132636,-42.8624102,12,84.09250
1,Astorga/PR,-23.2350184,-51.6647074,1126,4296.23412
D1,Astorga/PR,-23.2350184,-51.6647074,19,72.49418
1,Atalaia do Norte/AM,-4.3658547,-70.1908742,1764,8647.90666
D1,Atalaia do Norte/AM,-4.3658547,-70.1908742,5,24.51221
1,Atalaia/AL,-9.5029595,-36.0219316,667,1408.21282
D1,Atalaia/AL,-9.5029595,-36.0219316,26,54.89285
1,Atalaia/PR,-23.1513833,-52.0529697,142,3658.85081
D1,Atalaia/PR,-23.1513833,-52.0529697,3,77.29967
1,Atalanta/SC,-27.421916,-49.778863,94,2942.09703
1,Ataléia/MG,-18.04432,-41.1110524,336,2650.26029
D1,Ataléia/MG,-18.04432,-41.1110524,4,31.55072
1,Atibaia/SP,-23.1177393,-46.5547861,3998,2774.69324
D1,Atibaia/SP,-23.1177393,-46.5547861,89,61.76781
1,Atilio Vivacqua/ES,-20.9139369,-41.1947519,830,6856.67080
D1,Atilio Vivacqua/ES,-20.9139369,-41.1947519,14,115.65469
1,Augustinópolis/TO,-5.4662267,-47.8897519,812,4355.52218
D1,Augustinópolis/TO,-5.4662267,-47.8897519,11,59.00338
1,Augusto Corrêa/PA,-1.0229335,-46.6404029,1484,3193.38943
D1,Augusto Corrêa/PA,-1.0229335,-46.6404029,22,47.34135
1,Augusto Pestana/RS,-28.5148413,-53.9906433,99,1499.54559
D1,Augusto Pestana/RS,-28.5148413,-53.9906433,2,30.29385
1,Augusto de Lima/MG,-18.1092963,-44.2651945,108,2226.34508
D1,Augusto de Lima/MG,-18.1092963,-44.2651945,2,41.22861
1,Aurelino Leal/BA,-14.3167137,-39.3256107,647,5726.17046
D1,Aurelino Leal/BA,-14.3167137,-39.3256107,16,141.60545
1,Auriflama/SP,-20.6840418,-50.5554616,765,5015.40681
D1,Auriflama/SP,-20.6840418,-50.5554616,14,91.78522
1,Aurilândia/GO,-16.6772599,-50.4641231,67,2190.97449
D1,Aurilândia/GO,-16.6772599,-50.4641231,2,65.40222
1,Aurora do Pará/PA,-2.1323199,-47.558436,706,2222.01240
D1,Aurora do Pará/PA,-2.1323199,-47.558436,8,25.17861
1,Aurora do Tocantins/TO,-12.71045,-46.407604,100,2643.40471
1,Aurora/CE,-6.9426019,-38.9693765,905,3677.36692
D1,Aurora/CE,-6.9426019,-38.9693765,24,97.52133
1,Aurora/SC,-27.3166417,-49.6368502,233,4099.94721
D1,Aurora/SC,-27.3166417,-49.6368502,4,70.38536
1,Autazes/AM,-3.5833283,-59.1301518,1819,4514.76793
D1,Autazes/AM,-3.5833283,-59.1301518,45,111.69025
1,Avanhandava/SP,-21.4603331,-49.9465156,296,2135.79623
D1,Avanhandava/SP,-21.4603331,-49.9465156,10,72.15528
1,Avaré/SP,-23.1045215,-48.9259103,1367,1498.37776
D1,Avaré/SP,-23.1045215,-48.9259103,24,26.30656
1,Avaí/SP,-22.1564662,-49.3316395,141,2593.81898
D1,Avaí/SP,-22.1564662,-49.3316395,3,55.18764
1,Aveiro/PA,-3.6049239,-55.3310742,455,2773.71373
D1,Aveiro/PA,-3.6049239,-55.3310742,5,30.48037
1,Avelino Lopes/PI,-10.1346855,-43.9489525,176,1553.94667
D1,Avelino Lopes/PI,-10.1346855,-43.9489525,15,132.43864
1,Avelinópolis/GO,-16.4672409,-49.7578661,143,5936.07306
D1,Avelinópolis/GO,-16.4672409,-49.7578661,2,83.02200
1,Axixá do Tocantins/TO,-5.612747,-47.77007,584,5967.09921
D1,Axixá do Tocantins/TO,-5.612747,-47.77007,5,51.08818
1,Axixá/MA,-2.8379465,-44.0561053,142,1165.55857
D1,Axixá/MA,-2.8379465,-44.0561053,3,24.62448
1,Açailândia/MA,-4.9514278,-47.4844564,3741,3307.07826
D1,Açailândia/MA,-4.9514278,-47.4844564,104,91.93695
1,Açu/RN,-5.5836157,-36.9139541,2545,4359.07098
D1,Açu/RN,-5.5836157,-36.9139541,84,143.87503
1,Açucena/MG,-19.073056,-42.546666,179,1910.76003
D1,Açucena/MG,-19.073056,-42.546666,6,64.04782
1,Babaçulândia/TO,-7.2034355,-47.761613,433,4059.62873
D1,Babaçulândia/TO,-7.2034355,-47.761613,4,37.50234
1,Bacabal/MA,-4.2318132,-44.781167,3703,3533.73413
D1,Bacabal/MA,-4.2318132,-44.781167,74,70.61743
1,Bacabeira/MA,-2.9775747,-44.3155943,166,962.20728
D1,Bacabeira/MA,-2.9775747,-44.3155943,3,17.38929
1,Bacuri/MA,-1.728894,-45.1417148,429,2299.77485
D1,Bacuri/MA,-1.728894,-45.1417148,4,21.44312
1,Bacurituba/MA,-2.7082587,-44.7381309,93,1640.21164
1,Bady Bassitt/SP,-20.9178969,-49.4517911,1296,7296.88644
D1,Bady Bassitt/SP,-20.9178969,-49.4517911,23,129.49721
1,Baependi/MG,-21.959162,-44.8899249,416,2166.77952
D1,Baependi/MG,-21.959162,-44.8899249,8,41.66884
1,Bagre/PA,-1.8994498,-50.2103844,535,1707.90104
D1,Bagre/PA,-1.8994498,-50.2103844,11,35.11572
1,Bagé/RS,-31.3314264,-54.1062808,3113,2565.62410
D1,Bagé/RS,-31.3314264,-54.1062808,64,52.74653
1,Baianópolis/BA,-12.3067564,-44.5383591,186,1335.34353
D1,Baianópolis/BA,-12.3067564,-44.5383591,2,14.35853
1,Baixa Grande do Ribeiro/PI,-7.862861,-45.2113289,1571,13460.71459
D1,Baixa Grande do Ribeiro/PI,-7.862861,-45.2113289,15,128.52369
1,Baixa Grande/BA,-11.9630941,-40.1657537,373,1824.05008
D1,Baixa Grande/BA,-11.9630941,-40.1657537,3,14.67064
1,Baixio/CE,-6.7303544,-38.7170095,131,2078.37538
D1,Baixio/CE,-6.7303544,-38.7170095,3,47.59638
1,Baixo Guandu/ES,-19.5138322,-41.0182089,2056,6604.13722
D1,Baixo Guandu/ES,-19.5138322,-41.0182089,35,112.42451
1,Baião/PA,-2.7903479,-49.6702845,457,943.06527
D1,Baião/PA,-2.7903479,-49.6702845,15,30.95400
1,Balbinos/SP,-21.9006253,-49.3583966,261,4398.38220
D1,Balbinos/SP,-21.9006253,-49.3583966,3,50.55612
1,Baldim/MG,-19.2913568,-43.9558262,230,2947.58426
D1,Baldim/MG,-19.2913568,-43.9558262,5,64.07792
1,Baliza/GO,-16.1978119,-52.542789,81,1534.09091
1,Balneário Arroio do Silva/SC,-28.9815269,-49.4189932,1055,7855.54728
D1,Balneário Arroio do Silva/SC,-28.9815269,-49.4189932,18,134.02829
1,Balneário Barra do Sul/SC,-26.459842,-48.6061471,843,7639.32941
D1,Balneário Barra do Sul/SC,-26.459842,-48.6061471,15,135.93113
1,Balneário Camboriú/SC,-26.9924395,-48.6339782,15716,10779.44525
D1,Balneário Camboriú/SC,-26.9924395,-48.6339782,160,109.74238
1,Balneário Gaivota/SC,-29.1553098,-49.5808712,742,6589.69805
D1,Balneário Gaivota/SC,-29.1553098,-49.5808712,11,97.69094
1,Balneário Pinhal/RS,-30.2482978,-50.234585,564,3926.75625
D1,Balneário Pinhal/RS,-30.2482978,-50.234585,14,97.47267
1,Balneário Piçarras/SC,-26.7638889,-48.6716667,2368,9961.29901
D1,Balneário Piçarras/SC,-26.7638889,-48.6716667,18,75.71933
1,Balneário Rincão/SC,-28.8235718,-49.2241642,845,6527.11262
D1,Balneário Rincão/SC,-28.8235718,-49.2241642,20,154.48787
1,Balsa Nova/PR,-25.5842234,-49.6312741,552,4216.31531
D1,Balsa Nova/PR,-25.5842234,-49.6312741,11,84.02078
1,Balsas/MA,-7.53214,-46.037163,7079,7379.41603
D1,Balsas/MA,-7.53214,-46.037163,87,90.69207
1,Bambuí/MG,-20.0131996,-45.9777034,190,795.04561
D1,Bambuí/MG,-20.0131996,-45.9777034,1,4.18445
1,Banabuiú/CE,-5.3046404,-38.919766,662,3626.20508
D1,Banabuiú/CE,-5.3046404,-38.919766,4,21.91060
1,Bananal/SP,-22.6828195,-44.3221095,224,2037.66033
D1,Bananal/SP,-22.6828195,-44.3221095,1,9.09670
1,Bananeiras/PB,-6.7537682,-35.6338343,591,2778.69199
D1,Bananeiras/PB,-6.7537682,-35.6338343,3,14.10504
1,Bandeira do Sul/MG,-21.728056,-46.385555,78,1349.94808
D1,Bandeira do Sul/MG,-21.728056,-46.385555,3,51.92108
1,Bandeira/MG,-15.884444,-40.559167,389,8161.98070
D1,Bandeira/MG,-15.884444,-40.559167,5,104.90978
1,Bandeirante/SC,-26.7677402,-53.6397596,45,1699.39577
1,Bandeirantes do Tocantins/TO,-7.7635698,-48.579148,163,4537.86192
D1,Bandeirantes do Tocantins/TO,-7.7635698,-48.579148,2,55.67929
1,Bandeirantes/MS,-19.9179623,-54.3646768,228,3137.90256
D1,Bandeirantes/MS,-19.9179623,-54.3646768,4,55.05092
1,Bandeirantes/PR,-23.107788,-50.370407,1599,5123.19375
D1,Bandeirantes/PR,-23.107788,-50.370407,42,134.56794
1,Bannach/PA,-7.3508505,-50.4064531,121,3709.38075
D1,Bannach/PA,-7.3508505,-50.4064531,2,61.31208
1,Banzaê/BA,-10.5827616,-38.6122305,684,5166.16314
D1,Banzaê/BA,-10.5827616,-38.6122305,4,30.21148
1,Baraúna/PB,-6.643394,-36.2531932,155,3122.48187
1,Baraúna/RN,-5.0775002,-37.61752,650,2261.10551
D1,Baraúna/RN,-5.0775002,-37.61752,17,59.13661
1,Barbacena/MG,-21.2254524,-43.7735087,2690,1946.39808
D1,Barbacena/MG,-21.2254524,-43.7735087,49,35.45483
1,Barbalha/CE,-7.3121067,-39.3036427,2521,4117.39727
D1,Barbalha/CE,-7.3121067,-39.3036427,58,94.72790
1,Barbosa Ferraz/PR,-24.0287182,-52.00811,352,3080.69316
D1,Barbosa Ferraz/PR,-24.0287182,-52.00811,4,35.00788
1,Barbosa/SP,-21.265661,-49.951816,196,2624.53133
D1,Barbosa/SP,-21.265661,-49.951816,3,40.17140
1,Barcarena/PA,-1.5107945,-48.6190679,4729,3722.83058
D1,Barcarena/PA,-1.5107945,-48.6190679,128,100.76598
1,Barcelona/RN,-5.9514918,-35.9260284,41,1026.53981
D1,Barcelona/RN,-5.9514918,-35.9260284,5,125.18778
1,Barcelos/AM,-0.9729214,-62.925635,3378,12222.30263
D1,Barcelos/AM,-0.9729214,-62.925635,35,126.63724
1,Bariri/SP,-22.0746355,-48.7394852,1433,4030.03544
D1,Bariri/SP,-22.0746355,-48.7394852,33,92.80612
1,Barra Bonita/SC,-26.6526364,-53.4419581,49,2967.89824
1,Barra Bonita/SP,-22.490859,-48.558349,1354,3747.99314
D1,Barra Bonita/SP,-22.490859,-48.558349,29,80.27459
1,Barra D'Alcântara/PI,-6.5209258,-42.1071089,64,1619.43320
D1,Barra D'Alcântara/PI,-6.5209258,-42.1071089,1,25.30364
1,Barra Funda/RS,-27.9230048,-53.0401045,206,8075.26460
D1,Barra Funda/RS,-27.9230048,-53.0401045,3,117.60094
1,Barra Longa/MG,-20.2833541,-43.0423516,122,2432.70189
1,Barra Mansa/RJ,-22.5394843,-44.1735129,6759,3656.81453
D1,Barra Mansa/RJ,-22.5394843,-44.1735129,238,128.76489
1,Barra Velha/SC,-26.6338203,-48.6835001,1853,6205.62626
D1,Barra Velha/SC,-26.6338203,-48.6835001,33,110.51574
1,Barra da Estiva/BA,-13.6269662,-41.3278287,942,4619.45861
D1,Barra da Estiva/BA,-13.6269662,-41.3278287,4,19.61554
1,Barra de Guabiraba/PE,-8.4173522,-35.6626669,210,1447.27774
D1,Barra de Guabiraba/PE,-8.4173522,-35.6626669,11,75.80979
1,Barra de Santa Rosa/PB,-6.7218007,-36.0564638,374,2413.37033
D1,Barra de Santa Rosa/PB,-6.7218007,-36.0564638,2,12.90572
1,Barra de Santana/PB,-7.5230865,-35.9988518,242,2898.55072
D1,Barra de Santana/PB,-7.5230865,-35.9988518,3,35.93245
1,Barra de Santo Antônio/AL,-9.4038098,-35.5117693,146,908.63829
D1,Barra de Santo Antônio/AL,-9.4038098,-35.5117693,15,93.35325
1,Barra de São Francisco/ES,-18.7570902,-40.8916119,1865,4146.37942
D1,Barra de São Francisco/ES,-18.7570902,-40.8916119,56,124.50255
1,Barra de São Miguel/AL,-9.8261357,-35.8837777,203,2423.01265
D1,Barra de São Miguel/AL,-9.8261357,-35.8837777,5,59.68011
1,Barra de São Miguel/PB,-7.7528088,-36.3170996,141,2324.81451
D1,Barra de São Miguel/PB,-7.7528088,-36.3170996,1,16.48805
1,Barra do Bugres/MT,-15.0683712,-57.1853688,1339,3792.44909
D1,Barra do Bugres/MT,-15.0683712,-57.1853688,27,76.47209
1,Barra do Chapéu/SP,-24.472203,-49.023784,79,1371.52778
1,Barra do Choça/BA,-14.8638173,-40.5761637,879,2816.49524
D1,Barra do Choça/BA,-14.8638173,-40.5761637,9,28.83784
1,Barra do Corda/MA,-5.496823,-45.248496,4085,4616.23650
D1,Barra do Corda/MA,-5.496823,-45.248496,47,53.11215
1,Barra do Garças/MT,-15.8916033,-52.2615413,3878,6343.33851
D1,Barra do Garças/MT,-15.8916033,-52.2615413,136,222.45849
1,Barra do Guarita/RS,-27.1888016,-53.7147086,65,1995.70157
1,Barra do Jacaré/PR,-23.1151788,-50.1813945,66,2373.24703
1,Barra do Mendes/BA,-11.8053298,-42.057037,519,3751.89764
D1,Barra do Mendes/BA,-11.8053298,-42.057037,6,43.37454
1,Barra do Ouro/TO,-7.7113784,-47.6743925,85,1835.06045
D1,Barra do Ouro/TO,-7.7113784,-47.6743925,5,107.94473
1,Barra do Piraí/RJ,-22.4703403,-43.8263256,2546,2526.69604
D1,Barra do Piraí/RJ,-22.4703403,-43.8263256,107,106.18872
1,Barra do Quaraí/RS,-30.208947,-57.5505128,156,3690.56068
D1,Barra do Quaraí/RS,-30.208947,-57.5505128,1,23.65744
1,Barra do Ribeiro/RS,-30.2930206,-51.301437,387,2854.82443
D1,Barra do Ribeiro/RS,-30.2930206,-51.301437,27,199.17380
1,Barra do Rio Azul/RS,-27.4101581,-52.4117471,20,1208.45921
D1,Barra do Rio Azul/RS,-27.4101581,-52.4117471,1,60.42296
1,Barra do Rocha/BA,-14.2090974,-39.6004395,182,3243.05061
D1,Barra do Rocha/BA,-14.2090974,-39.6004395,3,53.45688
1,Barra do Turvo/SP,-24.756421,-48.5056942,268,3511.53040
D1,Barra do Turvo/SP,-24.756421,-48.5056942,7,91.71908
1,Barra dos Coqueiros/SE,-10.9075694,-37.0386249,2735,8842.54769
D1,Barra dos Coqueiros/SE,-10.9075694,-37.0386249,33,106.69253
1,Barra/BA,-11.0892702,-43.1420453,686,1272.49119
D1,Barra/BA,-11.0892702,-43.1420453,13,24.11426
1,Barracão/PR,-26.252395,-53.6349576,350,3394.10396
D1,Barracão/PR,-26.252395,-53.6349576,7,67.88208
1,Barracão/RS,-27.6728964,-51.4582928,172,3272.45053
D1,Barracão/RS,-27.6728964,-51.4582928,4,76.10350
1,Barras/PI,-4.2446153,-42.2920241,3249,6885.66282
D1,Barras/PI,-4.2446153,-42.2920241,61,129.27837
1,Barreira/CE,-4.2883361,-38.641094,380,1683.42710
D1,Barreira/CE,-4.2883361,-38.641094,21,93.03150
1,Barreiras do Piauí/PI,-9.9224524,-45.4763776,41,1223.15036
D1,Barreiras do Piauí/PI,-9.9224524,-45.4763776,1,29.83294
1,Barreiras/BA,-12.1440031,-44.9967406,7827,4986.14429
D1,Barreiras/BA,-12.1440031,-44.9967406,107,68.16372
1,Barreirinha/AM,-2.798863,-57.067897,1593,4904.10369
D1,Barreirinha/AM,-2.798863,-57.067897,28,86.19893
1,Barreirinhas/MA,-2.7541271,-42.8259693,1366,2160.81117
D1,Barreirinhas/MA,-2.7541271,-42.8259693,27,42.71003
1,Barreiros/PE,-8.8159644,-35.1831905,368,860.53690
D1,Barreiros/PE,-8.8159644,-35.1831905,41,95.87504
1,Barretos/SP,-20.5531437,-48.5697509,6562,5342.21260
D1,Barretos/SP,-20.5531437,-48.5697509,161,131.07227
1,Barrinha/SP,-21.1898849,-48.1550642,854,2573.83966
D1,Barrinha/SP,-21.1898849,-48.1550642,34,102.47137
1,Barro Alto/BA,-11.7618025,-41.9094904,522,3467.51694
D1,Barro Alto/BA,-11.7618025,-41.9094904,4,26.57101
1,Barro Alto/GO,-14.9696025,-48.9190985,638,5592.56662
D1,Barro Alto/GO,-14.9696025,-48.9190985,8,70.12623
1,Barro Duro/PI,-5.8180139,-42.5106589,467,6645.79479
D1,Barro Duro/PI,-5.8180139,-42.5106589,7,99.61577
1,Barro Preto/BA,-14.8068289,-39.4727588,344,6314.24376
D1,Barro Preto/BA,-14.8068289,-39.4727588,6,110.13216
1,Barro/CE,-7.1713587,-38.7742136,499,2192.63556
D1,Barro/CE,-7.1713587,-38.7742136,10,43.94059
1,Barrocas/BA,-11.5165,-39.099282894736845,240,1490.22043
D1,Barrocas/BA,-11.5165,-39.099282894736845,4,24.83701
1,Barrolândia/TO,-9.837246,-48.7264346,254,4494.77969
D1,Barrolândia/TO,-9.837246,-48.7264346,4,70.78393
1,Barroquinha/CE,-3.0200371,-41.1339229,825,5483.91385
D1,Barroquinha/CE,-3.0200371,-41.1339229,20,132.94337
1,Barros Cassal/RS,-29.094938,-52.5832366,250,2235.73600
D1,Barros Cassal/RS,-29.094938,-52.5832366,2,17.88589
1,Barroso/MG,-21.187222,-43.976111,383,1832.79897
D1,Barroso/MG,-21.187222,-43.976111,3,14.35613
1,Barueri/SP,-23.5112184,-46.8764612,12505,4514.73381
D1,Barueri/SP,-23.5112184,-46.8764612,473,170.76922
1,Barão de Antonina/SP,-23.6295651,-49.5632104,28,800.45740
D1,Barão de Antonina/SP,-23.6295651,-49.5632104,1,28.58776
1,Barão de Cocais/MG,-19.9452437,-43.4870298,1184,3602.50715
D1,Barão de Cocais/MG,-19.9452437,-43.4870298,9,27.38392
1,Barão de Cotegipe/RS,-27.6214694,-52.3765316,306,4622.35650
D1,Barão de Cotegipe/RS,-27.6214694,-52.3765316,4,60.42296
1,Barão de Grajaú/MA,-6.7542591,-43.0263477,27,142.67597
D1,Barão de Grajaú/MA,-6.7542591,-43.0263477,1,5.28430
1,Barão de Melgaço/MT,-16.195776,-55.9668049,143,1751.59236
D1,Barão de Melgaço/MT,-16.195776,-55.9668049,6,73.49339
1,Barão de Monte Alto/MG,-21.244722,-42.2375,120,2241.31490
D1,Barão de Monte Alto/MG,-21.244722,-42.2375,5,93.38812
1,Barão do Triunfo/RS,-30.3909877,-51.7375349,176,2340.73680
D1,Barão do Triunfo/RS,-30.3909877,-51.7375349,1,13.29964
1,Barão/RS,-29.372474,-51.494908,224,3611.73815
D1,Barão/RS,-29.372474,-51.494908,3,48.37149
1,Bastos/SP,-21.9222474,-50.7317727,281,1341.09674
D1,Bastos/SP,-21.9222474,-50.7317727,7,33.40810
1,Bataguassu/MS,-21.715899,-52.422058,1472,6310.82529
D1,Bataguassu/MS,-21.715899,-52.422058,12,51.44695
1,Batalha/AL,-9.6733809,-37.1265481,667,3637.25597
D1,Batalha/AL,-9.6733809,-37.1265481,12,65.43789
1,Batalha/PI,-4.022391,-42.0780926,497,1847.24029
D1,Batalha/PI,-4.022391,-42.0780926,12,44.60138
1,Batatais/SP,-20.892867,-47.592149,1034,1641.79104
D1,Batatais/SP,-20.892867,-47.592149,34,53.98539
1,Batayporã/MS,-22.2976466,-53.2685608,382,3365.93532
D1,Batayporã/MS,-22.2976466,-53.2685608,7,61.67944
1,Baturité/CE,-4.3290203,-38.8821055,814,2264.82290
D1,Baturité/CE,-4.3290203,-38.8821055,33,91.81714
1,Bauru/SP,-22.3218102,-49.0705863,20437,5388.12593
D1,Bauru/SP,-22.3218102,-49.0705863,323,85.15754
1,Bayeux/PB,-7.1301631,-34.936532,2710,2787.97979
D1,Bayeux/PB,-7.1301631,-34.936532,130,133.74073
1,Baía Formosa/RN,-6.3691885,-35.0063741,198,2124.00772
D1,Baía Formosa/RN,-6.3691885,-35.0063741,6,64.36387
1,Baía da Traição/PB,-6.691258,-34.9371244,928,10202.28672
D1,Baía da Traição/PB,-6.691258,-34.9371244,8,87.95075
1,Bebedouro/SP,-20.949077,-48.479083,1929,2487.26710
D1,Bebedouro/SP,-20.949077,-48.479083,40,51.57630
1,Beberibe/CE,-4.1810469,-38.1298101,1330,2465.29129
D1,Beberibe/CE,-4.1810469,-38.1298101,31,57.46168
1,Bela Cruz/CE,-3.0529129,-40.167582,1375,4202.06589
D1,Bela Cruz/CE,-3.0529129,-40.167582,24,73.34515
1,Bela Vista da Caroba/PR,-25.8792818,-53.6672545,67,1938.09662
D1,Bela Vista da Caroba/PR,-25.8792818,-53.6672545,1,28.92682
1,Bela Vista de Goiás/GO,-16.9692949,-48.9513071,1251,4102.71547
D1,Bela Vista de Goiás/GO,-16.9692949,-48.9513071,22,72.15007
1,Bela Vista de Minas/MG,-19.8289721,-43.0973688,256,2494.64042
D1,Bela Vista de Minas/MG,-19.8289721,-43.0973688,5,48.72345
1,Bela Vista do Maranhão/MA,-3.7416367,-45.2514192,155,1374.23530
D1,Bela Vista do Maranhão/MA,-3.7416367,-45.2514192,8,70.92827
1,Bela Vista do Paraíso/PR,-22.9948493,-51.1907996,484,3143.06124
D1,Bela Vista do Paraíso/PR,-22.9948493,-51.1907996,8,51.95143
1,Bela Vista do Piauí/PI,-7.9716353,-41.8715061,195,4838.70968
D1,Bela Vista do Piauí/PI,-7.9716353,-41.8715061,3,74.44169
1,Bela Vista do Toldo/SC,-26.274625,-50.466354,26,408.67652
D1,Bela Vista do Toldo/SC,-26.274625,-50.466354,1,15.71833
1,Bela Vista/MS,-22.107327,-56.5317344,193,780.27087
D1,Bela Vista/MS,-22.107327,-56.5317344,7,28.29998
1,Belford Roxo/RJ,-22.7667284,-43.4033603,15650,3049.98071
D1,Belford Roxo/RJ,-22.7667284,-43.4033603,392,76.39568
1,Belmiro Braga/MG,-21.9486291,-43.413564,71,2072.99270
D1,Belmiro Braga/MG,-21.9486291,-43.413564,3,87.59124
1,Belmonte/BA,-15.8630837,-38.8792845,656,2798.99305
D1,Belmonte/BA,-15.8630837,-38.8792845,6,25.60055
1,Belmonte/SC,-26.8448262,-53.578916,65,2399.40938
1,Belo Campo/BA,-15.0338286,-41.2585109,254,1484.59875
D1,Belo Campo/BA,-15.0338286,-41.2585109,3,17.53463
1,Belo Horizonte/MG,-19.9227318,-43.9450948,76567,3036.48847
D1,Belo Horizonte/MG,-19.9227318,-43.9450948,2040,80.90217
1,Belo Jardim/PE,-8.3338293,-36.4176419,1444,1882.97886
D1,Belo Jardim/PE,-8.3338293,-36.4176419,41,53.46408
1,Belo Monte/AL,-9.8269944,-37.2787165,189,2816.69151
D1,Belo Monte/AL,-9.8269944,-37.2787165,6,89.41878
1,Belo Oriente/MG,-19.2232523,-42.4807033,1219,4515.81833
D1,Belo Oriente/MG,-19.2232523,-42.4807033,23,85.20412
1,Belo Vale/MG,-20.407778,-44.024167,216,2798.28993
D1,Belo Vale/MG,-20.407778,-44.024167,6,77.73028
1,Belterra/PA,-2.636091,-54.937392,564,3161.61220
D1,Belterra/PA,-2.636091,-54.937392,14,78.47974
1,Belágua/MA,-3.1604031,-43.5085052,279,3706.16366
D1,Belágua/MA,-3.1604031,-43.5085052,2,26.56748
1,Belém de Maria/PE,-8.6242497,-35.8388934,113,932.18941
D1,Belém de Maria/PE,-8.6242497,-35.8388934,3,24.74839
1,Belém do Brejo do Cruz/PB,-6.1880727,-37.5332267,354,4816.98190
D1,Belém do Brejo do Cruz/PB,-6.1880727,-37.5332267,5,68.03647
1,Belém do Piauí/PI,-7.3767305,-40.9712156,229,6384.16504
D1,Belém do Piauí/PI,-7.3767305,-40.9712156,4,111.51380
1,Belém do São Francisco/PE,-8.7517707,-38.9625715,185,892.42644
1,Belém/AL,-9.5715351,-36.492841,73,1704.01494
D1,Belém/AL,-9.5715351,-36.492841,3,70.02801
1,Belém/PA,-1.45056,-48.4682453,61402,4094.44660
D1,Belém/PA,-1.45056,-48.4682453,2510,167.37339
1,Belém/PB,-6.6967586,-35.5369626,1192,6732.56142
D1,Belém/PB,-6.6967586,-35.5369626,19,107.31432
1,Beneditinos/PI,-5.4565671,-42.3605061,401,3828.89334
D1,Beneditinos/PI,-5.4565671,-42.3605061,15,143.22544
1,Benedito Leite/MA,-7.2173453,-44.5523331,231,4097.19759
D1,Benedito Leite/MA,-7.2173453,-44.5523331,2,35.47357
1,Benedito Novo/SC,-26.7840657,-49.3629511,483,4101.91083
D1,Benedito Novo/SC,-26.7840657,-49.3629511,5,42.46285
1,Benevides/PA,-1.3555577,-48.252235,2290,3591.14289
D1,Benevides/PA,-1.3555577,-48.252235,51,79.97742
1,Benjamin Constant do Sul/RS,-27.5105555,-52.6007689,121,6179.77528
1,Benjamin Constant/AM,-4.3782748,-70.0290603,1972,4488.44884
D1,Benjamin Constant/AM,-4.3782748,-70.0290603,46,104.70013
1,Bento Fernandes/RN,-5.6926846,-35.8207423,40,723.98190
D1,Bento Fernandes/RN,-5.6926846,-35.8207423,2,36.19910
1,Bento Gonçalves/RS,-29.1654014,-51.5197627,7743,6356.98628
D1,Bento Gonçalves/RS,-29.1654014,-51.5197627,150,123.14968
1,Bento de Abreu/SP,-21.2707225,-50.8120444,74,2462.56240
1,Bequimão/MA,-2.4495376,-44.7884889,246,1154.98380
D1,Bequimão/MA,-2.4495376,-44.7884889,12,56.34067
1,Berilo/MG,-16.9515764,-42.4643732,10,84.23181
1,Berizal/MG,-15.6118785,-41.7417382,24,503.77834
1,Bernardino Batista/PB,-6.4532173,-38.5495418,165,4666.28959
1,Bernardino de Campos/SP,-23.0140216,-49.4760724,162,1451.87310
D1,Bernardino de Campos/SP,-23.0140216,-49.4760724,6,53.77308
1,Bernardo Sayão/TO,-7.8794244,-48.8968905,125,2810.25180
D1,Bernardo Sayão/TO,-7.8794244,-48.8968905,4,89.92806
1,Bernardo do Mearim/MA,-4.6315929,-44.7617508,140,2305.28569
D1,Bernardo do Mearim/MA,-4.6315929,-44.7617508,3,49.39898
1,Bertioga/SP,-23.848568,-46.139586,2643,4083.55608
D1,Bertioga/SP,-23.848568,-46.139586,54,83.43247
1,Bertolínia/PI,-7.6372159,-43.9540611,567,10295.98693
D1,Bertolínia/PI,-7.6372159,-43.9540611,6,108.95224
1,Bertópolis/MG,-17.063333,-40.573889,203,4406.33818
1,Beruri/AM,-3.9007135,-61.3717319,1320,6569.45205
D1,Beruri/AM,-3.9007135,-61.3717319,16,79.62972
1,Betim/MG,-19.968056,-44.198333,12344,2775.27969
D1,Betim/MG,-19.968056,-44.198333,359,80.71334
1,Betânia do Piauí/PI,-8.1460635,-40.7961387,88,1417.06924
D1,Betânia do Piauí/PI,-8.1460635,-40.7961387,2,32.20612
1,Betânia/PE,-8.2742779,-38.0351767,157,1229.92558
D1,Betânia/PE,-8.2742779,-38.0351767,2,15.66784
1,Bezerros/PE,-8.2372132,-35.7558262,1936,3180.02628
D1,Bezerros/PE,-8.2372132,-35.7558262,74,121.55059
1,Bias Fortes/MG,-21.605833,-43.756944,58,1742.26494
D1,Bias Fortes/MG,-21.605833,-43.756944,2,60.07810
1,Bicas/MG,-21.7213723,-43.0604327,367,2521.64353
D1,Bicas/MG,-21.7213723,-43.0604327,10,68.70963
1,Biguaçu/SC,-27.4961277,-48.6542432,6390,9196.09706
D1,Biguaçu/SC,-27.4961277,-48.6542432,64,92.10488
1,Bilac/SP,-21.403962,-50.47464,252,3104.59529
D1,Bilac/SP,-21.403962,-50.47464,5,61.59911
1,Biquinhas/MG,-18.783611,-45.502222,28,1120.89672
1,Birigui/SP,-21.2908491,-50.34144,5407,4329.65255
D1,Birigui/SP,-21.2908491,-50.34144,144,115.30793
1,Biritiba Mirim/SP,-23.5697765,-46.0407456,580,1760.99101
D1,Biritiba Mirim/SP,-23.5697765,-46.0407456,35,106.26670
1,Biritinga/BA,-11.6227908,-38.8066738,129,807.05706
D1,Biritinga/BA,-11.6227908,-38.8066738,2,12.51251
1,Bituruna/PR,-26.161281,-51.5533319,137,835.36585
D1,Bituruna/PR,-26.161281,-51.5533319,1,6.09756
1,Blumenau/SC,-26.9195567,-49.0658025,28652,7918.08874
D1,Blumenau/SC,-26.9195567,-49.0658025,281,77.65541
1,Boa Esperança do Iguaçu/PR,-25.6362851,-53.2139114,92,3724.69636
1,Boa Esperança do Sul/SP,-21.9930206,-48.3917372,324,2157.41111
D1,Boa Esperança do Sul/SP,-21.9930206,-48.3917372,8,53.26941
1,Boa Esperança/ES,-18.5395472,-40.2904088,590,3909.35595
D1,Boa Esperança/ES,-18.5395472,-40.2904088,21,139.14657
1,Boa Esperança/MG,-21.0901253,-45.5660195,799,1986.62324
D1,Boa Esperança/MG,-21.0901253,-45.5660195,23,57.18690
1,Boa Esperança/PR,-24.2411024,-52.7860277,111,2742.77242
D1,Boa Esperança/PR,-24.2411024,-52.7860277,2,49.41932
1,Boa Hora/PI,-4.4094627,-42.1255341,193,2831.98826
1,Boa Nova/BA,-14.365907,-40.2063056,253,2052.07235
D1,Boa Nova/BA,-14.365907,-40.2063056,5,40.55479
1,Boa Ventura de São Roque/PR,-24.88177,-51.5441292,111,1743.91202
D1,Boa Ventura de São Roque/PR,-24.88177,-51.5441292,2,31.42184
1,Boa Ventura/PB,-7.4202462,-38.2156782,147,2769.92651
D1,Boa Ventura/PB,-7.4202462,-38.2156782,3,56.52911
1,Boa Viagem/CE,-5.1261877,-39.7300055,1606,2942.63151
D1,Boa Viagem/CE,-5.1261877,-39.7300055,41,75.12322
1,Boa Vista da Aparecida/PR,-25.4357216,-53.4067721,319,4230.76923
D1,Boa Vista da Aparecida/PR,-25.4357216,-53.4067721,9,119.36340
1,Boa Vista das Missões/RS,-27.6677983,-53.3127622,13,621.41491
1,Boa Vista do Buricá/RS,-27.6687782,-54.1111913,290,4320.61979
D1,Boa Vista do Buricá/RS,-27.6687782,-54.1111913,4,59.59476
1,Boa Vista do Cadeado/RS,-28.5783827,-53.8123759,68,2755.26742
1,Boa Vista do Gurupi/MA,-1.7981168,-46.3071882,14,167.02458
D1,Boa Vista do Gurupi/MA,-1.7981168,-46.3071882,3,35.79098
1,Boa Vista do Incra/RS,-28.8195551,-53.3866624,64,2446.48318
D1,Boa Vista do Incra/RS,-28.8195551,-53.3866624,1,38.22630
1,Boa Vista do Ramos/AM,-2.9716927,-57.5869819,643,3276.26618
D1,Boa Vista do Ramos/AM,-2.9716927,-57.5869819,9,45.85754
1,Boa Vista do Sul/RS,-29.3510488,-51.6779679,120,4319.65443
D1,Boa Vista do Sul/RS,-29.3510488,-51.6779679,1,35.99712
1,Boa Vista do Tupim/BA,-12.6605988,-40.6083594,138,744.69807
D1,Boa Vista do Tupim/BA,-12.6605988,-40.6083594,2,10.79273
1,Boa Vista/PB,-7.2620711,-36.2415161,173,2424.32735
D1,Boa Vista/PB,-7.2620711,-36.2415161,2,28.02691
1,Boa Vista/RR,2.8208478,-60.6719582,53492,12746.75207
D1,Boa Vista/RR,2.8208478,-60.6719582,588,140.11610
1,Boca da Mata/AL,-9.6452054,-36.2116658,1299,4748.50124
D1,Boca da Mata/AL,-9.6452054,-36.2116658,26,95.04313
1,Boca do Acre/AM,-8.7553487,-67.3930873,2113,6100.76512
D1,Boca do Acre/AM,-8.7553487,-67.3930873,18,51.97055
1,Bocaina de Minas/MG,-22.167778,-44.394722,55,1080.76243
D1,Bocaina de Minas/MG,-22.167778,-44.394722,2,39.30045
1,Bocaina do Sul/SC,-27.745494,-49.942279,283,8113.53211
D1,Bocaina do Sul/SC,-27.745494,-49.942279,3,86.00917
1,Bocaina/PI,-6.9445939,-41.3224599,179,3973.36293
D1,Bocaina/PI,-6.9445939,-41.3224599,3,66.59267
1,Bocaina/SP,-22.1421831,-48.522276,301,2417.28236
D1,Bocaina/SP,-22.1421831,-48.522276,5,40.15419
1,Bocaiúva do Sul/PR,-25.206591,-49.114131,608,4630.96961
D1,Bocaiúva do Sul/PR,-25.206591,-49.114131,5,38.08363
1,Bocaiúva/MG,-17.1160208,-43.8122678,673,1339.14358
D1,Bocaiúva/MG,-17.1160208,-43.8122678,8,15.91850
1,Bodocó/PE,-7.777592,-39.933797,1176,3064.25556
D1,Bodocó/PE,-7.777592,-39.933797,13,33.87357
1,Bodoquena/MS,-20.5508775,-56.6769653,88,1122.73539
D1,Bodoquena/MS,-20.5508775,-56.6769653,2,25.51671
1,Bodó/RN,-5.9866104,-36.4134824,55,2503.41375
1,Bofete/SP,-23.1019554,-48.2610535,237,1988.08825
D1,Bofete/SP,-23.1019554,-48.2610535,4,33.55423
1,Boituva/SP,-23.2838893,-47.6738231,2108,3390.70291
D1,Boituva/SP,-23.2838893,-47.6738231,34,54.68876
1,Bom Conselho/PE,-9.169191,-36.685683,957,1962.39260
D1,Bom Conselho/PE,-9.169191,-36.685683,28,57.41588
1,Bom Despacho/MG,-19.7375242,-45.2517288,1622,3178.64702
D1,Bom Despacho/MG,-19.7375242,-45.2517288,29,56.83154
1,Bom Jardim da Serra/SC,-28.3380324,-49.625588,477,9995.80889
D1,Bom Jardim da Serra/SC,-28.3380324,-49.625588,2,41.91115
1,Bom Jardim de Goiás/GO,-16.2062659,-52.172793,187,2108.46770
D1,Bom Jardim de Goiás/GO,-16.2062659,-52.172793,4,45.10091
1,Bom Jardim de Minas/MG,-21.9476466,-44.1906033,94,1455.33364
1,Bom Jardim/MA,-3.54129,-45.606004,998,2386.30386
D1,Bom Jardim/MA,-3.54129,-45.606004,29,69.34149
1,Bom Jardim/PE,-7.7961572,-35.5871696,795,1988.34505
D1,Bom Jardim/PE,-7.7961572,-35.5871696,34,85.03614
1,Bom Jardim/RJ,-22.1515328,-42.4186683,509,1843.13441
D1,Bom Jardim/RJ,-22.1515328,-42.4186683,5,18.10545
1,Bom Jesus da Lapa/BA,-13.250571,-43.410754,1380,1980.99394
D1,Bom Jesus da Lapa/BA,-13.250571,-43.410754,18,25.83905
1,Bom Jesus da Penha/MG,-21.0165299,-46.5226644,129,3039.58530
D1,Bom Jesus da Penha/MG,-21.0165299,-46.5226644,1,23.56268
1,Bom Jesus da Serra/BA,-14.3724084,-40.5047119,227,2310.90298
1,Bom Jesus das Selvas/MA,-4.4878075,-46.8526639,1945,5626.75384
D1,Bom Jesus das Selvas/MA,-4.4878075,-46.8526639,18,52.07279
1,Bom Jesus de Goiás/GO,-18.2174587,-49.739721,1110,4327.82283
D1,Bom Jesus de Goiás/GO,-18.2174587,-49.739721,32,124.76606
1,Bom Jesus do Amparo/MG,-19.7045132,-43.4752911,72,1173.97685
D1,Bom Jesus do Amparo/MG,-19.7045132,-43.4752911,2,32.61047
1,Bom Jesus do Araguaia/MT,-12.1725897,-51.5074425,249,3713.09275
D1,Bom Jesus do Araguaia/MT,-12.1725897,-51.5074425,1,14.91202
1,Bom Jesus do Galho/MG,-19.8283191,-42.3162256,222,1493.74243
D1,Bom Jesus do Galho/MG,-19.8283191,-42.3162256,8,53.82856
1,Bom Jesus do Itabapoana/RJ,-21.1341025,-41.680095,1325,3561.54074
D1,Bom Jesus do Itabapoana/RJ,-21.1341025,-41.680095,32,86.01457
1,Bom Jesus do Norte/ES,-21.1254776,-41.6711646,649,6514.75607
D1,Bom Jesus do Norte/ES,-21.1254776,-41.6711646,14,140.53403
1,Bom Jesus do Oeste/SC,-26.6929713,-53.0967453,70,3272.55727
D1,Bom Jesus do Oeste/SC,-26.6929713,-53.0967453,1,46.75082
1,Bom Jesus do Sul/PR,-26.1922507,-53.6002033,109,3108.95608
D1,Bom Jesus do Sul/PR,-26.1922507,-53.6002033,2,57.04507
1,Bom Jesus do Tocantins/PA,-5.0471796,-48.5978362,432,2523.65931
D1,Bom Jesus do Tocantins/PA,-5.0471796,-48.5978362,5,29.20902
1,Bom Jesus do Tocantins/TO,-8.96306,-48.165043,102,2036.74121
1,Bom Jesus dos Perdões/SP,-23.1353864,-46.4648052,640,2462.95940
D1,Bom Jesus dos Perdões/SP,-23.1353864,-46.4648052,5,19.24187
1,Bom Jesus/PB,-6.8156725,-38.6551841,76,2951.45631
D1,Bom Jesus/PB,-6.8156725,-38.6551841,3,116.50485
1,Bom Jesus/PI,-9.0711644,-44.3583926,2004,7893.80392
D1,Bom Jesus/PI,-9.0711644,-44.3583926,24,94.53657
1,Bom Jesus/RN,-5.9887544,-35.5821149,347,3379.76040
D1,Bom Jesus/RN,-5.9887544,-35.5821149,6,58.43966
1,Bom Jesus/RS,-28.6692723,-50.4346894,371,3280.57299
D1,Bom Jesus/RS,-28.6692723,-50.4346894,9,79.58263
1,Bom Jesus/SC,-26.7350604,-52.3916519,143,4677.78868
D1,Bom Jesus/SC,-26.7350604,-52.3916519,3,98.13543
1,Bom Lugar/MA,-4.3728019,-45.0366054,306,1861.54033
D1,Bom Lugar/MA,-4.3728019,-45.0366054,5,30.41733
1,Bom Princípio do Piauí/PI,-3.1912777,-41.6430185,44,778.62325
D1,Bom Princípio do Piauí/PI,-3.1912777,-41.6430185,3,53.08795
1,Bom Princípio/RS,-29.489788,-51.3566782,749,5254.29674
D1,Bom Princípio/RS,-29.489788,-51.3566782,9,63.13574
1,Bom Progresso/RS,-27.5490948,-53.8655601,30,1579.77883
1,Bom Repouso/MG,-22.4657069,-46.1485376,221,2097.37117
D1,Bom Repouso/MG,-22.4657069,-46.1485376,8,75.92294
1,Bom Retiro do Sul/RS,-29.6000007,-51.9359243,481,3882.16303
D1,Bom Retiro do Sul/RS,-29.6000007,-51.9359243,8,64.56820
1,Bom Retiro/SC,-27.798993,-49.486994,311,3091.45129
D1,Bom Retiro/SC,-27.798993,-49.486994,6,59.64215
1,Bom Sucesso de Itararé/SP,-24.3190016,-49.1446207,45,1129.51807
D1,Bom Sucesso de Itararé/SP,-24.3190016,-49.1446207,2,50.20080
1,Bom Sucesso do Sul/PR,-26.0749256,-52.8348629,120,3687.76890
D1,Bom Sucesso do Sul/PR,-26.0749256,-52.8348629,2,61.46281
1,Bom Sucesso/MG,-21.0323516,-44.7598082,125,709.94491
D1,Bom Sucesso/MG,-21.0323516,-44.7598082,1,5.67956
1,Bom Sucesso/PB,-6.4458948,-37.9297662,64,1291.36400
1,Bom Sucesso/PR,-23.7088019,-51.7651297,198,2801.35823
D1,Bom Sucesso/PR,-23.7088019,-51.7651297,2,28.29655
1,Bombinhas/SC,-27.1519159,-48.4875691,2423,11915.41677
D1,Bombinhas/SC,-27.1519159,-48.4875691,20,98.35259
1,Bonfim do Piauí/PI,-9.1648678,-42.8734415,155,2726.47318
D1,Bonfim do Piauí/PI,-9.1648678,-42.8734415,2,35.18030
1,Bonfim/MG,-20.3266626, -44.2386157,142,2069.97085
D1,Bonfim/MG,-20.3266626, -44.2386157,2,29.15452
1,Bonfim/RR,3.3613818,-59.8427241,1344,10703.19344
D1,Bonfim/RR,3.3613818,-59.8427241,15,119.45528
1,Bonfinópolis de Minas/MG,-16.5660011,-45.98645,196,3600.29390
D1,Bonfinópolis de Minas/MG,-16.5660011,-45.98645,9,165.31962
1,Bonfinópolis/GO,-16.6172709,-48.9615701,391,3941.92963
D1,Bonfinópolis/GO,-16.6172709,-48.9615701,10,100.81661
1,Boninal/BA,-12.7095183,-41.8299984,301,2083.62176
D1,Boninal/BA,-12.7095183,-41.8299984,2,13.84466
1,Bonito de Minas/MG,-15.3191266,-44.7544,6,52.77509
1,Bonito de Santa Fé/PB,-7.3143332,-38.5146677,321,2670.10481
D1,Bonito de Santa Fé/PB,-7.3143332,-38.5146677,11,91.49892
1,Bonito/BA,-11.9665473,-41.2649896,419,2481.63942
D1,Bonito/BA,-11.9665473,-41.2649896,3,17.76830
1,Bonito/MS,-21.1264766,-56.4902208,1259,5673.72690
D1,Bonito/MS,-21.1264766,-56.4902208,19,85.62416
1,Bonito/PA,-1.3605722,-47.3049907,310,1875.37810
D1,Bonito/PA,-1.3605722,-47.3049907,10,60.49607
1,Bonito/PE,-8.4721161,-35.7314591,431,1130.72907
D1,Bonito/PE,-8.4721161,-35.7314591,28,73.45804
1,Bonópolis/GO,-13.649331,-49.8329113,87,1936.34543
D1,Bonópolis/GO,-13.649331,-49.8329113,1,22.25684
1,Boqueirão do Leão/RS,-29.30332,-52.4296817,174,2259.15347
D1,Boqueirão do Leão/RS,-29.30332,-52.4296817,3,38.95092
1,Boqueirão do Piauí/PI,-4.4850148,-42.1095161,245,3812.63617
D1,Boqueirão do Piauí/PI,-4.4850148,-42.1095161,2,31.12356
1,Boqueirão/PB,-7.487004,-36.130887,901,5041.96978
D1,Boqueirão/PB,-7.487004,-36.130887,11,61.55568
1,Boquim/SE,-11.1450175,-37.6204228,934,3472.24804
D1,Boquim/SE,-11.1450175,-37.6204228,24,89.22265
1,Boquira/BA,-12.8184859,-42.7270883,310,1442.06168
D1,Boquira/BA,-12.8184859,-42.7270883,4,18.60725
1,Boracéia/SP,-22.195355,-48.7801925,199,4087.92112
D1,Boracéia/SP,-22.195355,-48.7801925,2,41.08463
1,Borba/AM,-4.3934778,-59.5947721,1096,2625.27546
D1,Borba/AM,-4.3934778,-59.5947721,36,86.23168
1,Borborema/PB,-6.8066718,-35.5990191,96,1815.77454
D1,Borborema/PB,-6.8066718,-35.5990191,1,18.91432
1,Borborema/SP,-21.6212706,-49.074135,398,2462.26182
D1,Borborema/SP,-21.6212706,-49.074135,11,68.05246
1,Borda da Mata/MG,-22.274167,-46.165278,518,2640.97074
D1,Borda da Mata/MG,-22.274167,-46.165278,18,91.77118
1,Borebi/SP,-22.5700178,-48.9714871,69,2571.74804
D1,Borebi/SP,-22.5700178,-48.9714871,2,74.54342
1,Borrazópolis/PR,-23.9393362,-51.5850786,347,5389.03556
D1,Borrazópolis/PR,-23.9393362,-51.5850786,8,124.24289
1,Borá/SP,-22.2701088,-50.544407,10,1193.31742
1,Bossoroca/RS,-28.7278885,-54.9120278,115,1853.34408
D1,Bossoroca/RS,-28.7278885,-54.9120278,2,32.23207
1,Botelhos/MG,-21.65,-46.394722,224,1498.42799
D1,Botelhos/MG,-21.65,-46.394722,4,26.75764
1,Botucatu/SP,-22.8879628,-48.4410712,5112,3451.02275
D1,Botucatu/SP,-22.8879628,-48.4410712,68,45.90562
1,Botumirim/MG,-16.862778,-43.011111,29,461.19593
1,Botuporã/BA,-13.3744752,-42.5198469,49,483.75950
D1,Botuporã/BA,-13.3744752,-42.5198469,1,9.87264
1,Botuverá/SC,-27.200749,-49.068892,529,9939.87223
D1,Botuverá/SC,-27.200749,-49.068892,3,56.36979
1,Bozano/RS,-28.3669953,-53.7705165,51,2415.91663
1,Braga/RS,-27.617348,-53.740514,39,1177.89188
D1,Braga/RS,-27.617348,-53.740514,1,30.20236
1,Braganey/PR,-24.8179919,-53.118506,108,2006.68896
D1,Braganey/PR,-24.8179919,-53.118506,2,37.16091
1,Bragança Paulista/SP,-22.9520235,-46.5418586,5648,3311.96894
D1,Bragança Paulista/SP,-22.9520235,-46.5418586,104,60.98526
1,Bragança/PA,-1.0573967,-46.7635406,3065,2377.55403
D1,Bragança/PA,-1.0573967,-46.7635406,100,77.57109
1,Branquinha/AL,-9.2478057,-36.0152009,277,2648.18356
D1,Branquinha/AL,-9.2478057,-36.0152009,6,57.36138
1,Brasil Novo/PA,-3.3055853,-52.539198,820,5472.86925
D1,Brasil Novo/PA,-3.3055853,-52.539198,17,113.46192
1,Brasileira/PI,-4.131182,-41.7824969,264,3162.81299
D1,Brasileira/PI,-4.131182,-41.7824969,5,59.90176
1,Brasilândia de Minas/MG,-17.0096469,-46.0087183,553,3301.88679
D1,Brasilândia de Minas/MG,-17.0096469,-46.0087183,3,17.91259
1,Brasilândia do Sul/PR,-24.1975793,-53.527551,111,4294.00387
D1,Brasilândia do Sul/PR,-24.1975793,-53.527551,1,38.68472
1,Brasilândia do Tocantins/TO,-8.3886619,-48.4842729,69,3120.75984
D1,Brasilândia do Tocantins/TO,-8.3886619,-48.4842729,1,45.22840
1,Brasilândia/MS,-21.255575,-52.0365617,221,1864.50688
D1,Brasilândia/MS,-21.255575,-52.0365617,5,42.18341
1,Brasiléia/AC,-11.0010413,-68.7487894,1457,5456.52011
D1,Brasiléia/AC,-11.0010413,-68.7487894,24,89.88091
1,Brasnorte/MT,-12.1227151,-58.0050109,512,2542.20457
D1,Brasnorte/MT,-12.1227151,-58.0050109,6,29.79146
1,Brasília de Minas/MG,-16.2075114,-44.430559,404,1246.72119
D1,Brasília de Minas/MG,-16.2075114,-44.430559,5,15.42972
1,Brasília/DF,-15.7934036,-47.8823172,264227,8648.57982
D1,Brasília/DF,-15.7934036,-47.8823172,4421,144.70653
1,Brazabrantes/GO,-16.4291635,-49.3858216,187,4991.99146
D1,Brazabrantes/GO,-16.4291635,-49.3858216,2,53.39028
1,Brazópolis/MG,-22.4742842,-45.6165577,349,2421.92922
D1,Brazópolis/MG,-22.4742842,-45.6165577,6,41.63775
1,Braço do Norte/SC,-28.2728633,-49.1622712,4660,13756.05148
D1,Braço do Norte/SC,-28.2728633,-49.1622712,38,112.17381
1,Braço do Trombudo/SC,-27.358578,-49.882145,309,8198.46113
D1,Braço do Trombudo/SC,-27.358578,-49.882145,3,79.59671
1,Braúna/SP,-21.5015319,-50.3175246,158,2752.13377
D1,Braúna/SP,-21.5015319,-50.3175246,7,121.92998
1,Braúnas/MG,-19.055556,-42.716111,43,901.65653
D1,Braúnas/MG,-19.055556,-42.716111,3,62.90627
1,Brejetuba/ES,-20.1465817,-41.2902303,832,6695.09938
D1,Brejetuba/ES,-20.1465817,-41.2902303,2,16.09399
1,Brejinho de Nazaré/TO,-11.0205883,-48.5722906,119,2156.18772
D1,Brejinho de Nazaré/TO,-11.0205883,-48.5722906,5,90.59612
1,Brejinho/PE,-7.3482153,-37.28538,308,4113.24786
D1,Brejinho/PE,-7.3482153,-37.28538,3,40.06410
1,Brejinho/RN,-6.1957907,-35.3583019,458,3581.76273
D1,Brejinho/RN,-6.1957907,-35.3583019,5,39.10221
1,Brejo Alegre/SP,-21.1671191,-50.1850393,139,4811.35341
D1,Brejo Alegre/SP,-21.1671191,-50.1850393,6,207.68432
1,Brejo Grande do Araguaia/PA,-5.7011449,-48.4037308,619,8401.19435
D1,Brejo Grande do Araguaia/PA,-5.7011449,-48.4037308,2,27.14441
1,Brejo Grande/SE,-10.4287358,-36.4667918,220,2633.78427
D1,Brejo Grande/SE,-10.4287358,-36.4667918,8,95.77397
1,Brejo Santo/CE,-7.4909841,-38.9859152,3081,6181.53365
D1,Brejo Santo/CE,-7.4909841,-38.9859152,27,54.17118
1,Brejo da Madre de Deus/PE,-8.1409718,-36.3712527,1165,2274.28014
D1,Brejo da Madre de Deus/PE,-8.1409718,-36.3712527,32,62.46950
1,Brejo de Areia/MA,-4.3316785,-45.5833334,248,2751.27579
D1,Brejo de Areia/MA,-4.3316785,-45.5833334,2,22.18771
1,Brejo do Cruz/PB,-6.32926065,-37.48746163303929,1021,7187.10404
D1,Brejo do Cruz/PB,-6.32926065,-37.48746163303929,12,84.47135
1,Brejo do Piauí/PI,-8.207583,-42.8359849,28,727.65073
D1,Brejo do Piauí/PI,-8.207583,-42.8359849,3,77.96258
1,Brejo dos Santos/PB,-6.3769367,-37.8243125,116,1794.55446
D1,Brejo dos Santos/PB,-6.3769367,-37.8243125,2,30.94059
1,Brejo/MA,-3.6804397,-42.7529313,705,1923.54915
D1,Brejo/MA,-3.6804397,-42.7529313,18,49.11189
1,Brejolândia/BA,-12.4843845,-43.9611861,122,1148.99228
D1,Brejolândia/BA,-12.4843845,-43.9611861,7,65.92579
1,Brejão/PE,-9.029146,-36.566034,60,667.63102
D1,Brejão/PE,-9.029146,-36.566034,3,33.38155
1,Brejões/BA,-13.1033754,-39.7909837,335,2355.50555
D1,Brejões/BA,-13.1033754,-39.7909837,4,28.12544
1,Breu Branco/PA,-3.7785073,-49.5684795,404,600.01188
D1,Breu Branco/PA,-3.7785073,-49.5684795,26,38.61463
1,Breves/PA,-1.68036,-50.479085,3511,3392.36886
D1,Breves/PA,-1.68036,-50.479085,98,94.68873
1,Britânia/GO,-15.2427599,-51.1602061,256,4416.07728
D1,Britânia/GO,-15.2427599,-51.1602061,1,17.25030
1,Brochier/RS,-29.556766,-51.5963047,105,2057.21003
1,Brodowski/SP,-20.984532,-47.657217,946,3742.53274
D1,Brodowski/SP,-20.984532,-47.657217,25,98.90414
1,Brotas de Macaúbas/BA,-12.0019007,-42.6257506,49,483.71175
1,Brotas/SP,-22.2840884,-48.1267265,259,1051.30703
D1,Brotas/SP,-22.2840884,-48.1267265,7,28.41370
1,Brumadinho/MG,-20.143611,-44.2,1801,4428.76113
D1,Brumadinho/MG,-20.143611,-44.2,24,59.01736
1,Brumado/BA,-14.29507325,-41.659307508575985,4088,6071.13685
D1,Brumado/BA,-14.29507325,-41.659307508575985,38,56.43425
1,Brunópolis/SC,-27.310953,-50.837585,64,2702.70270
1,Brusque/SC,-27.0964628,-48.9136323,13927,10114.82399
D1,Brusque/SC,-27.0964628,-48.9136323,114,82.79529
1,Brás Pires/MG,-20.8483109,-43.2430524,93,2166.31726
D1,Brás Pires/MG,-20.8483109,-43.2430524,4,93.17494
1,Bueno Brandão/MG,-22.441976,-46.3517971,213,1937.94923
D1,Bueno Brandão/MG,-22.441976,-46.3517971,6,54.59012
1,Buenos Aires/PE,-7.7218931,-35.326587,68,515.54208
D1,Buenos Aires/PE,-7.7218931,-35.326587,10,75.81501
1,Buenópolis/MG,-17.8756607,-44.1749365,127,1226.69758
D1,Buenópolis/MG,-17.8756607,-44.1749365,4,38.63614
1,Buerarema/BA,-14.9571177,-39.3008035,794,4337.37572
D1,Buerarema/BA,-14.9571177,-39.3008035,26,142.02994
1,Bugre/MG,-19.4257687,-42.2556,263,6603.06302
D1,Bugre/MG,-19.4257687,-42.2556,6,150.64022
1,Bujari/AC,-9.8309656,-67.9520886,505,4846.44914
D1,Bujari/AC,-9.8309656,-67.9520886,8,76.77543
1,Bujaru/PA,-1.5169239,-48.0410699,777,2640.43226
D1,Bujaru/PA,-1.5169239,-48.0410699,23,78.15951
1,Buri/SP,-23.79849,-48.598924,448,2243.92687
D1,Buri/SP,-23.79849,-48.598924,12,60.10518
1,Buritama/SP,-21.0664017,-50.1448077,996,5763.55535
D1,Buritama/SP,-21.0664017,-50.1448077,25,144.66755
1,Buriti Alegre/GO,-18.1377879,-49.0404411,430,4533.95192
D1,Buriti Alegre/GO,-18.1377879,-49.0404411,10,105.44074
1,Buriti Bravo/MA,-5.8391884,-43.8367876,1019,4256.65232
D1,Buriti Bravo/MA,-5.8391884,-43.8367876,10,41.77284
1,Buriti de Goiás/GO,-16.180644,-50.4287479,120,4846.52666
D1,Buriti de Goiás/GO,-16.180644,-50.4287479,1,40.38772
1,Buriti do Tocantins/TO,-5.3187439,-48.2256609,314,2731.14726
D1,Buriti do Tocantins/TO,-5.3187439,-48.2256609,1,8.69792
1,Buriti dos Lopes/PI,-3.1776723,-41.8707444,816,4119.75564
D1,Buriti dos Lopes/PI,-3.1776723,-41.8707444,12,60.58464
1,Buriti dos Montes/PI,-5.3136171,-41.0971256,315,3811.71346
D1,Buriti dos Montes/PI,-5.3136171,-41.0971256,2,24.20136
1,Buriti/MA,-3.9430944,-42.9244281,701,2434.19682
D1,Buriti/MA,-3.9430944,-42.9244281,4,13.88985
1,Buriticupu/MA,-4.3227472,-46.4516989,2637,3613.17019
D1,Buriticupu/MA,-4.3227472,-46.4516989,19,26.03346
1,Buritinópolis/GO,-14.4589282,-46.4293104,61,1858.05666
1,Buritirama/BA,-10.7148421,-43.6362327,541,2542.77120
D1,Buritirama/BA,-10.7148421,-43.6362327,10,47.00132
1,Buritirana/MA,-5.5897455,-47.0148915,243,1571.08683
D1,Buritirana/MA,-5.5897455,-47.0148915,9,58.18840
1,Buritis/MG,-15.621389,-46.423889,532,2126.89402
D1,Buritis/MG,-15.621389,-46.423889,6,23.98753
1,Buritis/RO,-10.2054937,-63.8281954,1553,3848.25057
D1,Buritis/RO,-10.2054937,-63.8281954,16,39.64714
1,Buritizal/SP,-20.1933264,-47.7097165,87,1927.33717
D1,Buritizal/SP,-20.1933264,-47.7097165,3,66.45990
1,Buritizeiro/MG,-17.3667765,-44.9647781,442,1571.77910
D1,Buritizeiro/MG,-17.3667765,-44.9647781,11,39.11667
1,Butiá/RS,-30.1256795,-51.9692224,685,3269.37763
D1,Butiá/RS,-30.1256795,-51.9692224,24,114.54754
1,Buíque/PE,-8.6239732,-37.157296,848,1439.26407
D1,Buíque/PE,-8.6239732,-37.157296,13,22.06419
1,Bálsamo/SP,-20.7343722,-49.5807484,692,7571.94441
D1,Bálsamo/SP,-20.7343722,-49.5807484,27,295.43714
0,CASO SEM LOCALIZAÇÃO DEFINIDA/AL,-9.931093434363673,-35.609611600637464,289,8.65955
D0,CASO SEM LOCALIZAÇÃO DEFINIDA/AL,-9.931093434363673,-35.609611600637464,17,0.50939
0,CASO SEM LOCALIZAÇÃO DEFINIDA/BA,-13.415069300066518,-38.14174656569957,12979,87.26514
D0,CASO SEM LOCALIZAÇÃO DEFINIDA/BA,-13.415069300066518,-38.14174656569957,97,0.65219
0,CASO SEM LOCALIZAÇÃO DEFINIDA/CE,-3.3445126297392798,-38.624961942434304,7132,78.09833
0,CASO SEM LOCALIZAÇÃO DEFINIDA/ES,-20.30989267097039,-39.81745156645774,2116,52.65450
D0,CASO SEM LOCALIZAÇÃO DEFINIDA/ES,-20.30989267097039,-39.81745156645774,68,1.69211
0,CASO SEM LOCALIZAÇÃO DEFINIDA/GO,-16.701590966270153,-49.164524059025034,808,11.51267
0,CASO SEM LOCALIZAÇÃO DEFINIDA/MG,-19.97049116501593,-43.8852149072783,5815,27.46968
D0,CASO SEM LOCALIZAÇÃO DEFINIDA/MG,-19.97049116501593,-43.8852149072783,132,0.62356
0,CASO SEM LOCALIZAÇÃO DEFINIDA/MS,-20.391549234908513,-54.645156949758444,446,16.04902
D0,CASO SEM LOCALIZAÇÃO DEFINIDA/MS,-20.391549234908513,-54.645156949758444,12,0.43181
0,CASO SEM LOCALIZAÇÃO DEFINIDA/MT,-15.54791153961863,-56.17143998972475,1090,31.28169
D0,CASO SEM LOCALIZAÇÃO DEFINIDA/MT,-15.54791153961863,-56.17143998972475,72,2.06631
0,CASO SEM LOCALIZAÇÃO DEFINIDA/PE,-8.121628543819208,-34.57313921302556,322,3.36923
D0,CASO SEM LOCALIZAÇÃO DEFINIDA/PE,-8.121628543819208,-34.57313921302556,11,0.11510
0,CASO SEM LOCALIZAÇÃO DEFINIDA/PR,-25.69415946385943,-48.10141676336737,3933,34.39754
D0,CASO SEM LOCALIZAÇÃO DEFINIDA/PR,-25.69415946385943,-48.10141676336737,77,0.67343
D0,CASO SEM LOCALIZAÇÃO DEFINIDA/RN,-5.749310788669161,-34.95302586257457,13,0.37070
0,CASO SEM LOCALIZAÇÃO DEFINIDA/RR,2.813328208465927,-60.663338675861986,2008,331.48387
D0,CASO SEM LOCALIZAÇÃO DEFINIDA/RR,2.813328208465927,-60.663338675861986,6,0.99049
0,CASO SEM LOCALIZAÇÃO DEFINIDA/SC,-27.675643660562308,-48.18313219398259,11709,163.42424
0,CASO SEM LOCALIZAÇÃO DEFINIDA/SP,-24.30968974555485,-46.21366504207253,3179,6.92305
D0,CASO SEM LOCALIZAÇÃO DEFINIDA/SP,-24.30968974555485,-46.21366504207253,42,0.09147
0,CASO SEM LOCALIZAÇÃO DEFINIDA/TO,-10.213012114749148,-48.40023803990334,199,12.65206
D0,CASO SEM LOCALIZAÇÃO DEFINIDA/TO,-10.213012114749148,-48.40023803990334,3,0.19073
1,Caapiranga/AM,-3.3188884,-61.2096404,449,3380.26048
D1,Caapiranga/AM,-3.3188884,-61.2096404,9,67.75578
1,Caaporã/PB,-7.510234,-34.9154114,1162,5292.64404
D1,Caaporã/PB,-7.510234,-34.9154114,19,86.54065
1,Caarapó/MS,-22.6349267,-54.8240903,1517,4958.65067
D1,Caarapó/MS,-22.6349267,-54.8240903,16,52.29955
1,Caatiba/BA,-14.9782759,-40.4092325,452,6966.70777
D1,Caatiba/BA,-14.9782759,-40.4092325,4,61.65228
1,Cabaceiras do Paraguaçu/BA,-12.5377868,-39.1901339,196,1036.43382
D1,Cabaceiras do Paraguaçu/BA,-12.5377868,-39.1901339,1,5.28793
1,Cabaceiras/PB,-7.4899156,-36.2860501,206,3638.93305
1,Cabeceira Grande/MG,-16.0297,-47.0906,89,1273.61191
D1,Cabeceira Grande/MG,-16.0297,-47.0906,2,28.62049
1,Cabeceiras do Piauí/PI,-4.4733665,-42.3098716,262,2464.72248
D1,Cabeceiras do Piauí/PI,-4.4733665,-42.3098716,7,65.85136
1,Cabeceiras/GO,-15.7995459,-46.9264991,107,1329.85334
D1,Cabeceiras/GO,-15.7995459,-46.9264991,3,37.28561
1,Cabedelo/PB,-6.97324,-34.8351609,4323,6286.44553
D1,Cabedelo/PB,-6.97324,-34.8351609,95,138.14766
1,Cabixi/RO,-13.4956065,-60.5424442,308,5936.77718
D1,Cabixi/RO,-13.4956065,-60.5424442,9,173.47726
1,Cabo Frio/RJ,-22.8804369,-42.0189227,5777,2507.61791
D1,Cabo Frio/RJ,-22.8804369,-42.0189227,243,105.47882
1,Cabo Verde/MG,-21.4743338,-46.3964995,148,1051.50977
D1,Cabo Verde/MG,-21.4743338,-46.3964995,3,21.31439
1,Cabo de Santo Agostinho/PE,-8.2838945,-35.0320984,2684,1284.55471
D1,Cabo de Santo Agostinho/PE,-8.2838945,-35.0320984,302,144.53634
1,Cabreúva/SP,-23.3075813,-47.1324417,2026,4017.52960
D1,Cabreúva/SP,-23.3075813,-47.1324417,48,95.18333
1,Cabrobó/PE,-8.5083701,-39.3106961,791,2292.55427
D1,Cabrobó/PE,-8.5083701,-39.3106961,6,17.38979
1,Cabrália Paulista/SP,-22.4562909,-49.3385645,124,2922.46052
1,Cacaulândia/RO,-10.3380043,-62.9007231,173,2759.61078
1,Cacequi/RS,-29.8838059,-54.8273443,92,740.56186
D1,Cacequi/RS,-29.8838059,-54.8273443,2,16.09917
1,Cachoeira Alta/GO,-18.7618269,-50.9432431,817,6450.33949
D1,Cachoeira Alta/GO,-18.7618269,-50.9432431,12,94.74183
1,Cachoeira Dourada/GO,-18.4934204,-49.481062,183,2278.67015
D1,Cachoeira Dourada/GO,-18.4934204,-49.481062,3,37.35525
1,Cachoeira Dourada/MG,-18.517136,-49.5002062,67,2475.97931
1,Cachoeira Grande/MA,-2.9290492,-44.0573223,187,1972.99008
D1,Cachoeira Grande/MA,-2.9290492,-44.0573223,4,42.20300
1,Cachoeira Paulista/SP,-22.666498,-45.015384,603,1795.65826
D1,Cachoeira Paulista/SP,-22.666498,-45.015384,19,56.57961
1,Cachoeira da Prata/MG,-19.524723,-44.453056,164,4566.97299
D1,Cachoeira da Prata/MG,-19.524723,-44.453056,2,55.69479
1,Cachoeira de Goiás/GO,-16.6688414,-50.6435997,26,1937.40686
1,Cachoeira de Minas/MG,-22.3554043,-45.7796324,288,2487.26142
D1,Cachoeira de Minas/MG,-22.3554043,-45.7796324,3,25.90897
1,Cachoeira de Pajeú/MG,-15.965833,-41.496666,293,3103.15611
D1,Cachoeira de Pajeú/MG,-15.965833,-41.496666,3,31.77293
1,Cachoeira do Arari/PA,-1.0143572,-48.9621089,338,1404.58777
D1,Cachoeira do Arari/PA,-1.0143572,-48.9621089,13,54.02261
1,Cachoeira do Piriá/PA,-1.7599443,-46.5446954,541,1563.17721
D1,Cachoeira do Piriá/PA,-1.7599443,-46.5446954,3,8.66827
1,Cachoeira do Sul/RS,-30.0474778,-52.8905413,2193,2678.66958
D1,Cachoeira do Sul/RS,-30.0474778,-52.8905413,29,35.42244
1,Cachoeira dos Índios/PB,-6.9259193,-38.6742159,318,3085.88064
D1,Cachoeira dos Índios/PB,-6.9259193,-38.6742159,10,97.04027
1,Cachoeira/BA,-12.5998256,-38.9665918,628,1870.88510
D1,Cachoeira/BA,-12.5998256,-38.9665918,12,35.74940
1,Cachoeiras de Macacu/RJ,-22.4626861,-42.6534414,1201,2025.19265
D1,Cachoeiras de Macacu/RJ,-22.4626861,-42.6534414,45,75.88149
1,Cachoeirinha/PE,-8.4906364,-36.2338963,322,1570.65509
D1,Cachoeirinha/PE,-8.4906364,-36.2338963,22,107.31184
1,Cachoeirinha/RS,-29.9493353,-51.0898927,5934,4521.48735
D1,Cachoeirinha/RS,-29.9493353,-51.0898927,148,112.77050
1,Cachoeirinha/TO,-6.118647,-47.9208885,85,3721.54116
D1,Cachoeirinha/TO,-6.118647,-47.9208885,2,87.56567
1,Cachoeiro de Itapemirim/ES,-20.848084,-41.11129,14014,6654.66857
D1,Cachoeiro de Itapemirim/ES,-20.848084,-41.11129,273,129.63640
1,Cacimba de Areia/PB,-7.1288513,-37.1575194,19,514.20839
1,Cacimba de Dentro/PB,-6.6425101,-35.7929304,705,4104.08662
D1,Cacimba de Dentro/PB,-6.6425101,-35.7929304,17,98.96379
1,Cacimbas/PB,-7.2125451,-37.0593398,93,1291.84609
D1,Cacimbas/PB,-7.2125451,-37.0593398,4,55.56327
1,Cacimbinhas/AL,-9.401212,-36.991082,356,3269.35439
D1,Cacimbinhas/AL,-9.401212,-36.991082,3,27.55074
1,Cacique Doble/RS,-27.7700117,-51.6616409,179,3527.78873
D1,Cacique Doble/RS,-27.7700117,-51.6616409,1,19.70832
1,Cacoal/RO,-11.4333,-61.4420502,5190,6042.40159
D1,Cacoal/RO,-11.4333,-61.4420502,75,87.31794
1,Caconde/SP,-21.527995,-46.643659,394,2072.70240
D1,Caconde/SP,-21.527995,-46.643659,2,10.52133
1,Caculé/BA,-14.4990734,-42.2233006,281,1206.47460
D1,Caculé/BA,-14.4990734,-42.2233006,4,17.17402
1,Caetanos/BA,-14.3387456,-40.9085971,257,1759.30997
D1,Caetanos/BA,-14.3387456,-40.9085971,2,13.69113
1,Caetanópolis/MG,-19.2947496,-44.4138386,342,2910.88603
D1,Caetanópolis/MG,-19.2947496,-44.4138386,3,25.53409
1,Caetité/BA,-14.0691776,-42.4852428,845,1654.23543
D1,Caetité/BA,-14.0691776,-42.4852428,5,9.78838
1,Caeté/MG,-19.897777,-43.670278,824,1829.20061
D1,Caeté/MG,-19.897777,-43.670278,26,57.71750
1,Caetés/PE,-8.7728788,-36.6255835,873,3020.34321
D1,Caetés/PE,-8.7728788,-36.6255835,10,34.59729
1,Cafarnaum/BA,-11.691399,-41.468823,482,2603.57587
D1,Cafarnaum/BA,-11.691399,-41.468823,10,54.01610
1,Cafeara/PR,-22.78905,-51.714195,114,3859.17400
D1,Cafeara/PR,-22.78905,-51.714195,2,67.70481
1,Cafelândia/PR,-24.6176963,-53.3218057,923,5001.08366
D1,Cafelândia/PR,-24.6176963,-53.3218057,6,32.50975
1,Cafelândia/SP,-21.8054355,-49.6030627,462,2589.25069
D1,Cafelândia/SP,-21.8054355,-49.6030627,14,78.46214
1,Cafezal do Sul/PR,-23.900508,-53.512418,86,2145.17336
D1,Cafezal do Sul/PR,-23.900508,-53.512418,1,24.94388
1,Caiabu/SP,-22.0143038,-51.2356597,42,1001.66945
D1,Caiabu/SP,-22.0143038,-51.2356597,2,47.69855
1,Caiana/MG,-20.695555,-41.924723,61,1100.88432
D1,Caiana/MG,-20.695555,-41.924723,2,36.09457
1,Caiapônia/GO,-16.9538779,-51.8090761,322,1685.24624
D1,Caiapônia/GO,-16.9538779,-51.8090761,4,20.93474
1,Caibaté/RS,-28.290475,-54.645407,28,580.55152
D1,Caibaté/RS,-28.290475,-54.645407,3,62.20195
1,Caibi/SC,-27.0751925,-53.2502133,194,3164.76346
D1,Caibi/SC,-27.0751925,-53.2502133,2,32.62643
1,Caicó/RN,-6.4594544,-37.0971911,6024,8814.36285
D1,Caicó/RN,-6.4594544,-37.0971911,67,98.03491
1,Caieiras/SP,-23.3644621,-46.7484765,3806,3703.23522
D1,Caieiras/SP,-23.3644621,-46.7484765,119,115.78691
1,Cairu/BA,-13.4860505,-39.0455744,730,3961.57812
D1,Cairu/BA,-13.4860505,-39.0455744,8,43.41455
1,Caiuá/SP,-21.8319357,-51.9887179,142,2388.16011
D1,Caiuá/SP,-21.8319357,-51.9887179,2,33.63606
1,Caiçara do Norte/RN,-5.0645017,-36.0561226,129,1966.16369
D1,Caiçara do Norte/RN,-5.0645017,-36.0561226,3,45.72474
1,Caiçara do Rio do Vento/RN,-5.757968,-36.00089,110,2960.96904
D1,Caiçara do Rio do Vento/RN,-5.757968,-36.00089,2,53.83580
1,Caiçara/PB,-6.6146866,-35.4681434,478,6647.19789
D1,Caiçara/PB,-6.6146866,-35.4681434,10,139.06272
1,Caiçara/RS,-27.2750478,-53.4310053,270,5744.68085
D1,Caiçara/RS,-27.2750478,-53.4310053,3,63.82979
1,Cajamar/SP,-23.3561111,-46.8769444,1954,2507.24972
D1,Cajamar/SP,-23.3561111,-46.8769444,84,107.78351
1,Cajapió/MA,-2.8778715,-44.6746871,51,454.70756
D1,Cajapió/MA,-2.8778715,-44.6746871,2,17.83167
1,Cajari/MA,-3.3213076,-45.0118757,132,678.62835
D1,Cajari/MA,-3.3213076,-45.0118757,4,20.56450
1,Cajati/SP,-24.7272376,-48.1077914,2293,8047.30821
D1,Cajati/SP,-24.7272376,-48.1077914,48,168.45652
1,Cajazeiras do Piauí/PI,-6.794271,-42.3935024,24,671.70445
D1,Cajazeiras do Piauí/PI,-6.794271,-42.3935024,1,27.98769
1,Cajazeiras/PB,-6.8897849,-38.5570389,3692,5927.21026
D1,Cajazeiras/PB,-6.8897849,-38.5570389,71,113.98481
1,Cajazeirinhas/PB,-6.961442,-37.7993733,65,2028.08112
1,Cajobi/SP,-20.8776238,-48.8106972,338,3189.88297
D1,Cajobi/SP,-20.8776238,-48.8106972,7,66.06267
1,Cajueiro da Praia/PI,-2.931114,-41.340801,445,5798.80115
D1,Cajueiro da Praia/PI,-2.931114,-41.340801,10,130.31014
1,Cajueiro/AL,-9.399589,-36.1524309,389,1823.63696
D1,Cajueiro/AL,-9.399589,-36.1524309,16,75.00820
1,Cajuri/MG,-20.7901414,-42.7954489,103,2591.84701
1,Cajuru/SP,-21.2759978,-47.3046035,513,1943.69719
D1,Cajuru/SP,-21.2759978,-47.3046035,16,60.62213
1,Caldas Brandão/PB,-7.1027959,-35.3254676,359,5937.81012
D1,Caldas Brandão/PB,-7.1027959,-35.3254676,4,66.15944
1,Caldas Novas/GO,-17.745,-48.625,3445,3696.51058
D1,Caldas Novas/GO,-17.745,-48.625,67,71.89150
1,Caldas/MG,-21.923611,-46.386111,285,1959.97524
D1,Caldas/MG,-21.923611,-46.386111,10,68.77106
1,Caldazinha/GO,-16.7116649,-49.0012601,122,3170.47817
D1,Caldazinha/GO,-16.7116649,-49.0012601,2,51.97505
1,Caldeirão Grande do Piauí/PI,-7.3310393,-40.6374433,178,3079.05207
1,Caldeirão Grande/BA,-11.0208483,-40.3041387,484,3614.36786
D1,Caldeirão Grande/BA,-11.0208483,-40.3041387,3,22.40311
1,Califórnia/PR,-23.6672543,-51.3554556,390,4531.72205
D1,Califórnia/PR,-23.6672543,-51.3554556,8,92.95840
1,Calmon/SC,-26.6023644,-51.0992893,14,419.79010
D1,Calmon/SC,-26.6023644,-51.0992893,2,59.97001
1,Calumbi/PE,-7.9389746,-38.1516871,294,5115.71255
D1,Calumbi/PE,-7.9389746,-38.1516871,2,34.80077
1,Calçado/PE,-8.7413446,-36.3351787,193,1751.67907
D1,Calçado/PE,-8.7413446,-36.3351787,2,18.15211
1,Calçoene/AP,2.4981757,-50.9539503,1510,13355.74031
D1,Calçoene/AP,2.4981757,-50.9539503,9,79.60375
1,Camacan/BA,-15.4166631,-39.4930088,1790,5592.70137
D1,Camacan/BA,-15.4166631,-39.4930088,36,112.47891
1,Camacho/MG,-20.625556,-45.156667,41,1429.06936
1,Camalaú/PB,-7.885031,-36.824191,159,2636.37871
D1,Camalaú/PB,-7.885031,-36.824191,2,33.16200
1,Camamu/BA,-13.9438142,-39.1060917,1038,2933.69510
D1,Camamu/BA,-13.9438142,-39.1060917,26,73.48369
1,Camanducaia/MG,-22.755278,-46.144444,896,4109.90322
D1,Camanducaia/MG,-22.755278,-46.144444,12,55.04335
1,Camapuã/MS,-19.5291747,-54.0434641,275,2008.32542
D1,Camapuã/MS,-19.5291747,-54.0434641,6,43.81801
1,Camaquã/RS,-30.8524752,-51.8075619,3048,4584.97548
D1,Camaquã/RS,-30.8524752,-51.8075619,38,57.16177
1,Camaragibe/PE,-8.0213832,-34.9810768,2865,1803.03211
D1,Camaragibe/PE,-8.0213832,-34.9810768,223,140.34072
1,Camargo/RS,-28.5865661,-52.2031474,148,5397.52006
D1,Camargo/RS,-28.5865661,-52.2031474,1,36.46973
1,Camaçari/BA,-12.6998188,-38.3260762,8288,2723.61010
D1,Camaçari/BA,-12.6998188,-38.3260762,152,49.95038
1,Cambará do Sul/RS,-29.0489517,-50.145412,254,3965.03278
D1,Cambará do Sul/RS,-29.0489517,-50.145412,2,31.22073
1,Cambará/PR,-23.042273,-50.075281,620,2434.61871
D1,Cambará/PR,-23.042273,-50.075281,9,35.34124
1,Cambira/PR,-23.600265,-51.581045,295,3726.15890
D1,Cambira/PR,-23.600265,-51.581045,6,75.78628
1,Camboriú/SC,-27.0273601,-48.6535657,7219,8482.46284
D1,Camboriú/SC,-27.0273601,-48.6535657,83,97.52658
1,Cambuci/RJ,-21.5749919,-41.9107833,391,2520.30424
D1,Cambuci/RJ,-21.5749919,-41.9107833,7,45.12054
1,Cambuquira/MG,-21.853056,-45.2953619,130,1014.67374
D1,Cambuquira/MG,-21.853056,-45.2953619,7,54.63628
1,Cambuí/MG,-22.6122501,-46.0572137,1034,3468.16932
D1,Cambuí/MG,-22.6122501,-46.0572137,12,40.24955
1,Cambé/PR,-23.2782035,-51.2779583,5260,4900.27110
D1,Cambé/PR,-23.2782035,-51.2779583,63,58.69146
1,Cametá/PA,-2.242949,-49.497885,5686,4079.96326
D1,Cametá/PA,-2.242949,-49.497885,115,82.51772
1,Camocim de São Félix/PE,-8.3616757,-35.7638903,314,1661.37566
D1,Camocim de São Félix/PE,-8.3616757,-35.7638903,10,52.91005
1,Camocim/CE,-2.9009918,-40.8427389,2633,4120.04945
D1,Camocim/CE,-2.9009918,-40.8427389,81,126.74668
1,Campanha/MG,-21.8361108,-45.401986,488,2911.34709
D1,Campanha/MG,-21.8361108,-45.401986,11,65.62463
1,Campanário/MG,-18.2398144,-41.7271768,64,1715.81769
1,Campestre da Serra/RS,-28.7966535,-51.0958149,87,2562.59205
1,Campestre de Goiás/GO,-16.7624179,-49.69497,216,5919.42998
D1,Campestre de Goiás/GO,-16.7624179,-49.69497,3,82.21431
1,Campestre do Maranhão/MA,-6.1729113,-47.3640512,551,3812.35730
D1,Campestre do Maranhão/MA,-6.1729113,-47.3640512,17,117.62264
1,Campestre/AL,-8.8481634,-35.5660033,106,1524.30256
D1,Campestre/AL,-8.8481634,-35.5660033,3,43.14064
1,Campestre/MG,-19.6142116,-43.219378,466,2213.35613
D1,Campestre/MG,-19.6142116,-43.219378,6,28.49815
1,Campina Grande do Sul/PR,-25.3046032,-49.0545355,2924,6693.37301
D1,Campina Grande do Sul/PR,-25.3046032,-49.0545355,55,125.90134
1,Campina Grande/PB,-7.2246743,-35.8771292,16314,3961.56452
D1,Campina Grande/PB,-7.2246743,-35.8771292,478,116.07379
1,Campina Verde/MG,-19.535277,-49.486389,208,1053.05792
D1,Campina Verde/MG,-19.535277,-49.486389,10,50.62778
1,Campina da Lagoa/PR,-24.5937926,-52.8038965,257,1830.09328
D1,Campina da Lagoa/PR,-24.5937926,-52.8038965,7,49.84690
1,Campina das Missões/RS,-27.9883295,-54.8411665,110,2037.79177
D1,Campina das Missões/RS,-27.9883295,-54.8411665,4,74.10152
1,Campina do Monte Alegre/SP,-23.5935653,-48.4801876,163,2691.10121
1,Campina do Simão/PR,-25.1086375,-51.8076658,15,388.70174
D1,Campina do Simão/PR,-25.1086375,-51.8076658,1,25.91345
1,Campinas do Piauí/PI,-7.6593687,-41.8814875,80,1423.48754
D1,Campinas do Piauí/PI,-7.6593687,-41.8814875,1,17.79359
1,Campinas do Sul/RS,-27.7167968,-52.6257885,258,4744.39132
D1,Campinas do Sul/RS,-27.7167968,-52.6257885,2,36.77823
1,Campinas/SP,-22.90556,-47.06083,47731,3932.38710
D1,Campinas/SP,-22.90556,-47.06083,1559,128.44046
1,Campinaçu/GO,-13.7869969,-48.5703841,126,3469.16300
1,Campinorte/GO,-14.3136699,-49.1510931,545,4269.82137
D1,Campinorte/GO,-14.3136699,-49.1510931,9,70.51081
1,Campinápolis/MT,-14.5403731,-52.7970626,513,3032.09410
D1,Campinápolis/MT,-14.5403731,-52.7970626,16,94.56824
1,Campo Alegre de Goiás/GO,-17.6337896,-47.779291,48,620.31533
D1,Campo Alegre de Goiás/GO,-17.6337896,-47.779291,1,12.92324
1,Campo Alegre de Lourdes/BA,-9.5160326,-43.0101338,208,721.72103
D1,Campo Alegre de Lourdes/BA,-9.5160326,-43.0101338,5,17.34906
1,Campo Alegre do Fidalgo/PI,-8.3753852,-41.8364191,53,1045.57112
D1,Campo Alegre do Fidalgo/PI,-8.3753852,-41.8364191,1,19.72776
1,Campo Alegre/AL,-9.7798607,-36.3575793,1671,2904.21816
D1,Campo Alegre/AL,-9.7798607,-36.3575793,29,50.40235
1,Campo Alegre/SC,-26.1941684,-49.2657484,536,4473.75010
D1,Campo Alegre/SC,-26.1941684,-49.2657484,19,158.58443
1,Campo Azul/MG,-16.5078525,-44.8133524,52,1359.83264
1,Campo Belo do Sul/SC,-27.8987563,-50.7586887,374,5379.74684
D1,Campo Belo do Sul/SC,-27.8987563,-50.7586887,7,100.69045
1,Campo Belo/MG,-20.8975,-45.277223,1710,3155.79670
D1,Campo Belo/MG,-20.8975,-45.277223,33,60.90134
1,Campo Bom/RS,-29.674694,-51.060601,5574,8024.99352
D1,Campo Bom/RS,-29.674694,-51.060601,91,131.01443
1,Campo Bonito/PR,-25.0328004,-52.992976,96,2551.15599
D1,Campo Bonito/PR,-25.0328004,-52.992976,2,53.14908
1,Campo Erê/SC,-26.3947432,-53.0790495,510,6058.44619
D1,Campo Erê/SC,-26.3947432,-53.0790495,4,47.51722
1,Campo Florido/MG,-19.760833,-48.572223,244,2950.78002
1,Campo Formoso/BA,-10.51055,-40.320031,2035,2846.67142
D1,Campo Formoso/BA,-10.51055,-40.320031,20,27.97711
1,Campo Grande do Piauí/PI,-7.1327559,-41.0381164,350,5867.56077
D1,Campo Grande do Piauí/PI,-7.1327559,-41.0381164,4,67.05784
1,Campo Grande/AL,-9.9725,-36.74791447368421,250,2613.14937
D1,Campo Grande/AL,-9.9725,-36.74791447368421,7,73.16818
1,Campo Grande/MS,-20.4640173,-54.6162947,65946,7278.06889
D1,Campo Grande/MS,-20.4640173,-54.6162947,1209,133.43016
1,Campo Grande/RN,-5.862063,-37.3134908,184,1902.79214
D1,Campo Grande/RN,-5.862063,-37.3134908,3,31.02378
1,Campo Largo do Piauí/PI,-3.8104731,-42.6288333,234,3200.65654
D1,Campo Largo do Piauí/PI,-3.8104731,-42.6288333,5,68.39010
1,Campo Largo/PR,-25.4597726,-49.5270851,7809,5833.48896
D1,Campo Largo/PR,-25.4597726,-49.5270851,143,106.82404
1,Campo Limpo Paulista/SP,-23.207791,-46.788919,1812,2118.28246
D1,Campo Limpo Paulista/SP,-23.207791,-46.788919,84,98.19852
1,Campo Limpo de Goiás/GO,-16.297101,-49.0894994,127,1599.49622
D1,Campo Limpo de Goiás/GO,-16.297101,-49.0894994,2,25.18892
1,Campo Magro/PR,-25.3691533,-49.4496921,1395,4690.65232
D1,Campo Magro/PR,-25.3691533,-49.4496921,35,117.68662
1,Campo Maior/PI,-4.8339574,-42.1739786,2925,6237.60476
D1,Campo Maior/PI,-4.8339574,-42.1739786,57,121.55332
1,Campo Mourão/PR,-24.046329,-52.37802,4153,4349.23760
D1,Campo Mourão/PR,-24.046329,-52.37802,58,60.74062
1,Campo Novo de Rondônia/RO,-10.5704235,-63.6199511,374,2621.61783
D1,Campo Novo de Rondônia/RO,-10.5704235,-63.6199511,7,49.06771
1,Campo Novo do Parecis/MT,-13.658735,-57.890723,3409,9431.97853
D1,Campo Novo do Parecis/MT,-13.658735,-57.890723,33,91.30399
1,Campo Novo/RS,-28.91500235,-52.331375687737626,79,1805.30165
D1,Campo Novo/RS,-28.91500235,-52.331375687737626,2,45.70384
1,Campo Redondo/RN,-6.2420373,-36.1830606,300,2656.98344
D1,Campo Redondo/RN,-6.2420373,-36.1830606,4,35.42645
1,Campo Verde/MT,-15.5430787,-55.1590511,3053,6674.68299
D1,Campo Verde/MT,-15.5430787,-55.1590511,59,128.98994
1,Campo do Brito/SE,-10.7496246,-37.4942276,1171,6427.70886
D1,Campo do Brito/SE,-10.7496246,-37.4942276,14,76.84707
