type,name,lat,lon,total,total_per_100k_inhabitants
1,Abadia de Goiás/GO,-16.7572644,-49.4412205,811,9053.36013
D1,Abadia de Goiás/GO,-16.7572644,-49.4412205,10,111.63206
1,Abadia dos Dourados/MG,-18.4911191,-47.4063589,115,1641.45019
D1,Abadia dos Dourados/MG,-18.4911191,-47.4063589,1,14.27348
1,Abadiânia/GO,-16.1940946,-48.7067767,216,1055.66688
D1,Abadiânia/GO,-16.1940946,-48.7067767,15,73.31020
1,Abaetetuba/PA,-1.721828,-48.878843,5625,3535.95675
D1,Abaetetuba/PA,-1.721828,-48.878843,124,77.94820
1,Abaeté/MG,-19.1566833,-45.4481213,444,1909.67742
D1,Abaeté/MG,-19.1566833,-45.4481213,6,25.80645
1,Abaiara/CE,-7.3607808,-39.0487878,179,1510.16620
D1,Abaiara/CE,-7.3607808,-39.0487878,4,33.74673
1,Abaré/BA,-8.7239913,-39.1139689,215,1056.66683
D1,Abaré/BA,-8.7239913,-39.1139689,1,4.91473
1,Abatiá/PR,-23.3052967,-50.3102532,238,3212.74298
D1,Abatiá/PR,-23.3052967,-50.3102532,3,40.49676
1,Abaíra/BA,-13.2503296,-41.6640342,175,2009.18485
D1,Abaíra/BA,-13.2503296,-41.6640342,5,57.40528
1,Abdon Batista/SC,-27.612419,-51.022992,173,6789.63893
D1,Abdon Batista/SC,-27.612419,-51.022992,1,39.24647
1,Abel Figueiredo/PA,-4.953001,-48.3958485,478,6385.25247
D1,Abel Figueiredo/PA,-4.953001,-48.3958485,2,26.71654
1,Abelardo Luz/SC,-26.5705893,-52.3280339,767,4270.60134
D1,Abelardo Luz/SC,-26.5705893,-52.3280339,19,105.79065
1,Abre Campo/MG,-20.2976097,-42.4764741,284,2112.46653
D1,Abre Campo/MG,-20.2976097,-42.4764741,4,29.75305
1,Abreu e Lima/PE,-7.900719,-34.898389,1431,1426.06581
D1,Abreu e Lima/PE,-7.900719,-34.898389,149,148.48624
1,Abreulândia/TO,-9.6221526,-49.1558343,126,4857.36315
D1,Abreulândia/TO,-9.6221526,-49.1558343,4,154.20200
1,Acaiaca/MG,-20.3621646,-43.1444162,105,2628.94342
D1,Acaiaca/MG,-20.3621646,-43.1444162,3,75.11267
1,Acajutiba/BA,-11.6609659,-38.0186381,290,1909.52789
D1,Acajutiba/BA,-11.6609659,-38.0186381,7,46.09205
1,Acarape/CE,-4.2237866,-38.7071663,1976,13141.79303
D1,Acarape/CE,-4.2237866,-38.7071663,14,93.10987
1,Acaraú/CE,-2.8869514,-40.1194713,2857,4527.44675
D1,Acaraú/CE,-2.8869514,-40.1194713,58,91.91176
1,Acari/RN,-6.4364689,-36.6394777,397,3569.82286
D1,Acari/RN,-6.4364689,-36.6394777,7,62.94398
1,Acará/PA,-1.961388,-48.1987043,885,1589.75372
D1,Acará/PA,-1.961388,-48.1987043,16,28.74131
1,Acauã/PI,-8.219542,-41.083059,132,1858.63137
D1,Acauã/PI,-8.219542,-41.083059,1,14.08054
1,Aceguá/RS,-31.8695131,-54.1615593,61,1234.31809
1,Acopiara/CE,-6.0936464,-39.4543204,1444,2650.46530
D1,Acopiara/CE,-6.0936464,-39.4543204,62,113.80114
1,Acorizal/MT,-15.2001544,-56.3668953,253,4743.15711
D1,Acorizal/MT,-15.2001544,-56.3668953,7,131.23360
1,Acrelândia/AC,-10.0759167,-67.0526898,647,4176.88832
D1,Acrelândia/AC,-10.0759167,-67.0526898,14,90.38089
1,Acreúna/GO,-17.3959899,-50.3749031,1118,4958.75100
D1,Acreúna/GO,-17.3959899,-50.3749031,27,119.75517
1,Adamantina/SP,-21.6866517,-51.0762975,1069,3044.62989
D1,Adamantina/SP,-21.6866517,-51.0762975,22,62.65843
1,Adelândia/GO,-16.4155077,-50.1665834,92,3656.59777
D1,Adelândia/GO,-16.4155077,-50.1665834,2,79.49126
1,Adolfo/SP,-21.2356597,-49.6441918,209,5880.69781
D1,Adolfo/SP,-21.2356597,-49.6441918,5,140.68655
1,Adrianópolis/PR,-24.6557863,-48.9912769,576,9834.38620
D1,Adrianópolis/PR,-24.6557863,-48.9912769,9,153.66228
1,Adustina/BA,-10.5358875,-38.114479,199,1161.97594
D1,Adustina/BA,-10.5358875,-38.114479,4,23.35630
1,Afogados da Ingazeira/PE,-7.750429,-37.6356375,2017,5392.47139
D1,Afogados da Ingazeira/PE,-7.750429,-37.6356375,27,72.18479
1,Afonso Bezerra/RN,-5.4745,-36.57625071327935,223,2021.94215
D1,Afonso Bezerra/RN,-5.4745,-36.57625071327935,11,99.73706
1,Afonso Cláudio/ES,-20.077841,-41.12606,2057,6754.22755
D1,Afonso Cláudio/ES,-20.077841,-41.12606,34,111.64012
1,Afonso Cunha/MA,-4.1326105,-43.3230026,152,2310.73275
D1,Afonso Cunha/MA,-4.1326105,-43.3230026,2,30.40438
1,Afrânio/PE,-8.5198919,-41.0070197,540,2725.89601
D1,Afrânio/PE,-8.5198919,-41.0070197,9,45.43160
1,Afuá/PA,-0.1535664,-50.3879223,2650,6697.50044
D1,Afuá/PA,-0.1535664,-50.3879223,11,27.80095
1,Agrestina/PE,-8.4558021,-35.9442663,754,3008.17874
D1,Agrestina/PE,-8.4558021,-35.9442663,34,135.64732
1,Agricolândia/PI,-5.7967843,-42.6605131,77,1500.68213
1,Agrolândia/SC,-27.4122212,-49.8295774,496,4503.76827
D1,Agrolândia/SC,-27.4122212,-49.8295774,6,54.48107
1,Agronômica/SC,-27.2660744,-49.7104753,265,4810.31040
D1,Agronômica/SC,-27.2660744,-49.7104753,7,127.06480
1,Aguanil/MG,-20.9424533,-45.3927152,197,4356.47943
D1,Aguanil/MG,-20.9424533,-45.3927152,4,88.45644
1,Aguaí/SP,-22.0592036,-46.979384,880,2401.22244
D1,Aguaí/SP,-22.0592036,-46.979384,19,51.84458
1,Agudo/RS,-29.6423259,-53.2494005,425,2591.30541
D1,Agudo/RS,-29.6423259,-53.2494005,3,18.29157
1,Agudos do Sul/PR,-25.9890808,-49.3328175,257,2713.83316
D1,Agudos do Sul/PR,-25.9890808,-49.3328175,2,21.11932
1,Agudos/SP,-22.471162,-48.987822,1254,3352.85153
D1,Agudos/SP,-22.471162,-48.987822,20,53.47451
1,Aguiar/PB,-7.0928404,-38.1727215,71,1261.10124
D1,Aguiar/PB,-7.0928404,-38.1727215,1,17.76199
1,Aguiarnópolis/TO,-6.5600452,-47.4721189,480,6964.59663
D1,Aguiarnópolis/TO,-6.5600452,-47.4721189,10,145.09576
1,Aimorés/MG,-19.4917754,-41.0615603,1049,4172.46728
D1,Aimorés/MG,-19.4917754,-41.0615603,23,91.48403
1,Aiquara/BA,-14.126918,-39.8887574,353,7993.65942
D1,Aiquara/BA,-14.126918,-39.8887574,6,135.86957
1,Aiuaba/CE,-6.5710836,-40.1212278,105,600.24010
D1,Aiuaba/CE,-6.5710836,-40.1212278,2,11.43314
1,Aiuruoca/MG,-21.9759554,-44.6036637,61,1020.74967
D1,Aiuruoca/MG,-21.9759554,-44.6036637,5,83.66801
1,Ajuricaba/RS,-28.239654,-53.7693013,483,6912.83813
D1,Ajuricaba/RS,-28.239654,-53.7693013,4,57.24918
1,Alagoa Grande/PB,-7.0415212,-35.6285322,1840,6469.98840
D1,Alagoa Grande/PB,-7.0415212,-35.6285322,31,109.00524
1,Alagoa Nova/PB,-7.0653703,-35.76695977336711,508,2428.18221
D1,Alagoa Nova/PB,-7.0653703,-35.76695977336711,11,52.57875
1,Alagoa/MG,-22.1697202,-44.6400042,154,5778.61163
1,Alagoinha do Piauí/PI,-7.0090952,-40.939675,202,2635.35551
D1,Alagoinha do Piauí/PI,-7.0090952,-40.939675,7,91.32420
1,Alagoinha/PB,-6.97063215,-35.51490901897793,1160,7967.03297
D1,Alagoinha/PB,-6.97063215,-35.51490901897793,16,109.89011
1,Alagoinha/PE,-8.50355635,-36.77701174370496,404,2744.93817
D1,Alagoinha/PE,-8.50355635,-36.77701174370496,12,81.53282
1,Alagoinhas/BA,-12.133526,-38.420772,7847,5151.41767
D1,Alagoinhas/BA,-12.133526,-38.420772,108,70.90010
1,Alambari/SP,-23.550338,-47.897971,170,2773.69881
D1,Alambari/SP,-23.550338,-47.897971,5,81.57938
1,Albertina/MG,-20.66164,-43.784039,89,2955.82863
D1,Albertina/MG,-20.66164,-43.784039,5,166.05779
1,Alcantil/PB,-7.7425491,-36.0609604,113,2051.18896
D1,Alcantil/PB,-7.7425491,-36.0609604,1,18.15211
1,Alcinópolis/MS,-18.3264121,-53.7094463,71,1310.68857
D1,Alcinópolis/MS,-18.3264121,-53.7094463,2,36.92080
1,Alcobaça/BA,-17.5215875,-39.1965474,948,4215.20676
D1,Alcobaça/BA,-17.5215875,-39.1965474,16,71.14273
1,Alcântara/MA,-2.4038956,-44.4154241,202,913.53111
D1,Alcântara/MA,-2.4038956,-44.4154241,8,36.17945
1,Alcântaras/CE,-3.586247,-40.5457641,666,5653.17036
D1,Alcântaras/CE,-3.586247,-40.5457641,4,33.95298
1,Aldeias Altas/MA,-4.6291957,-43.4708622,947,3539.26075
D1,Aldeias Altas/MA,-4.6291957,-43.4708622,11,41.11074
1,Alecrim/RS,-27.6566142,-54.7653195,86,1475.88811
D1,Alecrim/RS,-27.6566142,-54.7653195,2,34.32298
1,Alegre/ES,-20.7625787,-41.5318886,1142,3809.84153
D1,Alegre/ES,-20.7625787,-41.5318886,26,86.73895
1,Alegrete do Piauí/PI,-7.2440138,-40.8602296,359,7299.71533
D1,Alegrete do Piauí/PI,-7.2440138,-40.8602296,4,81.33388
1,Alegrete/RS,-29.790166,-55.794862,2603,3564.38626
D1,Alegrete/RS,-29.790166,-55.794862,53,72.57490
1,Alegria/RS,-27.8332103,-54.0574959,195,5779.49022
D1,Alegria/RS,-27.8332103,-54.0574959,1,29.63841
1,Alenquer/PA,-1.946229,-54.738355,1750,3065.22805
D1,Alenquer/PA,-1.946229,-54.738355,30,52.54677
1,Alexandria/RN,-6.414779,-38.0135516,595,4390.17192
D1,Alexandria/RN,-6.414779,-38.0135516,9,66.40596
1,Alexânia/GO,-16.0834049,-48.5077803,1558,5562.29918
D1,Alexânia/GO,-16.0834049,-48.5077803,27,96.39414
1,Alfenas/MG,-21.4297405,-45.9479419,3633,4513.37988
D1,Alfenas/MG,-21.4297405,-45.9479419,79,98.14396
1,Alfredo Chaves/ES,-20.624970400000002,-40.75006690147988,1551,10597.15769
D1,Alfredo Chaves/ES,-20.624970400000002,-40.75006690147988,20,136.64936
1,Alfredo Marcondes/SP,-21.9527,-51.413956,119,2844.16826
D1,Alfredo Marcondes/SP,-21.9527,-51.413956,4,95.60229
1,Alfredo Vasconcelos/MG,-21.145833,-43.776389,122,1747.60063
D1,Alfredo Vasconcelos/MG,-21.145833,-43.776389,4,57.29838
1,Alfredo Wagner/SC,-27.6961513,-49.3326734,539,5344.04125
D1,Alfredo Wagner/SC,-27.6961513,-49.3326734,1,9.91473
1,Algodão de Jandaíra/PB,-6.9040175,-36.0089879,49,1901.43578
1,Alhandra/PB,-7.4304246,-34.9106103,827,4192.22386
D1,Alhandra/PB,-7.4304246,-34.9106103,19,96.31470
1,Aliança do Tocantins/TO,-11.3055927,-48.9409096,255,4769.92144
D1,Aliança do Tocantins/TO,-11.3055927,-48.9409096,4,74.82230
1,Aliança/PE,-7.60398,-35.222696,419,1091.23109
D1,Aliança/PE,-7.60398,-35.222696,30,78.13110
1,Almadina/BA,-14.70466,-39.6381994,427,7957.51025
D1,Almadina/BA,-14.70466,-39.6381994,6,111.81513
1,Almas/TO,-11.5681309,-47.1702803,140,2006.01805
D1,Almas/TO,-11.5681309,-47.1702803,3,42.98610
1,Almeirim/PA,-1.5290377,-52.5788111,2089,6130.41437
D1,Almeirim/PA,-1.5290377,-52.5788111,18,52.82310
1,Almenara/MG,-16.1740678,-40.6904907,1982,4703.03490
D1,Almenara/MG,-16.1740678,-40.6904907,20,47.45747
1,Almino Afonso/RN,-6.1544208,-37.7649018,208,4416.13588
D1,Almino Afonso/RN,-6.1544208,-37.7649018,4,84.92569
1,Almirante Tamandaré do Sul/RS,-28.1141129,-52.9134874,80,4104.66906
1,Almirante Tamandaré/PR,-25.3133048,-49.2997838,4503,3751.21833
D1,Almirante Tamandaré/PR,-25.3133048,-49.2997838,117,97.46670
1,Aloândia/GO,-17.7277983,-49.4809338,160,8056.39476
D1,Aloândia/GO,-17.7277983,-49.4809338,5,251.76234
1,Alpercata/MG,-18.9803616,-41.9827637,315,4236.14847
D1,Alpercata/MG,-18.9803616,-41.9827637,12,161.37708
1,Alpestre/RS,-27.2512339,-53.0349646,138,2274.60030
D1,Alpestre/RS,-27.2512339,-53.0349646,3,49.44783
1,Alpinópolis/MG,-20.863611,-46.387777,195,977.05181
D1,Alpinópolis/MG,-20.863611,-46.387777,5,25.05261
1,Alta Floresta D'Oeste/RO,-11.9296917,-61.9961284,2118,9318.90180
D1,Alta Floresta D'Oeste/RO,-11.9296917,-61.9961284,25,109.99648
1,Alta Floresta/MT,-9.8715018,-56.0839881,3500,6736.08037
D1,Alta Floresta/MT,-9.8715018,-56.0839881,35,67.36080
1,Altair/SP,-20.5238955,-49.0606135,57,1361.68180
D1,Altair/SP,-20.5238955,-49.0606135,4,95.55662
1,Altamira do Maranhão/MA,-4.1643006,-45.4674574,275,3358.16339
D1,Altamira do Maranhão/MA,-4.1643006,-45.4674574,7,85.48052
1,Altamira do Paraná/PR,-24.799114,-52.7128633,35,2080.85612
D1,Altamira do Paraná/PR,-24.799114,-52.7128633,2,118.90606
1,Altamira/PA,-3.204065,-52.209961,7112,6132.67339
D1,Altamira/PA,-3.204065,-52.209961,145,125.03341
1,Altaneira/CE,-6.9980933,-39.7385742,247,3228.75817
D1,Altaneira/CE,-6.9980933,-39.7385742,6,78.43137
1,Alterosa/MG,-21.249166,-46.143055,408,2810.49804
D1,Alterosa/MG,-21.249166,-46.143055,11,75.77323
1,Altinho/PE,-8.4904095,-36.0607494,664,2888.96624
D1,Altinho/PE,-8.4904095,-36.0607494,12,52.21023
1,Altinópolis/SP,-21.021364,-47.3712,386,2382.27489
D1,Altinópolis/SP,-21.021364,-47.3712,10,61.71697
1,Alto Alegre do Maranhão/MA,-4.2055693,-44.4525287,401,1439.44289
D1,Alto Alegre do Maranhão/MA,-4.2055693,-44.4525287,18,64.61340
1,Alto Alegre do Pindaré/MA,-3.6698186,-45.8462153,1621,5074.66425
D1,Alto Alegre do Pindaré/MA,-3.6698186,-45.8462153,25,78.26441
1,Alto Alegre dos Parecis/RO,-12.1314515,-61.856265,523,3945.68088
D1,Alto Alegre dos Parecis/RO,-12.1314515,-61.856265,14,105.62052
1,Alto Alegre/RR,2.98858,-61.307167,911,5923.27698
D1,Alto Alegre/RR,2.98858,-61.307167,21,136.54096
1,Alto Alegre/RS,-31.780844700000003,-52.81311114489171,32,1983.88097
1,Alto Alegre/SP,-21.5820592,-50.1661976,142,3473.58121
D1,Alto Alegre/SP,-21.5820592,-50.1661976,4,97.84736
1,Alto Araguaia/MT,-17.3156528,-53.2169365,548,2826.92804
D1,Alto Araguaia/MT,-17.3156528,-53.2169365,9,46.42765
1,Alto Bela Vista/SC,-27.4320737,-51.905771,56,2907.58048
D1,Alto Bela Vista/SC,-27.4320737,-51.905771,1,51.92108
1,Alto Boa Vista/MT,-11.6723985,-51.3744431,134,1931.94925
D1,Alto Boa Vista/MT,-11.6723985,-51.3744431,3,43.25260
1,Alto Caparaó/MG,-20.4405661,-41.8683799,243,4122.83678
D1,Alto Caparaó/MG,-20.4405661,-41.8683799,5,84.83203
1,Alto Feliz/RS,-29.3785943,-51.3123751,91,2997.36495
1,Alto Garças/MT,-16.9469683,-53.529427,342,2814.58316
D1,Alto Garças/MT,-16.9469683,-53.529427,16,131.67641
1,Alto Horizonte/GO,-14.1954948,-49.3366993,249,3769.87131
D1,Alto Horizonte/GO,-14.1954948,-49.3366993,3,45.42014
1,Alto Jequitibá/MG,-20.423611,-41.966111,371,4469.34104
D1,Alto Jequitibá/MG,-20.423611,-41.966111,7,84.32719
1,Alto Longá/PI,-5.2549051,-42.2072388,311,2168.90997
D1,Alto Longá/PI,-5.2549051,-42.2072388,6,41.84392
1,Alto Paraguai/MT,-14.513712,-56.4936374,362,3155.23403
D1,Alto Paraguai/MT,-14.513712,-56.4936374,11,95.87728
1,Alto Paraná/PR,-23.131247,-52.318893,391,2631.40184
D1,Alto Paraná/PR,-23.131247,-52.318893,4,26.91971
1,Alto Paraíso de Goiás/GO,-14.1304779,-47.5100161,412,5359.00104
1,Alto Paraíso/PR,-23.508137,-53.728537,58,2160.14898
1,Alto Paraíso/RO,-9.7240103,-63.3188123,669,3062.20534
D1,Alto Paraíso/RO,-9.7240103,-63.3188123,10,45.77287
1,Alto Parnaíba/MA,-9.112506,-45.9310154,560,4994.64859
D1,Alto Parnaíba/MA,-9.112506,-45.9310154,5,44.59508
1,Alto Piquiri/PR,-24.0239021,-53.4417448,302,3088.56617
D1,Alto Piquiri/PR,-24.0239021,-53.4417448,6,61.36224
1,Alto Rio Doce/MG,-21.0239537,-43.4133507,173,1593.14854
D1,Alto Rio Doce/MG,-21.0239537,-43.4133507,12,110.50741
1,Alto Rio Novo/ES,-19.0577208,-41.0171518,447,5676.91135
D1,Alto Rio Novo/ES,-19.0577208,-41.0171518,15,190.50038
1,Alto Santo/CE,-5.5190371,-38.2719351,583,3390.32333
D1,Alto Santo/CE,-5.5190371,-38.2719351,14,81.41428
1,Alto Taquari/MT,-17.8269099,-53.2831736,642,5766.63972
D1,Alto Taquari/MT,-17.8269099,-53.2831736,9,80.84074
1,Alto do Rodrigues/RN,-5.290868,-36.7616726,820,5567.62629
D1,Alto do Rodrigues/RN,-5.290868,-36.7616726,19,129.00598
1,Altos/PI,-5.0393915,-42.4611694,2387,5878.58638
D1,Altos/PI,-5.0393915,-42.4611694,34,83.73353
1,Altônia/PR,-23.8722004,-53.894037,516,2326.83983
D1,Altônia/PR,-23.8722004,-53.894037,5,22.54690
1,Alumínio/SP,-23.5203479,-47.2575256,570,3037.24623
D1,Alumínio/SP,-23.5203479,-47.2575256,18,95.91304
1,Alvarenga/MG,-19.4175,-41.728334,257,6685.74402
D1,Alvarenga/MG,-19.4175,-41.728334,3,78.04370
1,Alvarães/AM,-3.214786,-64.8143124,2035,12546.23921
D1,Alvarães/AM,-3.214786,-64.8143124,30,184.95684
1,Alvinlândia/SP,-22.4431852,-49.7643596,55,1699.10411
1,Alvinópolis/MG,-20.1105199,-43.0601805,274,1806.31551
D1,Alvinópolis/MG,-20.1105199,-43.0601805,3,19.77718
1,Alvorada D'Oeste/RO,-11.346271,-62.284697,416,2949.09967
D1,Alvorada D'Oeste/RO,-11.346271,-62.284697,8,56.71346
1,Alvorada de Minas/MG,-18.7318587,-43.3641479,109,3023.57836
D1,Alvorada de Minas/MG,-18.7318587,-43.3641479,1,27.73925
1,Alvorada do Gurguéia/PI,-8.4465288,-43.8655915,133,2442.60790
D1,Alvorada do Gurguéia/PI,-8.4465288,-43.8655915,5,91.82736
1,Alvorada do Norte/GO,-14.483911,-46.4959897,387,4445.72085
D1,Alvorada do Norte/GO,-14.483911,-46.4959897,1,11.48765
1,Alvorada do Sul/PR,-22.7807269,-51.2307721,301,2616.70868
D1,Alvorada do Sul/PR,-22.7807269,-51.2307721,8,69.54707
1,Alvorada/RS,-29.9981184,-51.0772509,10276,4862.03111
D1,Alvorada/RS,-29.9981184,-51.0772509,270,127.74897
1,Alvorada/TO,-12.478465,-49.124926,638,7598.85660
D1,Alvorada/TO,-12.478465,-49.124926,11,131.01477
1,Além Paraíba/MG,-21.8760576,-42.6810473,1350,3813.45160
D1,Além Paraíba/MG,-21.8760576,-42.6810473,38,107.34160
1,Amajari/RR,3.6523869,-61.4194315,641,4861.58513
D1,Amajari/RR,3.6523869,-61.4194315,16,121.35002
1,Amambai/MS,-23.1082701,-55.2284854,1623,4075.22724
D1,Amambai/MS,-23.1082701,-55.2284854,31,77.83860
1,Amaporã/PR,-23.094272,-52.786597,70,1105.49589
1,Amapá do Maranhão/MA,-1.6762114,-46.0109669,39,556.74518
1,Amapá/AP,2.0529997,-50.7930003,1065,11592.46762
D1,Amapá/AP,2.0529997,-50.7930003,7,76.19462
1,Amaraji/PE,-8.373925,-35.4536527,380,1661.56537
D1,Amaraji/PE,-8.373925,-35.4536527,24,104.94097
1,Amaral Ferrador/RS,-30.8750633,-52.2542051,125,1764.29076
D1,Amaral Ferrador/RS,-30.8750633,-52.2542051,2,28.22865
1,Amaralina/GO,-13.9236199,-49.2962411,18,468.14044
1,Amarante do Maranhão/MA,-5.56913,-46.747284,1171,2806.20192
D1,Amarante do Maranhão/MA,-5.56913,-46.747284,31,74.28886
1,Amarante/PI,-6.2459374,-42.8476238,864,4907.97546
D1,Amarante/PI,-6.2459374,-42.8476238,16,90.88843
1,Amargosa/BA,-13.03793715,-39.60796443875596,1086,2900.56355
D1,Amargosa/BA,-13.03793715,-39.60796443875596,19,50.74651
1,Amaturá/AM,-3.3640509,-68.1994689,1397,11903.54465
D1,Amaturá/AM,-3.3640509,-68.1994689,11,93.72870
1,Americana/SP,-22.7392463,-47.3306032,9574,3955.90411
D1,Americana/SP,-22.7392463,-47.3306032,247,102.05852
1,Americano do Brasil/GO,-16.2515808,-49.9806104,179,2903.95847
D1,Americano do Brasil/GO,-16.2515808,-49.9806104,4,64.89293
1,Ametista do Sul/RS,-27.3617341,-53.1826575,211,2850.19587
D1,Ametista do Sul/RS,-27.3617341,-53.1826575,2,27.01607
1,Amontada/CE,-3.3634586,-39.8284791,1103,2516.59860
D1,Amontada/CE,-3.3634586,-39.8284791,21,47.91348
1,Amorinópolis/GO,-16.6211308,-51.0949921,98,3193.22255
D1,Amorinópolis/GO,-16.6211308,-51.0949921,1,32.58390
1,Amparo de São Francisco/SE,-10.1299754,-36.9269099,76,3193.27731
D1,Amparo de São Francisco/SE,-10.1299754,-36.9269099,2,84.03361
1,Amparo do Serra/MG,-20.5070255,-42.8028462,72,1539.11928
D1,Amparo do Serra/MG,-20.5070255,-42.8028462,3,64.12997
1,Amparo/PB,-7.56394725,-37.04652873235175,50,2221.23501
D1,Amparo/PB,-7.56394725,-37.04652873235175,1,44.42470
1,Amparo/SP,-22.70111,-46.76444,2523,3471.52469
D1,Amparo/SP,-22.70111,-46.76444,40,55.03805
1,Ampére/PR,-25.9168712,-53.4742414,516,2672.05220
D1,Ampére/PR,-25.9168712,-53.4742414,11,56.96235
1,Amélia Rodrigues/BA,-12.4015388,-38.7516971,997,3980.35771
D1,Amélia Rodrigues/BA,-12.4015388,-38.7516971,18,71.86202
1,América Dourada/BA,-11.4515262,-41.4357517,403,2504.66128
D1,América Dourada/BA,-11.4515262,-41.4357517,2,12.43008
1,Américo Brasiliense/SP,-21.7297099,-48.1052092,1480,3606.94092
D1,Américo Brasiliense/SP,-21.7297099,-48.1052092,24,58.49093
1,Américo de Campos/SP,-20.298476,-49.735904,411,6871.76058
D1,Américo de Campos/SP,-20.298476,-49.735904,13,217.35496
1,Anadia/AL,-9.6830208,-36.3052699,640,3651.71745
D1,Anadia/AL,-9.6830208,-36.3052699,10,57.05809
1,Anagé/BA,-14.6134669,-41.1376308,397,1837.36752
D1,Anagé/BA,-14.6134669,-41.1376308,7,32.39691
1,Anahy/PR,-24.6450861,-53.1337957,79,2833.57245
D1,Anahy/PR,-24.6450861,-53.1337957,2,71.73601
1,Anajatuba/MA,-3.26441,-44.6179916,372,1378.39040
D1,Anajatuba/MA,-3.26441,-44.6179916,12,44.46421
1,Anajás/PA,-0.9878802,-49.9390114,1025,3452.57343
D1,Anajás/PA,-0.9878802,-49.9390114,11,37.05201
1,Analândia/SP,-22.128917,-47.661939,159,3144.77848
D1,Analândia/SP,-22.128917,-47.661939,3,59.33544
1,Anamã/AM,-3.5797356,-61.4049996,1425,10210.66208
D1,Anamã/AM,-3.5797356,-61.4049996,3,21.49613
1,Ananindeua/PA,-1.374035,-48.4016623,12772,2384.85138
D1,Ananindeua/PA,-1.374035,-48.4016623,407,75.99706
1,Ananás/TO,-6.3663053,-48.080238,828,8723.13527
D1,Ananás/TO,-6.3663053,-48.080238,17,179.09819
1,Anapu/PA,-3.4668292,-51.2057035,1138,3978.04733
D1,Anapu/PA,-3.4668292,-51.2057035,23,80.39990
1,Anapurus/MA,-3.6751298,-43.1046001,824,5184.34629
D1,Anapurus/MA,-3.6751298,-43.1046001,6,37.75009
1,Anastácio/MS,-20.4832458,-55.8048448,1376,5452.31208
D1,Anastácio/MS,-20.4832458,-55.8048448,40,158.49744
1,Anaurilândia/MS,-22.185169,-52.719056,132,1454.38519
D1,Anaurilândia/MS,-22.185169,-52.719056,5,55.09035
1,Anchieta/ES,-20.8057672,-40.6454564,2379,7988.85120
D1,Anchieta/ES,-20.8057672,-40.6454564,41,137.68092
1,Anchieta/SC,-26.5350527,-53.3293938,196,3527.08296
D1,Anchieta/SC,-26.5350527,-53.3293938,4,71.98128
1,Andaraí/BA,-12.8059674,-41.3322919,504,3837.95309
D1,Andaraí/BA,-12.8059674,-41.3322919,3,22.84496
1,Andirá/PR,-23.0494761,-50.2310027,895,4491.61899
D1,Andirá/PR,-23.0494761,-50.2310027,9,45.16712
1,Andorinha/BA,-10.3445708,-39.8334411,446,3075.22582
D1,Andorinha/BA,-10.3445708,-39.8334411,7,48.26588
1,Andradas/MG,-22.0680484,-46.5688976,966,2333.55880
D1,Andradas/MG,-22.0680484,-46.5688976,23,55.56092
1,Andradina/SP,-20.896505,-51.3742765,2697,4714.87011
D1,Andradina/SP,-20.896505,-51.3742765,99,173.07087
1,Andrelândia/MG,-21.739722,-44.308889,169,1384.56497
D1,Andrelândia/MG,-21.739722,-44.308889,2,16.38538
1,André da Rocha/RS,-28.6309124,-51.5733328,54,4020.84885
1,Angatuba/SP,-23.4938938,-48.4110675,536,2103.69324
D1,Angatuba/SP,-23.4938938,-48.4110675,17,66.72161
1,Angelim/PE,-8.8902038,-36.2872987,96,855.15767
D1,Angelim/PE,-8.8902038,-36.2872987,4,35.63157
1,Angelina/SC,-27.5805287,-48.9838759,258,5439.59519
1,Angelândia/MG,-17.7253,-42.2728,42,490.82622
1,Angical do Piauí/PI,-6.0872666,-42.7366138,242,3567.74289
D1,Angical do Piauí/PI,-6.0872666,-42.7366138,6,88.45644
1,Angical/BA,-12.005623,-44.7000236,309,2216.96083
D1,Angical/BA,-12.005623,-44.7000236,5,35.87315
1,Angico/TO,-6.3893733,-47.8656722,174,5037.63752
D1,Angico/TO,-6.3893733,-47.8656722,3,86.85582
1,Angicos/RN,-5.6666344,-36.6009064,208,1777.01837
D1,Angicos/RN,-5.6666344,-36.6009064,6,51.26015
1,Angra dos Reis/RJ,-23.0063966,-44.316326,10333,4990.72661
D1,Angra dos Reis/RJ,-23.0063966,-44.316326,318,153.59054
1,Anguera/BA,-12.1509425,-39.2452469,182,1611.04718
1,Angélica/MS,-22.1588196,-53.7728504,343,3137.57775
D1,Angélica/MS,-22.1588196,-53.7728504,7,64.03220
1,Anhanguera/GO,-18.3338749,-48.220363,40,3448.27586
D1,Anhanguera/GO,-18.3338749,-48.220363,3,258.62069
1,Anhembi/SP,-22.7891096,-48.1316776,60,879.89441
D1,Anhembi/SP,-22.7891096,-48.1316776,2,29.32981
1,Anhumas/SP,-22.2956478,-51.3873401,143,3450.77220
D1,Anhumas/SP,-22.2956478,-51.3873401,1,24.13127
1,Anicuns/GO,-16.4606451,-49.9572265,1150,5231.79109
D1,Anicuns/GO,-16.4606451,-49.9572265,20,90.98767
1,Anita Garibaldi/SC,-27.6855032,-51.1293873,605,8696.27713
D1,Anita Garibaldi/SC,-27.6855032,-51.1293873,3,43.12204
1,Anitápolis/SC,-27.9041185,-49.1287395,189,5855.01859
1,Anori/AM,-3.7435254,-61.6605203,1585,7379.98789
D1,Anori/AM,-3.7435254,-61.6605203,22,102.43516
1,Anta Gorda/RS,-28.9718745,-52.0069187,365,6123.13370
D1,Anta Gorda/RS,-28.9718745,-52.0069187,1,16.77571
1,Antas/BA,-10.4114649,-38.3308815,688,3532.00883
1,Antonina do Norte/CE,-6.7754187,-39.9879345,98,1328.27324
D1,Antonina do Norte/CE,-6.7754187,-39.9879345,5,67.76904
1,Antonina/PR,-25.4298854,-48.7125431,1427,7530.74041
D1,Antonina/PR,-25.4298854,-48.7125431,35,184.70632
1,Antônio Almeida/PI,-7.2186016,-44.1950248,270,8517.35016
D1,Antônio Almeida/PI,-7.2186016,-44.1950248,5,157.72871
1,Antônio Cardoso/BA,-12.4363122,-39.1200307,181,1550.05566
D1,Antônio Cardoso/BA,-12.4363122,-39.1200307,4,34.25537
1,Antônio Carlos/MG,-21.318334,-43.746666,283,2469.67449
D1,Antônio Carlos/MG,-21.318334,-43.746666,4,34.90706
1,Antônio Carlos/SC,-27.5168462,-48.7684715,866,10054.56868
D1,Antônio Carlos/SC,-27.5168462,-48.7684715,14,162.54499
1,Antônio Dias/MG,-19.6525,-42.872778,203,2188.67925
D1,Antônio Dias/MG,-19.6525,-42.872778,6,64.69003
1,Antônio Gonçalves/BA,-10.5715409,-40.2748824,440,3704.32733
D1,Antônio Gonçalves/BA,-10.5715409,-40.2748824,3,25.25678
1,Antônio João/MS,-22.1892837,-55.9508227,186,2062.08426
D1,Antônio João/MS,-22.1892837,-55.9508227,4,44.34590
1,Antônio Martins/RN,-6.2155812,-37.8890129,146,2040.81633
D1,Antônio Martins/RN,-6.2155812,-37.8890129,2,27.95639
1,Antônio Olinto/PR,-25.9849006,-50.1974516,149,2006.19362
D1,Antônio Olinto/PR,-25.9849006,-50.1974516,1,13.46439
1,Antônio Prado de Minas/MG,-21.0171988,-42.1101106,134,8443.60428
D1,Antônio Prado de Minas/MG,-21.0171988,-42.1101106,3,189.03592
1,Antônio Prado/RS,-28.8567806,-51.2801355,1105,8470.67842
D1,Antônio Prado/RS,-28.8567806,-51.2801355,12,91.98927
1,Anápolis/GO,-16.3332828,-48.9525756,18906,4825.76601
D1,Anápolis/GO,-16.3332828,-48.9525756,450,114.86273
1,Anísio de Abreu/PI,-9.185643,-43.04941,215,2163.41316
D1,Anísio de Abreu/PI,-9.185643,-43.04941,2,20.12477
1,Aparecida d'Oeste/SP,-20.4498109,-50.8808706,401,9644.05964
D1,Aparecida d'Oeste/SP,-20.4498109,-50.8808706,10,240.50024
1,Aparecida de Goiânia/GO,-16.8226769,-49.2452546,42779,7248.88417
D1,Aparecida de Goiânia/GO,-16.8226769,-49.2452546,632,107.09214
1,Aparecida do Rio Doce/GO,-18.2980167,-51.1491312,114,4607.92239
D1,Aparecida do Rio Doce/GO,-18.2980167,-51.1491312,2,80.84074
1,Aparecida do Rio Negro/TO,-9.9513491,-47.9773786,138,2846.53465
D1,Aparecida do Rio Negro/TO,-9.9513491,-47.9773786,3,61.88119
1,Aparecida do Taboado/MS,-20.0840304,-51.1013943,1299,4982.92992
D1,Aparecida do Taboado/MS,-20.0840304,-51.1013943,21,80.55545
1,Aparecida/PB,-6.7859598, -38.0831353,577,6855.98859
D1,Aparecida/PB,-6.7859598, -38.0831353,8,95.05703
1,Aparecida/SP,-22.851552,-45.2340924,1064,2940.44494
D1,Aparecida/SP,-22.851552,-45.2340924,25,69.08940
1,Aperibé/RJ,-21.6211928,-42.1028167,275,2310.73019
D1,Aperibé/RJ,-21.6211928,-42.1028167,10,84.02655
1,Apiacá/ES,-21.152272,-41.569297,423,5599.68229
D1,Apiacá/ES,-21.152272,-41.569297,11,145.61822
1,Apiacás/MT,-9.5678422,-57.394852,311,3024.40922
D1,Apiacás/MT,-9.5678422,-57.394852,1,9.72479
1,Apiaí/SP,-24.5076527,-48.8461582,448,1849.25287
D1,Apiaí/SP,-24.5076527,-48.8461582,15,61.91695
1,Apicum-Açu/MA,-1.5279295,-45.082278,203,1165.79567
D1,Apicum-Açu/MA,-1.5279295,-45.082278,3,17.22851
1,Apiúna/SC,-27.0374658,-49.3885037,479,4415.56047
D1,Apiúna/SC,-27.0374658,-49.3885037,11,101.40118
1,Apodi/RN,-5.6631109,-37.796927,3757,10472.76579
D1,Apodi/RN,-5.6631109,-37.796927,49,136.58917
1,Aporá/BA,-11.6599747,-38.0794757,320,1798.96559
D1,Aporá/BA,-11.6599747,-38.0794757,8,44.97414
1,Aporé/GO,-18.9642193,-51.92804,180,4253.30813
D1,Aporé/GO,-18.9642193,-51.92804,4,94.51796
1,Apuarema/BA,-13.8517897,-39.7457126,505,6915.91345
D1,Apuarema/BA,-13.8517897,-39.7457126,7,95.86415
1,Apucarana/PR,-23.5525327,-51.4610764,3611,2650.58649
D1,Apucarana/PR,-23.5525327,-51.4610764,118,86.61568
1,Apuiarés/CE,-3.9460303,-39.4313298,277,1887.94984
D1,Apuiarés/CE,-3.9460303,-39.4313298,12,81.78844
1,Apuí/AM,-7.1940195,-59.8830192,766,3425.91350
D1,Apuí/AM,-7.1940195,-59.8830192,15,67.08708
1,Aquidabã/SE,-10.2837579,-37.0188687,1232,5682.39472
D1,Aquidabã/SE,-10.2837579,-37.0188687,20,92.24667
1,Aquidauana/MS,-20.473969,-55.7821375,3162,6583.52246
D1,Aquidauana/MS,-20.473969,-55.7821375,83,172.81226
1,Aquiraz/CE,-3.9063117,-38.387504,1578,1949.71273
D1,Aquiraz/CE,-3.9063117,-38.387504,40,49.42238
1,Arabutã/SC,-27.1587028,-52.1438142,181,4241.85610
D1,Arabutã/SC,-27.1587028,-52.1438142,2,46.87134
1,Aracaju/SE,-10.9162061,-37.0774655,69232,10412.26756
D1,Aracaju/SE,-10.9162061,-37.0774655,1011,152.05111
1,Aracati/CE,-4.558259,-37.767894,2730,3641.21374
D1,Aracati/CE,-4.558259,-37.767894,64,85.36179
1,Aracatu/BA,-14.4274236,-41.4604105,474,3633.57608
D1,Aracatu/BA,-14.4274236,-41.4604105,7,53.66041
1,Araci/BA,-11.3356065,-38.9573261,1885,3449.34856
D1,Araci/BA,-11.3356065,-38.9573261,20,36.59786
1,Aracitaba/MG,-21.3425,-43.378611,68,3302.57407
D1,Aracitaba/MG,-21.3425,-43.378611,5,242.83633
1,Aracoiaba/CE,-4.3702577,-38.8084313,956,3602.78877
D1,Aracoiaba/CE,-4.3702577,-38.8084313,17,64.06633
1,Aracruz/ES,-19.8245218,-40.2735025,9603,9314.16766
D1,Aracruz/ES,-19.8245218,-40.2735025,123,119.30049
1,Aragarças/GO,-15.8957166,-52.2514538,1286,6343.41242
D1,Aragarças/GO,-15.8957166,-52.2514538,22,108.51872
1,Aragoiânia/GO,-16.9146388,-49.4499148,484,4611.28049
D1,Aragoiânia/GO,-16.9146388,-49.4499148,6,57.16463
1,Aragominas/TO,-7.1654101,-48.525488,375,6543.36067
D1,Aragominas/TO,-7.1654101,-48.525488,7,122.14273
1,Araguacema/TO,-8.8067391,-49.5560969,113,1579.31516
D1,Araguacema/TO,-8.8067391,-49.5560969,1,13.97624
1,Araguaiana/MT,-15.729144,-51.834112,74,2380.18656
D1,Araguaiana/MT,-15.729144,-51.834112,1,32.16468
1,Araguainha/MT,-16.857016,-53.031778,8,845.66596
1,Araguanã/MA,-2.9508403,-45.6651986,571,3671.78960
D1,Araguanã/MA,-2.9508403,-45.6651986,4,25.72182
1,Araguanã/TO,-6.5799107,-48.6428482,187,3228.03383
D1,Araguanã/TO,-6.5799107,-48.6428482,11,189.88434
1,Araguapaz/GO,-15.0937927,-50.626417,207,2659.64281
D1,Araguapaz/GO,-15.0937927,-50.626417,7,89.93961
1,Araguari/MG,-18.6511256,-48.1933764,6796,5767.87609
D1,Araguari/MG,-18.6511256,-48.1933764,143,121.36643
1,Araguatins/TO,-5.6522925,-48.1158973,1219,3370.19630
D1,Araguatins/TO,-5.6522925,-48.1158973,31,85.70639
1,Araguaçu/TO,-12.928934,-49.823134,623,7357.97803
D1,Araguaçu/TO,-12.928934,-49.823134,10,118.10559
1,Araguaína/TO,-7.193241,-48.2018597,19747,10768.29115
D1,Araguaína/TO,-7.193241,-48.2018597,256,139.60007
1,Araioses/MA,-2.890914,-41.904993,589,1259.32736
D1,Araioses/MA,-2.890914,-41.904993,10,21.38077
1,Aral Moreira/MS,-22.951141,-55.6268421,273,2213.75284
D1,Aral Moreira/MS,-22.951141,-55.6268421,7,56.76289
1,Aramari/BA,-12.0907897,-38.4985065,297,2591.39691
D1,Aramari/BA,-12.0907897,-38.4985065,7,61.07669
1,Arambaré/RS,-30.9132252,-51.4994625,59,1656.37282
D1,Arambaré/RS,-30.9132252,-51.4994625,2,56.14823
1,Arame/MA,-4.8858769,-46.0102484,958,2923.94091
D1,Arame/MA,-4.8858769,-46.0102484,22,67.14687
1,Aramina/SP,-20.0876144,-47.789201,148,2617.15296
D1,Aramina/SP,-20.0876144,-47.789201,6,106.10080
1,Arandu/SP,-23.1345103,-49.0545651,111,1743.91202
D1,Arandu/SP,-23.1345103,-49.0545651,7,109.97643
1,Arantina/MG,-21.911667,-44.255833,35,1255.83064
D1,Arantina/MG,-21.911667,-44.255833,2,71.76175
1,Arapeí/SP,-22.6738889,-44.4477778,95,3861.78862
D1,Arapeí/SP,-22.6738889,-44.4477778,1,40.65041
1,Arapiraca/AL,-9.754866,-36.661471,15266,6550.60996
D1,Arapiraca/AL,-9.754866,-36.661471,201,86.24870
1,Arapoema/TO,-7.6575001,-49.0641484,205,3098.54897
D1,Arapoema/TO,-7.6575001,-49.0641484,4,60.45949
1,Araponga/MG,-20.666667,-42.520556,221,2614.45641
D1,Araponga/MG,-20.666667,-42.520556,1,11.83012
1,Arapongas/PR,-23.415296,-51.42592,6121,4904.25447
D1,Arapongas/PR,-23.415296,-51.42592,179,143.41800
1,Araporã/MG,-18.4318188,-49.188313,1084,15639.87881
D1,Araporã/MG,-18.4318188,-49.188313,10,144.27932
1,Arapoti/PR,-24.1457957,-49.8224605,1244,4395.75972
D1,Arapoti/PR,-24.1457957,-49.8224605,10,35.33569
1,Araputanga/MT,-15.4710868,-58.346796,896,5285.82385
D1,Araputanga/MT,-15.4710868,-58.346796,17,100.28907
1,Arapuá/MG,-19.034444,-46.155556,67,2363.31570
1,Arapuã/PR,-24.3079525,-51.7901941,105,3489.53141
D1,Arapuã/PR,-24.3079525,-51.7901941,2,66.46726
1,Araquari/SC,-26.3703324,-48.7210994,1749,4425.15940
D1,Araquari/SC,-26.3703324,-48.7210994,26,65.78282
1,Arara/PB,-6.8271895,-35.7605703,312,2303.94329
D1,Arara/PB,-6.8271895,-35.7605703,9,66.45990
1,Araranguá/SC,-28.9348832,-49.4858389,6019,8740.03514
D1,Araranguá/SC,-28.9348832,-49.4858389,98,142.30328
1,Araraquara/SP,-21.7886713,-48.1773096,8974,3765.22516
D1,Araraquara/SP,-21.7886713,-48.1773096,115,48.25060
1,Araras/SP,-22.3569477,-47.3838889,7279,5371.71786
D1,Araras/SP,-22.3569477,-47.3838889,116,85.60507
1,Ararendá/CE,-4.7504395,-40.8303611,453,4133.58883
D1,Ararendá/CE,-4.7504395,-40.8303611,9,82.12428
1,Arari/MA,-3.4547602,-44.7772723,374,1249.49886
D1,Arari/MA,-3.4547602,-44.7772723,11,36.74997
1,Araricá/RS,-29.6168543,-50.929121,455,7884.24883
D1,Araricá/RS,-29.6168543,-50.929121,10,173.28019
1,Araripe/CE,-7.212861,-40.1359222,415,1916.50503
D1,Araripe/CE,-7.212861,-40.1359222,5,23.09042
1,Araripina/PE,-7.5768582,-40.5038509,3730,4395.26772
D1,Araripina/PE,-7.5768582,-40.5038509,61,71.87971
1,Araruama/RJ,-22.8733203,-42.3428897,2898,2157.96803
D1,Araruama/RJ,-22.8733203,-42.3428897,102,75.95333
1,Araruna/PB,-6.5321155,-35.7397595,507,2477.64257
D1,Araruna/PB,-6.5321155,-35.7397595,15,73.30303
1,Araruna/PR,-23.9320308,-52.4976047,617,4407.14286
D1,Araruna/PR,-23.9320308,-52.4976047,11,78.57143
1,Arataca/BA,-15.2617424,-39.4122943,318,2901.19515
D1,Arataca/BA,-15.2617424,-39.4122943,10,91.23255
1,Aratiba/RS,-27.3955734,-52.3024325,231,3732.42850
D1,Aratiba/RS,-27.3955734,-52.3024325,4,64.63080
1,Aratuba/CE,-4.4195958,-39.0463737,279,2364.00610
D1,Aratuba/CE,-4.4195958,-39.0463737,2,16.94628
1,Aratuípe/BA,-13.077137,-39.0010786,213,2410.32024
D1,Aratuípe/BA,-13.077137,-39.0010786,6,67.89634
1,Araucária/PR,-25.5861107,-49.4051209,12278,8397.28070
D1,Araucária/PR,-25.5861107,-49.4051209,149,101.90543
1,Arauá/SE,-11.2644014,-37.6181058,539,5418.71921
D1,Arauá/SE,-11.2644014,-37.6181058,12,120.63939
1,Araxá/MG,-19.5928536,-46.940241,4381,4081.53759
D1,Araxá/MG,-19.5928536,-46.940241,47,43.78732
1,Araçagi/PB,-6.8519969,-35.3835602,666,3935.93759
D1,Araçagi/PB,-6.8519969,-35.3835602,7,41.36871
1,Araçariguama/SP,-23.438611,-47.061389,664,2904.63692
D1,Araçariguama/SP,-23.438611,-47.061389,17,74.36570
1,Araçatuba/SP,-21.207992,-50.4390225,12942,6532.10787
D1,Araçatuba/SP,-21.207992,-50.4390225,252,127.18986
1,Araçaí/MG,-19.200833,-44.2475,21,892.09856
1,Araçoiaba da Serra/SP,-23.5045367,-47.6168158,1209,3476.53554
D1,Araçoiaba da Serra/SP,-23.5045367,-47.6168158,24,69.01311
1,Araçoiaba/PE,-7.7856903,-35.0898881,229,1104.51937
D1,Araçoiaba/PE,-7.7856903,-35.0898881,20,96.46457
1,Araçu/GO,-16.3561579,-49.6815269,164,4704.53242
D1,Araçu/GO,-16.3561579,-49.6815269,4,114.74469
1,Araçuaí/MG,-16.8484451,-42.0661868,485,1321.09392
D1,Araçuaí/MG,-16.8484451,-42.0661868,13,35.41076
1,Araçás/BA,-12.2139176,-38.2026159,459,3759.82962
D1,Araçás/BA,-12.2139176,-38.2026159,7,57.33945
1,Araújos/MG,-19.948055,-45.165556,306,3254.97288
D1,Araújos/MG,-19.948055,-45.165556,1,10.63717
1,Arceburgo/MG,-21.364444,-46.939722,322,2958.74299
D1,Arceburgo/MG,-21.364444,-46.939722,5,45.94321
1,Arco-Íris/SP,-21.7741308,-50.4668814,49,2763.67738
D1,Arco-Íris/SP,-21.7741308,-50.4668814,4,225.60632
1,Arcos/MG,-20.282223,-45.539444,1670,4135.71075
D1,Arcos/MG,-20.282223,-45.539444,18,44.57652
1,Arcoverde/PE,-8.415192,-37.057748,3616,4832.80319
D1,Arcoverde/PE,-8.415192,-37.057748,79,105.58392
1,Areado/MG,-21.3582771,-46.1476688,330,2173.76984
D1,Areado/MG,-21.3582771,-46.1476688,5,32.93591
1,Areal/RJ,-22.2314922,-43.1056264,362,2857.36838
D1,Areal/RJ,-22.2314922,-43.1056264,9,71.03955
1,Arealva/SP,-22.0301906,-48.9111936,325,3773.36584
D1,Arealva/SP,-22.0301906,-48.9111936,2,23.22071
1,Areia Branca/RN,-4.9506652,-37.1263312,1130,4040.47628
D1,Areia Branca/RN,-4.9506652,-37.1263312,57,203.81164
1,Areia Branca/SE,-10.7591455,-37.3148072,1024,5480.03853
D1,Areia Branca/SE,-10.7591455,-37.3148072,23,123.08680
1,Areia de Baraúnas/PB,-7.1233949,-36.9446216,16,756.14367
1,Areia/PB,-6.9680243,-35.6994783,660,2913.13559
D1,Areia/PB,-6.9680243,-35.6994783,6,26.48305
1,Areial/PB,-7.0501306,-35.9245244,138,1963.85371
D1,Areial/PB,-7.0501306,-35.9245244,5,71.15412
1,Areias/SP,-22.5800929,-44.6975127,124,3182.75154
D1,Areias/SP,-22.5800929,-44.6975127,1,25.66735
1,Areiópolis/SP,-22.6758064,-48.6673653,260,2330.16670
D1,Areiópolis/SP,-22.6758064,-48.6673653,5,44.81090
1,Arenápolis/MT,-14.4610369,-56.8432806,681,7166.91223
D1,Arenápolis/MT,-14.4610369,-56.8432806,9,94.71690
1,Arenópolis/GO,-16.3859286,-51.55937,32,1261.82965
1,Argirita/MG,-21.612761,-42.8371922,152,5621.30178
D1,Argirita/MG,-21.612761,-42.8371922,5,184.91124
1,Aricanduva/MG,-17.8678,-42.5569,19,360.59973
1,Arinos/MG,-15.917223,-46.106111,173,968.53656
D1,Arinos/MG,-15.917223,-46.106111,4,22.39391
1,Aripuanã/MT,-10.175806,-59.4439663,1289,5674.91415
D1,Aripuanã/MT,-10.175806,-59.4439663,18,79.24628
1,Ariquemes/RO,-9.9076522,-63.033069,10331,9432.72189
D1,Ariquemes/RO,-9.9076522,-63.033069,188,171.65344
1,Ariranha do Ivaí/PR,-24.3834527,-51.5876772,79,3823.81413
D1,Ariranha do Ivaí/PR,-24.3834527,-51.5876772,1,48.40271
1,Ariranha/SP,-21.18716,-48.790418,229,2346.07110
D1,Ariranha/SP,-21.18716,-48.790418,11,112.69337
1,Armazém/SC,-28.2624996,-49.0190126,818,9338.96564
D1,Armazém/SC,-28.2624996,-49.0190126,7,79.91780
1,Armação dos Búzios/RJ,-22.7597805,-41.8875267,2496,7239.60901
D1,Armação dos Búzios/RJ,-22.7597805,-41.8875267,22,63.81066
1,Arneiroz/CE,-6.3235099,-40.1603859,76,968.89342
D1,Arneiroz/CE,-6.3235099,-40.1603859,6,76.49159
1,Aroazes/PI,-6.1108814,-41.7886137,162,2780.16132
D1,Aroazes/PI,-6.1108814,-41.7886137,5,85.80745
1,Aroeiras do Itaim/PI,-7.2797031,-41.5629681,93,3645.62917
D1,Aroeiras do Itaim/PI,-7.2797031,-41.5629681,1,39.20031
1,Aroeiras/PB,-7.5462904,-35.7080002,368,1925.08893
D1,Aroeiras/PB,-7.5462904,-35.7080002,3,15.69366
1,Arraial do Cabo/RJ,-22.9662839,-42.024427,462,1510.14938
D1,Arraial do Cabo/RJ,-22.9662839,-42.024427,9,29.41849
1,Arraial/PI,-6.6541632,-42.5335332,93,1970.33898
D1,Arraial/PI,-6.6541632,-42.5335332,1,21.18644
1,Arraias/TO,-12.9287788,-46.9437231,196,1860.64173
1,Arroio Grande/RS,-32.2384246,-53.0866661,615,3372.08027
D1,Arroio Grande/RS,-32.2384246,-53.0866661,8,43.86446
1,Arroio Trinta/SC,-26.9301976,-51.334928,267,7523.24598
D1,Arroio Trinta/SC,-26.9301976,-51.334928,3,84.53085
1,Arroio do Meio/RS,-29.4020392,-51.9444993,1105,5270.18648
D1,Arroio do Meio/RS,-29.4020392,-51.9444993,9,42.92460
1,Arroio do Padre/RS,-31.4428773,-52.4228985,81,2744.83226
D1,Arroio do Padre/RS,-31.4428773,-52.4228985,1,33.88682
1,Arroio do Sal/RS,-29.549852,-49.8874395,467,4543.24351
D1,Arroio do Sal/RS,-29.549852,-49.8874395,10,97.28573
1,Arroio do Tigre/RS,-29.334158,-53.0888935,369,2751.06240
D1,Arroio do Tigre/RS,-29.334158,-53.0888935,4,29.82181
1,Arroio dos Ratos/RS,-30.0894524,-51.7265541,383,2701.55886
D1,Arroio dos Ratos/RS,-30.0894524,-51.7265541,17,119.91253
1,Artur Nogueira/SP,-22.572737,-47.172679,1772,3202.02385
D1,Artur Nogueira/SP,-22.572737,-47.172679,44,79.50849
1,Aruanã/GO,-14.9162439,-51.0715692,225,2225.51929
D1,Aruanã/GO,-14.9162439,-51.0715692,3,29.67359
1,Arujá/SP,-23.396266,-46.3175449,3489,3827.46251
D1,Arujá/SP,-23.396266,-46.3175449,120,131.64101
1,Arvoredo/SC,-27.0752908,-52.4571847,113,5058.19158
D1,Arvoredo/SC,-27.0752908,-52.4571847,1,44.76276
1,Arvorezinha/RS,-28.87369,-52.17808,386,3703.34836
D1,Arvorezinha/RS,-28.87369,-52.17808,10,95.94167
1,Arês/RN,-6.1969216,-35.1642968,431,2989.52625
D1,Arês/RN,-6.1969216,-35.1642968,11,76.29881
1,Ascurra/SC,-26.9569975,-49.3767752,624,7821.50915
D1,Ascurra/SC,-26.9569975,-49.3767752,3,37.60341
1,Aspásia/SP,-20.160028,-50.728046,63,3465.34653
D1,Aspásia/SP,-20.160028,-50.728046,2,110.01100
1,Assaré/CE,-6.8746791,-39.8741385,966,4114.49016
D1,Assaré/CE,-6.8746791,-39.8741385,21,89.44544
1,Assaí/PR,-23.3736041,-50.8454929,536,3584.32526
D1,Assaí/PR,-23.3736041,-50.8454929,18,120.36913
1,Assis Brasil/AC,-10.9409203,-69.5672108,920,12211.30873
D1,Assis Brasil/AC,-10.9409203,-69.5672108,9,119.45846
1,Assis Chateaubriand/PR,-24.4054826,-53.5120468,1746,5236.95261
D1,Assis Chateaubriand/PR,-24.4054826,-53.5120468,26,77.98440
1,Assis/SP,-22.6620892,-50.420623,3074,2925.19531
D1,Assis/SP,-22.6620892,-50.420623,57,54.24077
1,Assunção do Piauí/PI,-5.8610212,-41.0485091,192,2441.81610
D1,Assunção do Piauí/PI,-5.8610212,-41.0485091,4,50.87117
1,Assunção/PB,-7.073396,-36.7274003,103,2556.46562
D1,Assunção/PB,-7.073396,-36.7274003,1,24.82005
1,Astolfo Dutra/MG,-21.3132636,-42.8624102,746,5227.75053
D1,Astolfo Dutra/MG,-21.3132636,-42.8624102,12,84.09250
1,Astorga/PR,-23.2350184,-51.6647074,1223,4666.33599
D1,Astorga/PR,-23.2350184,-51.6647074,20,76.30966
1,Atalaia do Norte/AM,-4.3658547,-70.1908742,2078,10187.27326
D1,Atalaia do Norte/AM,-4.3658547,-70.1908742,5,24.51221
1,Atalaia/AL,-9.5029595,-36.0219316,683,1441.99303
D1,Atalaia/AL,-9.5029595,-36.0219316,27,57.00412
1,Atalaia/PR,-23.1513833,-52.0529697,154,3968.04947
D1,Atalaia/PR,-23.1513833,-52.0529697,3,77.29967
1,Atalanta/SC,-27.421916,-49.778863,104,3255.08607
1,Ataléia/MG,-18.04432,-41.1110524,517,4077.93027
D1,Ataléia/MG,-18.04432,-41.1110524,4,31.55072
1,Atibaia/SP,-23.1177393,-46.5547861,4615,3202.90378
D1,Atibaia/SP,-23.1177393,-46.5547861,100,69.40203
1,Atilio Vivacqua/ES,-20.9139369,-41.1947519,890,7352.33375
D1,Atilio Vivacqua/ES,-20.9139369,-41.1947519,14,115.65469
1,Augustinópolis/TO,-5.4662267,-47.8897519,916,4913.37231
D1,Augustinópolis/TO,-5.4662267,-47.8897519,11,59.00338
1,Augusto Corrêa/PA,-1.0229335,-46.6404029,1522,3275.16085
D1,Augusto Corrêa/PA,-1.0229335,-46.6404029,22,47.34135
1,Augusto Pestana/RS,-28.5148413,-53.9906433,129,1953.95335
D1,Augusto Pestana/RS,-28.5148413,-53.9906433,2,30.29385
1,Augusto de Lima/MG,-18.1092963,-44.2651945,119,2453.10245
D1,Augusto de Lima/MG,-18.1092963,-44.2651945,4,82.45723
1,Aurelino Leal/BA,-14.3167137,-39.3256107,716,6336.84397
D1,Aurelino Leal/BA,-14.3167137,-39.3256107,16,141.60545
1,Auriflama/SP,-20.6840418,-50.5554616,818,5362.87943
D1,Auriflama/SP,-20.6840418,-50.5554616,18,118.00957
1,Aurilândia/GO,-16.6772599,-50.4641231,69,2256.37672
D1,Aurilândia/GO,-16.6772599,-50.4641231,3,98.10334
1,Aurora do Pará/PA,-2.1323199,-47.558436,732,2303.84289
D1,Aurora do Pará/PA,-2.1323199,-47.558436,8,25.17861
1,Aurora do Tocantins/TO,-12.71045,-46.407604,123,3251.38779
D1,Aurora do Tocantins/TO,-12.71045,-46.407604,2,52.86809
1,Aurora/CE,-6.9426019,-38.9693765,944,3835.83909
D1,Aurora/CE,-6.9426019,-38.9693765,24,97.52133
1,Aurora/SC,-27.3166417,-49.6368502,270,4751.01179
D1,Aurora/SC,-27.3166417,-49.6368502,6,105.57804
1,Autazes/AM,-3.5833283,-59.1301518,2094,5197.31943
D1,Autazes/AM,-3.5833283,-59.1301518,57,141.47431
1,Avanhandava/SP,-21.4603331,-49.9465156,322,2323.39996
D1,Avanhandava/SP,-21.4603331,-49.9465156,13,93.80186
1,Avaré/SP,-23.1045215,-48.9259103,1956,2143.98457
D1,Avaré/SP,-23.1045215,-48.9259103,29,31.78709
1,Avaí/SP,-22.1564662,-49.3316395,144,2649.00662
D1,Avaí/SP,-22.1564662,-49.3316395,3,55.18764
1,Aveiro/PA,-3.6049239,-55.3310742,456,2779.80980
D1,Aveiro/PA,-3.6049239,-55.3310742,5,30.48037
1,Avelino Lopes/PI,-10.1346855,-43.9489525,193,1704.04379
D1,Avelino Lopes/PI,-10.1346855,-43.9489525,15,132.43864
1,Avelinópolis/GO,-16.4672409,-49.7578661,154,6392.69406
D1,Avelinópolis/GO,-16.4672409,-49.7578661,4,166.04400
1,Axixá do Tocantins/TO,-5.612747,-47.77007,619,6324.71646
D1,Axixá do Tocantins/TO,-5.612747,-47.77007,5,51.08818
1,Axixá/MA,-2.8379465,-44.0561053,151,1239.43200
D1,Axixá/MA,-2.8379465,-44.0561053,3,24.62448
1,Açailândia/MA,-4.9514278,-47.4844564,3821,3377.79899
D1,Açailândia/MA,-4.9514278,-47.4844564,105,92.82096
1,Açu/RN,-5.5836157,-36.9139541,2697,4619.41628
D1,Açu/RN,-5.5836157,-36.9139541,84,143.87503
1,Açucena/MG,-19.073056,-42.546666,209,2230.99915
D1,Açucena/MG,-19.073056,-42.546666,6,64.04782
1,Babaçulândia/TO,-7.2034355,-47.761613,440,4125.25783
D1,Babaçulândia/TO,-7.2034355,-47.761613,4,37.50234
1,Bacabal/MA,-4.2318132,-44.781167,3738,3567.13427
D1,Bacabal/MA,-4.2318132,-44.781167,74,70.61743
1,Bacabeira/MA,-2.9775747,-44.3155943,182,1054.95015
D1,Bacabeira/MA,-2.9775747,-44.3155943,3,17.38929
1,Bacuri/MA,-1.728894,-45.1417148,429,2299.77485
D1,Bacuri/MA,-1.728894,-45.1417148,4,21.44312
1,Bacurituba/MA,-2.7082587,-44.7381309,93,1640.21164
1,Bady Bassitt/SP,-20.9178969,-49.4517911,1427,8034.45752
D1,Bady Bassitt/SP,-20.9178969,-49.4517911,24,135.12753
1,Baependi/MG,-21.959162,-44.8899249,643,3349.13277
D1,Baependi/MG,-21.959162,-44.8899249,10,52.08605
1,Bagre/PA,-1.8994498,-50.2103844,577,1841.97925
D1,Bagre/PA,-1.8994498,-50.2103844,11,35.11572
1,Bagé/RS,-31.3314264,-54.1062808,3355,2765.07191
D1,Bagé/RS,-31.3314264,-54.1062808,75,61.81234
1,Baianópolis/BA,-12.3067564,-44.5383591,187,1342.52279
D1,Baianópolis/BA,-12.3067564,-44.5383591,2,14.35853
1,Baixa Grande do Ribeiro/PI,-7.862861,-45.2113289,1648,14120.46954
D1,Baixa Grande do Ribeiro/PI,-7.862861,-45.2113289,15,128.52369
1,Baixa Grande/BA,-11.9630941,-40.1657537,396,1936.52501
D1,Baixa Grande/BA,-11.9630941,-40.1657537,3,14.67064
1,Baixio/CE,-6.7303544,-38.7170095,143,2268.76091
D1,Baixio/CE,-6.7303544,-38.7170095,4,63.46184
1,Baixo Guandu/ES,-19.5138322,-41.0182089,2222,7137.35064
D1,Baixo Guandu/ES,-19.5138322,-41.0182089,37,118.84877
1,Baião/PA,-2.7903479,-49.6702845,468,965.76487
D1,Baião/PA,-2.7903479,-49.6702845,18,37.14480
1,Balbinos/SP,-21.9006253,-49.3583966,270,4550.05056
D1,Balbinos/SP,-21.9006253,-49.3583966,3,50.55612
1,Baldim/MG,-19.2913568,-43.9558262,255,3267.97386
D1,Baldim/MG,-19.2913568,-43.9558262,5,64.07792
1,Baliza/GO,-16.1978119,-52.542789,91,1723.48485
1,Balneário Arroio do Silva/SC,-28.9815269,-49.4189932,1156,8607.59494
D1,Balneário Arroio do Silva/SC,-28.9815269,-49.4189932,19,141.47431
1,Balneário Barra do Sul/SC,-26.459842,-48.6061471,918,8318.98505
D1,Balneário Barra do Sul/SC,-26.459842,-48.6061471,17,154.05528
1,Balneário Camboriú/SC,-26.9924395,-48.6339782,16925,11608.68611
D1,Balneário Camboriú/SC,-26.9924395,-48.6339782,181,124.14607
1,Balneário Gaivota/SC,-29.1553098,-49.5808712,775,6882.77087
D1,Balneário Gaivota/SC,-29.1553098,-49.5808712,11,97.69094
1,Balneário Pinhal/RS,-30.2482978,-50.234585,579,4031.19126
D1,Balneário Pinhal/RS,-30.2482978,-50.234585,15,104.43501
1,Balneário Piçarras/SC,-26.7638889,-48.6716667,2664,11206.46138
D1,Balneário Piçarras/SC,-26.7638889,-48.6716667,21,88.33922
1,Balneário Rincão/SC,-28.8235718,-49.2241642,903,6975.12745
D1,Balneário Rincão/SC,-28.8235718,-49.2241642,22,169.93666
1,Balsa Nova/PR,-25.5842234,-49.6312741,598,4567.67492
D1,Balsa Nova/PR,-25.5842234,-49.6312741,11,84.02078
1,Balsas/MA,-7.53214,-46.037163,7216,7522.22998
D1,Balsas/MA,-7.53214,-46.037163,87,90.69207
1,Bambuí/MG,-20.0131996,-45.9777034,358,1498.03331
D1,Bambuí/MG,-20.0131996,-45.9777034,1,4.18445
1,Banabuiú/CE,-5.3046404,-38.919766,686,3757.66871
D1,Banabuiú/CE,-5.3046404,-38.919766,4,21.91060
1,Bananal/SP,-22.6828195,-44.3221095,323,2938.23342
D1,Bananal/SP,-22.6828195,-44.3221095,1,9.09670
1,Bananeiras/PB,-6.7537682,-35.6338343,618,2905.63731
D1,Bananeiras/PB,-6.7537682,-35.6338343,4,18.80671
1,Bandeira do Sul/MG,-21.728056,-46.385555,81,1401.86916
D1,Bandeira do Sul/MG,-21.728056,-46.385555,4,69.22811
1,Bandeira/MG,-15.884444,-40.559167,400,8392.78221
D1,Bandeira/MG,-15.884444,-40.559167,5,104.90978
1,Bandeirante/SC,-26.7677402,-53.6397596,76,2870.09063
D1,Bandeirante/SC,-26.7677402,-53.6397596,1,37.76435
1,Bandeirantes do Tocantins/TO,-7.7635698,-48.579148,213,5929.84410
D1,Bandeirantes do Tocantins/TO,-7.7635698,-48.579148,2,55.67929
1,Bandeirantes/MS,-19.9179623,-54.3646768,235,3234.24167
D1,Bandeirantes/MS,-19.9179623,-54.3646768,4,55.05092
1,Bandeirantes/PR,-23.107788,-50.370407,1762,5645.44552
D1,Bandeirantes/PR,-23.107788,-50.370407,48,153.79193
1,Bannach/PA,-7.3508505,-50.4064531,121,3709.38075
D1,Bannach/PA,-7.3508505,-50.4064531,2,61.31208
1,Banzaê/BA,-10.5827616,-38.6122305,708,5347.43202
D1,Banzaê/BA,-10.5827616,-38.6122305,4,30.21148
1,Baraúna/PB,-6.643394,-36.2531932,156,3142.62691
1,Baraúna/RN,-5.0775002,-37.61752,664,2309.80624
D1,Baraúna/RN,-5.0775002,-37.61752,17,59.13661
1,Barbacena/MG,-21.2254524,-43.7735087,3128,2263.32089
D1,Barbacena/MG,-21.2254524,-43.7735087,66,47.75549
1,Barbalha/CE,-7.3121067,-39.3036427,2652,4331.35167
D1,Barbalha/CE,-7.3121067,-39.3036427,58,94.72790
1,Barbosa Ferraz/PR,-24.0287182,-52.00811,452,3955.89008
D1,Barbosa Ferraz/PR,-24.0287182,-52.00811,6,52.51182
1,Barbosa/SP,-21.265661,-49.951816,232,3106.58811
D1,Barbosa/SP,-21.265661,-49.951816,3,40.17140
1,Barcarena/PA,-1.5107945,-48.6190679,5267,4146.36258
D1,Barcarena/PA,-1.5107945,-48.6190679,131,103.12768
1,Barcelona/RN,-5.9514918,-35.9260284,41,1026.53981
D1,Barcelona/RN,-5.9514918,-35.9260284,3,75.11267
1,Barcelos/AM,-0.9729214,-62.925635,3635,13152.18178
D1,Barcelos/AM,-0.9729214,-62.925635,41,148.34648
1,Bariri/SP,-22.0746355,-48.7394852,1526,4291.57995
D1,Bariri/SP,-22.0746355,-48.7394852,37,104.05535
1,Barra Bonita/SC,-26.6526364,-53.4419581,51,3089.03695
1,Barra Bonita/SP,-22.490859,-48.558349,1762,4877.37364
D1,Barra Bonita/SP,-22.490859,-48.558349,31,85.81077
1,Barra D'Alcântara/PI,-6.5209258,-42.1071089,69,1745.95142
D1,Barra D'Alcântara/PI,-6.5209258,-42.1071089,1,25.30364
1,Barra Funda/RS,-27.9230048,-53.0401045,265,10388.08310
D1,Barra Funda/RS,-27.9230048,-53.0401045,5,196.00157
1,Barra Longa/MG,-20.2833541,-43.0423516,130,2592.22333
1,Barra Mansa/RJ,-22.5394843,-44.1735129,8550,4625.79734
D1,Barra Mansa/RJ,-22.5394843,-44.1735129,263,142.29061
1,Barra Velha/SC,-26.6338203,-48.6835001,2230,7468.18486
D1,Barra Velha/SC,-26.6338203,-48.6835001,37,123.91159
1,Barra da Estiva/BA,-13.6269662,-41.3278287,1047,5134.36642
D1,Barra da Estiva/BA,-13.6269662,-41.3278287,5,24.51942
1,Barra de Guabiraba/PE,-8.4173522,-35.6626669,266,1833.21847
D1,Barra de Guabiraba/PE,-8.4173522,-35.6626669,11,75.80979
1,Barra de Santa Rosa/PB,-6.7218007,-36.0564638,483,3116.73227
D1,Barra de Santa Rosa/PB,-6.7218007,-36.0564638,2,12.90572
1,Barra de Santana/PB,-7.5230865,-35.9988518,252,3018.32555
D1,Barra de Santana/PB,-7.5230865,-35.9988518,3,35.93245
1,Barra de Santo Antônio/AL,-9.4038098,-35.5117693,149,927.30894
D1,Barra de Santo Antônio/AL,-9.4038098,-35.5117693,15,93.35325
1,Barra de São Francisco/ES,-18.7570902,-40.8916119,2012,4473.19860
D1,Barra de São Francisco/ES,-18.7570902,-40.8916119,63,140.06536
1,Barra de São Miguel/AL,-9.8261357,-35.8837777,214,2554.30890
D1,Barra de São Miguel/AL,-9.8261357,-35.8837777,5,59.68011
1,Barra de São Miguel/PB,-7.7528088,-36.3170996,176,2901.89613
D1,Barra de São Miguel/PB,-7.7528088,-36.3170996,1,16.48805
1,Barra do Bugres/MT,-15.0683712,-57.1853688,1457,4126.66044
D1,Barra do Bugres/MT,-15.0683712,-57.1853688,30,84.96899
1,Barra do Chapéu/SP,-24.472203,-49.023784,108,1875.00000
1,Barra do Choça/BA,-14.8638173,-40.5761637,974,3120.89461
D1,Barra do Choça/BA,-14.8638173,-40.5761637,10,32.04204
1,Barra do Corda/MA,-5.496823,-45.248496,4085,4616.23650
D1,Barra do Corda/MA,-5.496823,-45.248496,48,54.24219
1,Barra do Garças/MT,-15.8916033,-52.2615413,4349,7113.76462
D1,Barra do Garças/MT,-15.8916033,-52.2615413,147,240.45146
1,Barra do Guarita/RS,-27.1888016,-53.7147086,66,2026.40467
1,Barra do Jacaré/PR,-23.1151788,-50.1813945,99,3559.87055
1,Barra do Mendes/BA,-11.8053298,-42.057037,541,3910.93761
D1,Barra do Mendes/BA,-11.8053298,-42.057037,6,43.37454
1,Barra do Ouro/TO,-7.7113784,-47.6743925,89,1921.41623
D1,Barra do Ouro/TO,-7.7113784,-47.6743925,5,107.94473
1,Barra do Piraí/RJ,-22.4703403,-43.8263256,2957,2934.57981
D1,Barra do Piraí/RJ,-22.4703403,-43.8263256,127,126.03708
1,Barra do Quaraí/RS,-30.208947,-57.5505128,164,3879.82020
D1,Barra do Quaraí/RS,-30.208947,-57.5505128,2,47.31488
1,Barra do Ribeiro/RS,-30.2930206,-51.301437,451,3326.94010
D1,Barra do Ribeiro/RS,-30.2930206,-51.301437,28,206.55060
1,Barra do Rio Azul/RS,-27.4101581,-52.4117471,39,2356.49547
D1,Barra do Rio Azul/RS,-27.4101581,-52.4117471,1,60.42296
1,Barra do Rocha/BA,-14.2090974,-39.6004395,189,3367.78332
D1,Barra do Rocha/BA,-14.2090974,-39.6004395,3,53.45688
1,Barra do Turvo/SP,-24.756421,-48.5056942,282,3694.96855
D1,Barra do Turvo/SP,-24.756421,-48.5056942,8,104.82180
1,Barra dos Coqueiros/SE,-10.9075694,-37.0386249,3071,9928.87165
D1,Barra dos Coqueiros/SE,-10.9075694,-37.0386249,35,113.15875
1,Barra/BA,-11.0892702,-43.1420453,801,1485.80968
D1,Barra/BA,-11.0892702,-43.1420453,13,24.11426
1,Barracão/PR,-26.252395,-53.6349576,425,4121.41195
D1,Barracão/PR,-26.252395,-53.6349576,7,67.88208
1,Barracão/RS,-27.6728964,-51.4582928,181,3443.68341
D1,Barracão/RS,-27.6728964,-51.4582928,4,76.10350
1,Barras/PI,-4.2446153,-42.2920241,3301,6995.86733
D1,Barras/PI,-4.2446153,-42.2920241,61,129.27837
1,Barreira/CE,-4.2883361,-38.641094,386,1710.00753
D1,Barreira/CE,-4.2883361,-38.641094,21,93.03150
1,Barreiras do Piauí/PI,-9.9224524,-45.4763776,41,1223.15036
D1,Barreiras do Piauí/PI,-9.9224524,-45.4763776,1,29.83294
1,Barreiras/BA,-12.1440031,-44.9967406,8748,5572.86192
D1,Barreiras/BA,-12.1440031,-44.9967406,108,68.80076
1,Barreirinha/AM,-2.798863,-57.067897,1783,5489.02503
D1,Barreirinha/AM,-2.798863,-57.067897,36,110.82720
1,Barreirinhas/MA,-2.7541271,-42.8259693,1383,2187.70267
D1,Barreirinhas/MA,-2.7541271,-42.8259693,28,44.29188
1,Barreiros/PE,-8.8159644,-35.1831905,383,895.61313
D1,Barreiros/PE,-8.8159644,-35.1831905,42,98.21345
1,Barretos/SP,-20.5531437,-48.5697509,7208,5868.12990
D1,Barretos/SP,-20.5531437,-48.5697509,170,138.39929
1,Barrinha/SP,-21.1898849,-48.1550642,888,2676.31103
D1,Barrinha/SP,-21.1898849,-48.1550642,36,108.49910
1,Barro Alto/BA,-11.7618025,-41.9094904,556,3693.37053
D1,Barro Alto/BA,-11.7618025,-41.9094904,4,26.57101
1,Barro Alto/GO,-14.9696025,-48.9190985,696,6100.98177
D1,Barro Alto/GO,-14.9696025,-48.9190985,8,70.12623
1,Barro Duro/PI,-5.8180139,-42.5106589,470,6688.48726
D1,Barro Duro/PI,-5.8180139,-42.5106589,7,99.61577
1,Barro Preto/BA,-14.8068289,-39.4727588,393,7213.65639
D1,Barro Preto/BA,-14.8068289,-39.4727588,6,110.13216
1,Barro/CE,-7.1713587,-38.7742136,514,2258.54645
D1,Barro/CE,-7.1713587,-38.7742136,11,48.33465
1,Barrocas/BA,-11.5165,-39.099282894736845,280,1738.59050
D1,Barrocas/BA,-11.5165,-39.099282894736845,4,24.83701
1,Barrolândia/TO,-9.837246,-48.7264346,272,4813.30738
D1,Barrolândia/TO,-9.837246,-48.7264346,4,70.78393
1,Barroquinha/CE,-3.0200371,-41.1339229,835,5550.38554
D1,Barroquinha/CE,-3.0200371,-41.1339229,20,132.94337
1,Barros Cassal/RS,-29.094938,-52.5832366,262,2343.05133
D1,Barros Cassal/RS,-29.094938,-52.5832366,2,17.88589
1,Barroso/MG,-21.187222,-43.976111,435,2081.63851
D1,Barroso/MG,-21.187222,-43.976111,6,28.71226
1,Barueri/SP,-23.5112184,-46.8764612,13606,4912.23256
D1,Barueri/SP,-23.5112184,-46.8764612,492,177.62887
1,Barão de Antonina/SP,-23.6295651,-49.5632104,40,1143.51058
D1,Barão de Antonina/SP,-23.6295651,-49.5632104,1,28.58776
1,Barão de Cocais/MG,-19.9452437,-43.4870298,1290,3925.02891
D1,Barão de Cocais/MG,-19.9452437,-43.4870298,12,36.51190
1,Barão de Cotegipe/RS,-27.6214694,-52.3765316,322,4864.04834
D1,Barão de Cotegipe/RS,-27.6214694,-52.3765316,4,60.42296
1,Barão de Grajaú/MA,-6.7542591,-43.0263477,27,142.67597
D1,Barão de Grajaú/MA,-6.7542591,-43.0263477,1,5.28430
1,Barão de Melgaço/MT,-16.195776,-55.9668049,172,2106.81039
D1,Barão de Melgaço/MT,-16.195776,-55.9668049,6,73.49339
1,Barão de Monte Alto/MG,-21.244722,-42.2375,134,2502.80164
D1,Barão de Monte Alto/MG,-21.244722,-42.2375,6,112.06575
1,Barão do Triunfo/RS,-30.3909877,-51.7375349,207,2753.02567
D1,Barão do Triunfo/RS,-30.3909877,-51.7375349,2,26.59928
1,Barão/RS,-29.372474,-51.494908,256,4127.70074
D1,Barão/RS,-29.372474,-51.494908,4,64.49532
1,Bastos/SP,-21.9222474,-50.7317727,299,1427.00329
D1,Bastos/SP,-21.9222474,-50.7317727,10,47.72586
1,Bataguassu/MS,-21.715899,-52.422058,1554,6662.37942
D1,Bataguassu/MS,-21.715899,-52.422058,16,68.59593
1,Batalha/AL,-9.6733809,-37.1265481,683,3724.50649
D1,Batalha/AL,-9.6733809,-37.1265481,13,70.89105
1,Batalha/PI,-4.022391,-42.0780926,522,1940.15982
D1,Batalha/PI,-4.022391,-42.0780926,13,48.31816
1,Batatais/SP,-20.892867,-47.592149,1126,1787.86916
D1,Batatais/SP,-20.892867,-47.592149,44,69.86345
1,Batayporã/MS,-22.2976466,-53.2685608,415,3656.70984
D1,Batayporã/MS,-22.2976466,-53.2685608,7,61.67944
1,Baturité/CE,-4.3290203,-38.8821055,940,2615.39746
D1,Baturité/CE,-4.3290203,-38.8821055,34,94.59948
1,Bauru/SP,-22.3218102,-49.0705863,22793,6009.27505
D1,Bauru/SP,-22.3218102,-49.0705863,361,95.17608
1,Bayeux/PB,-7.1301631,-34.936532,3159,3249.89969
D1,Bayeux/PB,-7.1301631,-34.936532,136,139.91338
1,Baía Formosa/RN,-6.3691885,-35.0063741,201,2156.18966
D1,Baía Formosa/RN,-6.3691885,-35.0063741,6,64.36387
1,Baía da Traição/PB,-6.691258,-34.9371244,979,10762.97274
D1,Baía da Traição/PB,-6.691258,-34.9371244,8,87.95075
1,Bebedouro/SP,-20.949077,-48.479083,1975,2546.57985
D1,Bebedouro/SP,-20.949077,-48.479083,44,56.73393
1,Beberibe/CE,-4.1810469,-38.1298101,1456,2698.84521
D1,Beberibe/CE,-4.1810469,-38.1298101,32,59.31528
1,Bela Cruz/CE,-3.0529129,-40.167582,1503,4593.24002
D1,Bela Cruz/CE,-3.0529129,-40.167582,24,73.34515
1,Bela Vista da Caroba/PR,-25.8792818,-53.6672545,74,2140.58432
D1,Bela Vista da Caroba/PR,-25.8792818,-53.6672545,1,28.92682
1,Bela Vista de Goiás/GO,-16.9692949,-48.9513071,1309,4292.92929
D1,Bela Vista de Goiás/GO,-16.9692949,-48.9513071,23,75.42962
1,Bela Vista de Minas/MG,-19.8289721,-43.0973688,307,2991.61957
D1,Bela Vista de Minas/MG,-19.8289721,-43.0973688,7,68.21282
1,Bela Vista do Maranhão/MA,-3.7416367,-45.2514192,156,1383.10134
D1,Bela Vista do Maranhão/MA,-3.7416367,-45.2514192,8,70.92827
1,Bela Vista do Paraíso/PR,-22.9948493,-51.1907996,622,4039.22333
D1,Bela Vista do Paraíso/PR,-22.9948493,-51.1907996,13,84.42107
1,Bela Vista do Piauí/PI,-7.9716353,-41.8715061,200,4962.77916
D1,Bela Vista do Piauí/PI,-7.9716353,-41.8715061,5,124.06948
1,Bela Vista do Toldo/SC,-26.274625,-50.466354,36,565.85979
D1,Bela Vista do Toldo/SC,-26.274625,-50.466354,1,15.71833
1,Bela Vista/MS,-22.107327,-56.5317344,249,1006.67071
D1,Bela Vista/MS,-22.107327,-56.5317344,9,36.38569
1,Belford Roxo/RJ,-22.7667284,-43.4033603,16216,3160.28672
D1,Belford Roxo/RJ,-22.7667284,-43.4033603,409,79.70876
1,Belmiro Braga/MG,-21.9486291,-43.413564,75,2189.78102
D1,Belmiro Braga/MG,-21.9486291,-43.413564,3,87.59124
1,Belmonte/BA,-15.8630837,-38.8792845,760,3242.73585
D1,Belmonte/BA,-15.8630837,-38.8792845,7,29.86730
1,Belmonte/SC,-26.8448262,-53.578916,76,2805.46327
D1,Belmonte/SC,-26.8448262,-53.578916,1,36.91399
1,Belo Campo/BA,-15.0338286,-41.2585109,288,1683.32457
D1,Belo Campo/BA,-15.0338286,-41.2585109,3,17.53463
1,Belo Horizonte/MG,-19.9227318,-43.9450948,89994,3568.97545
D1,Belo Horizonte/MG,-19.9227318,-43.9450948,2263,89.74589
1,Belo Jardim/PE,-8.3338293,-36.4176419,1541,2009.46705
D1,Belo Jardim/PE,-8.3338293,-36.4176419,43,56.07209
1,Belo Monte/AL,-9.8269944,-37.2787165,207,3084.94784
D1,Belo Monte/AL,-9.8269944,-37.2787165,6,89.41878
1,Belo Oriente/MG,-19.2232523,-42.4807033,1319,4886.27102
D1,Belo Oriente/MG,-19.2232523,-42.4807033,25,92.61317
1,Belo Vale/MG,-20.407778,-44.024167,250,3238.76150
D1,Belo Vale/MG,-20.407778,-44.024167,6,77.73028
1,Belterra/PA,-2.636091,-54.937392,564,3161.61220
D1,Belterra/PA,-2.636091,-54.937392,14,78.47974
1,Belágua/MA,-3.1604031,-43.5085052,279,3706.16366
D1,Belágua/MA,-3.1604031,-43.5085052,2,26.56748
1,Belém de Maria/PE,-8.6242497,-35.8388934,124,1022.93351
D1,Belém de Maria/PE,-8.6242497,-35.8388934,3,24.74839
1,Belém do Brejo do Cruz/PB,-6.1880727,-37.5332267,437,5946.38726
D1,Belém do Brejo do Cruz/PB,-6.1880727,-37.5332267,5,68.03647
1,Belém do Piauí/PI,-7.3767305,-40.9712156,337,9395.03764
D1,Belém do Piauí/PI,-7.3767305,-40.9712156,5,139.39225
1,Belém do São Francisco/PE,-8.7517707,-38.9625715,252,1215.62952
1,Belém/AL,-9.5715351,-36.492841,75,1750.70028
D1,Belém/AL,-9.5715351,-36.492841,3,70.02801
1,Belém/PA,-1.45056,-48.4682453,66660,4445.06385
D1,Belém/PA,-1.45056,-48.4682453,2605,173.70824
1,Belém/PB,-6.6967586,-35.5369626,1248,7048.85626
D1,Belém/PB,-6.6967586,-35.5369626,19,107.31432
1,Beneditinos/PI,-5.4565671,-42.3605061,426,4067.60241
D1,Beneditinos/PI,-5.4565671,-42.3605061,15,143.22544
1,Benedito Leite/MA,-7.2173453,-44.5523331,248,4398.72295
D1,Benedito Leite/MA,-7.2173453,-44.5523331,2,35.47357
1,Benedito Novo/SC,-26.7840657,-49.3629511,541,4594.47983
D1,Benedito Novo/SC,-26.7840657,-49.3629511,5,42.46285
1,Benevides/PA,-1.3555577,-48.252235,2326,3647.59754
D1,Benevides/PA,-1.3555577,-48.252235,52,81.54560
1,Benjamin Constant do Sul/RS,-27.5105555,-52.6007689,128,6537.28294
1,Benjamin Constant/AM,-4.3782748,-70.0290603,2161,4918.62979
D1,Benjamin Constant/AM,-4.3782748,-70.0290603,51,116.08057
1,Bento Fernandes/RN,-5.6926846,-35.8207423,42,760.18100
D1,Bento Fernandes/RN,-5.6926846,-35.8207423,2,36.19910
1,Bento Gonçalves/RS,-29.1654014,-51.5197627,8184,6719.04633
D1,Bento Gonçalves/RS,-29.1654014,-51.5197627,158,129.71766
1,Bento de Abreu/SP,-21.2707225,-50.8120444,90,2995.00832
1,Bequimão/MA,-2.4495376,-44.7884889,248,1164.37391
D1,Bequimão/MA,-2.4495376,-44.7884889,12,56.34067
1,Berilo/MG,-16.9515764,-42.4643732,10,84.23181
1,Berizal/MG,-15.6118785,-41.7417382,47,986.56591
1,Bernardino Batista/PB,-6.4532173,-38.5495418,175,4949.09502
1,Bernardino de Campos/SP,-23.0140216,-49.4760724,220,1971.67951
D1,Bernardino de Campos/SP,-23.0140216,-49.4760724,6,53.77308
1,Bernardo Sayão/TO,-7.8794244,-48.8968905,130,2922.66187
D1,Bernardo Sayão/TO,-7.8794244,-48.8968905,4,89.92806
1,Bernardo do Mearim/MA,-4.6315929,-44.7617508,162,2667.54487
D1,Bernardo do Mearim/MA,-4.6315929,-44.7617508,3,49.39898
1,Bertioga/SP,-23.848568,-46.139586,2826,4366.29946
D1,Bertioga/SP,-23.848568,-46.139586,58,89.61266
1,Bertolínia/PI,-7.6372159,-43.9540611,574,10423.09788
D1,Bertolínia/PI,-7.6372159,-43.9540611,6,108.95224
1,Bertópolis/MG,-17.063333,-40.573889,211,4579.98698
1,Beruri/AM,-3.9007135,-61.3717319,1669,8306.37535
D1,Beruri/AM,-3.9007135,-61.3717319,23,114.46773
1,Betim/MG,-19.968056,-44.198333,13695,3079.02263
D1,Betim/MG,-19.968056,-44.198333,388,87.23335
1,Betânia do Piauí/PI,-8.1460635,-40.7961387,95,1529.79066
D1,Betânia do Piauí/PI,-8.1460635,-40.7961387,2,32.20612
1,Betânia/PE,-8.2742779,-38.0351767,197,1543.28241
D1,Betânia/PE,-8.2742779,-38.0351767,3,23.50176
1,Bezerros/PE,-8.2372132,-35.7558262,2019,3316.36005
D1,Bezerros/PE,-8.2372132,-35.7558262,75,123.19317
1,Bias Fortes/MG,-21.605833,-43.756944,62,1862.42115
D1,Bias Fortes/MG,-21.605833,-43.756944,2,60.07810
1,Bicas/MG,-21.7213723,-43.0604327,447,3071.32060
D1,Bicas/MG,-21.7213723,-43.0604327,14,96.19349
1,Biguaçu/SC,-27.4961277,-48.6542432,6707,9652.30406
D1,Biguaçu/SC,-27.4961277,-48.6542432,72,103.61799
1,Bilac/SP,-21.403962,-50.47464,304,3745.22607
D1,Bilac/SP,-21.403962,-50.47464,6,73.91894
1,Biquinhas/MG,-18.783611,-45.502222,28,1120.89672
1,Birigui/SP,-21.2908491,-50.34144,6065,4856.54573
D1,Birigui/SP,-21.2908491,-50.34144,160,128.11992
1,Biritiba Mirim/SP,-23.5697765,-46.0407456,612,1858.14914
D1,Biritiba Mirim/SP,-23.5697765,-46.0407456,42,127.52004
1,Biritinga/BA,-11.6227908,-38.8066738,147,919.66967
D1,Biritinga/BA,-11.6227908,-38.8066738,2,12.51251
1,Bituruna/PR,-26.161281,-51.5533319,174,1060.97561
D1,Bituruna/PR,-26.161281,-51.5533319,1,6.09756
1,Blumenau/SC,-26.9195567,-49.0658025,30710,8486.82483
D1,Blumenau/SC,-26.9195567,-49.0658025,301,83.18249
1,Boa Esperança do Iguaçu/PR,-25.6362851,-53.2139114,96,3886.63968
1,Boa Esperança do Sul/SP,-21.9930206,-48.3917372,378,2516.97962
D1,Boa Esperança do Sul/SP,-21.9930206,-48.3917372,8,53.26941
1,Boa Esperança/ES,-18.5395472,-40.2904088,648,4293.66552
D1,Boa Esperança/ES,-18.5395472,-40.2904088,23,152.39862
1,Boa Esperança/MG,-21.0901253,-45.5660195,968,2406.82265
D1,Boa Esperança/MG,-21.0901253,-45.5660195,29,72.10522
1,Boa Esperança/PR,-24.2411024,-52.7860277,151,3731.15888
D1,Boa Esperança/PR,-24.2411024,-52.7860277,2,49.41932
1,Boa Hora/PI,-4.4094627,-42.1255341,234,3433.60235
1,Boa Nova/BA,-14.365907,-40.2063056,286,2319.73396
D1,Boa Nova/BA,-14.365907,-40.2063056,5,40.55479
1,Boa Ventura de São Roque/PR,-24.88177,-51.5441292,179,2812.25452
D1,Boa Ventura de São Roque/PR,-24.88177,-51.5441292,2,31.42184
1,Boa Ventura/PB,-7.4202462,-38.2156782,155,2920.67081
D1,Boa Ventura/PB,-7.4202462,-38.2156782,3,56.52911
1,Boa Viagem/CE,-5.1261877,-39.7300055,1691,3098.37477
D1,Boa Viagem/CE,-5.1261877,-39.7300055,42,76.95549
1,Boa Vista da Aparecida/PR,-25.4357216,-53.4067721,354,4694.96021
D1,Boa Vista da Aparecida/PR,-25.4357216,-53.4067721,9,119.36340
1,Boa Vista das Missões/RS,-27.6677983,-53.3127622,33,1577.43786
1,Boa Vista do Buricá/RS,-27.6687782,-54.1111913,308,4588.79619
D1,Boa Vista do Buricá/RS,-27.6687782,-54.1111913,4,59.59476
1,Boa Vista do Cadeado/RS,-28.5783827,-53.8123759,76,3079.41653
1,Boa Vista do Gurupi/MA,-1.7981168,-46.3071882,14,167.02458
D1,Boa Vista do Gurupi/MA,-1.7981168,-46.3071882,3,35.79098
1,Boa Vista do Incra/RS,-28.8195551,-53.3866624,92,3516.81957
D1,Boa Vista do Incra/RS,-28.8195551,-53.3866624,1,38.22630
1,Boa Vista do Ramos/AM,-2.9716927,-57.5869819,719,3663.50759
D1,Boa Vista do Ramos/AM,-2.9716927,-57.5869819,11,56.04810
1,Boa Vista do Sul/RS,-29.3510488,-51.6779679,122,4391.64867
D1,Boa Vista do Sul/RS,-29.3510488,-51.6779679,2,71.99424
1,Boa Vista do Tupim/BA,-12.6605988,-40.6083594,146,787.86898
D1,Boa Vista do Tupim/BA,-12.6605988,-40.6083594,2,10.79273
1,Boa Vista/PB,-7.2620711,-36.2415161,219,3068.94619
D1,Boa Vista/PB,-7.2620711,-36.2415161,2,28.02691
1,Boa Vista/RR,2.8208478,-60.6719582,56092,13366.31304
D1,Boa Vista/RR,2.8208478,-60.6719582,622,148.21805
1,Boca da Mata/AL,-9.6452054,-36.2116658,1308,4781.40079
D1,Boca da Mata/AL,-9.6452054,-36.2116658,26,95.04313
1,Boca do Acre/AM,-8.7553487,-67.3930873,2186,6311.53457
D1,Boca do Acre/AM,-8.7553487,-67.3930873,18,51.97055
1,Bocaina de Minas/MG,-22.167778,-44.394722,61,1198.66378
D1,Bocaina de Minas/MG,-22.167778,-44.394722,2,39.30045
1,Bocaina do Sul/SC,-27.745494,-49.942279,285,8170.87156
D1,Bocaina do Sul/SC,-27.745494,-49.942279,3,86.00917
1,Bocaina/PI,-6.9445939,-41.3224599,183,4062.15316
D1,Bocaina/PI,-6.9445939,-41.3224599,3,66.59267
1,Bocaina/SP,-22.1421831,-48.522276,509,4087.69676
D1,Bocaina/SP,-22.1421831,-48.522276,7,56.21587
1,Bocaiúva do Sul/PR,-25.206591,-49.114131,647,4928.02194
D1,Bocaiúva do Sul/PR,-25.206591,-49.114131,3,22.85018
1,Bocaiúva/MG,-17.1160208,-43.8122678,753,1498.32856
D1,Bocaiúva/MG,-17.1160208,-43.8122678,14,27.85737
1,Bodocó/PE,-7.777592,-39.933797,1236,3220.59513
D1,Bodocó/PE,-7.777592,-39.933797,15,39.08489
1,Bodoquena/MS,-20.5508775,-56.6769653,102,1301.35239
D1,Bodoquena/MS,-20.5508775,-56.6769653,2,25.51671
1,Bodó/RN,-5.9866104,-36.4134824,58,2639.96359
1,Bofete/SP,-23.1019554,-48.2610535,309,2592.06442
D1,Bofete/SP,-23.1019554,-48.2610535,4,33.55423
1,Boituva/SP,-23.2838893,-47.6738231,2501,4022.84060
D1,Boituva/SP,-23.2838893,-47.6738231,39,62.73122
1,Bom Conselho/PE,-9.169191,-36.685683,971,1991.10054
D1,Bom Conselho/PE,-9.169191,-36.685683,30,61.51701
1,Bom Despacho/MG,-19.7375242,-45.2517288,1847,3619.58141
D1,Bom Despacho/MG,-19.7375242,-45.2517288,32,62.71067
1,Bom Jardim da Serra/SC,-28.3380324,-49.625588,482,10100.58676
D1,Bom Jardim da Serra/SC,-28.3380324,-49.625588,2,41.91115
1,Bom Jardim de Goiás/GO,-16.2062659,-52.172793,234,2638.40343
D1,Bom Jardim de Goiás/GO,-16.2062659,-52.172793,4,45.10091
1,Bom Jardim de Minas/MG,-21.9476466,-44.1906033,111,1718.53228
1,Bom Jardim/MA,-3.54129,-45.606004,1005,2403.04146
D1,Bom Jardim/MA,-3.54129,-45.606004,29,69.34149
1,Bom Jardim/PE,-7.7961572,-35.5871696,808,2020.85887
D1,Bom Jardim/PE,-7.7961572,-35.5871696,34,85.03614
1,Bom Jardim/RJ,-22.1515328,-42.4186683,599,2169.03244
D1,Bom Jardim/RJ,-22.1515328,-42.4186683,5,18.10545
1,Bom Jesus da Lapa/BA,-13.250571,-43.410754,1521,2183.39984
D1,Bom Jesus da Lapa/BA,-13.250571,-43.410754,19,27.27455
1,Bom Jesus da Penha/MG,-21.0165299,-46.5226644,152,3581.52686
D1,Bom Jesus da Penha/MG,-21.0165299,-46.5226644,1,23.56268
1,Bom Jesus da Serra/BA,-14.3724084,-40.5047119,274,2789.37188
1,Bom Jesus das Selvas/MA,-4.4878075,-46.8526639,1993,5765.61460
D1,Bom Jesus das Selvas/MA,-4.4878075,-46.8526639,18,52.07279
1,Bom Jesus de Goiás/GO,-18.2174587,-49.739721,1166,4546.16344
D1,Bom Jesus de Goiás/GO,-18.2174587,-49.739721,32,124.76606
1,Bom Jesus do Amparo/MG,-19.7045132,-43.4752911,72,1173.97685
D1,Bom Jesus do Amparo/MG,-19.7045132,-43.4752911,2,32.61047
1,Bom Jesus do Araguaia/MT,-12.1725897,-51.5074425,303,4518.34178
D1,Bom Jesus do Araguaia/MT,-12.1725897,-51.5074425,1,14.91202
1,Bom Jesus do Galho/MG,-19.8283191,-42.3162256,279,1877.27089
D1,Bom Jesus do Galho/MG,-19.8283191,-42.3162256,8,53.82856
1,Bom Jesus do Itabapoana/RJ,-21.1341025,-41.680095,1681,4518.45281
D1,Bom Jesus do Itabapoana/RJ,-21.1341025,-41.680095,34,91.39048
1,Bom Jesus do Norte/ES,-21.1254776,-41.6711646,694,6966.47260
D1,Bom Jesus do Norte/ES,-21.1254776,-41.6711646,16,160.61032
1,Bom Jesus do Oeste/SC,-26.6929713,-53.0967453,77,3599.81300
D1,Bom Jesus do Oeste/SC,-26.6929713,-53.0967453,1,46.75082
1,Bom Jesus do Sul/PR,-26.1922507,-53.6002033,131,3736.45180
D1,Bom Jesus do Sul/PR,-26.1922507,-53.6002033,3,85.56760
1,Bom Jesus do Tocantins/PA,-5.0471796,-48.5978362,446,2605.44456
D1,Bom Jesus do Tocantins/PA,-5.0471796,-48.5978362,5,29.20902
1,Bom Jesus do Tocantins/TO,-8.96306,-48.165043,102,2036.74121
1,Bom Jesus dos Perdões/SP,-23.1353864,-46.4648052,752,2893.97729
D1,Bom Jesus dos Perdões/SP,-23.1353864,-46.4648052,6,23.09024
1,Bom Jesus/PB,-6.8156725,-38.6551841,76,2951.45631
D1,Bom Jesus/PB,-6.8156725,-38.6551841,3,116.50485
1,Bom Jesus/PI,-9.0711644,-44.3583926,2167,8535.86481
D1,Bom Jesus/PI,-9.0711644,-44.3583926,24,94.53657
1,Bom Jesus/RN,-5.9887544,-35.5821149,390,3798.57797
D1,Bom Jesus/RN,-5.9887544,-35.5821149,7,68.17960
1,Bom Jesus/RS,-28.6692723,-50.4346894,411,3634.27359
D1,Bom Jesus/RS,-28.6692723,-50.4346894,10,88.42515
1,Bom Jesus/SC,-26.7350604,-52.3916519,171,5593.71933
D1,Bom Jesus/SC,-26.7350604,-52.3916519,3,98.13543
1,Bom Lugar/MA,-4.3728019,-45.0366054,306,1861.54033
D1,Bom Lugar/MA,-4.3728019,-45.0366054,5,30.41733
1,Bom Princípio do Piauí/PI,-3.1912777,-41.6430185,45,796.31924
D1,Bom Princípio do Piauí/PI,-3.1912777,-41.6430185,3,53.08795
1,Bom Princípio/RS,-29.489788,-51.3566782,802,5626.09611
D1,Bom Princípio/RS,-29.489788,-51.3566782,11,77.16591
1,Bom Progresso/RS,-27.5490948,-53.8655601,34,1790.41601
1,Bom Repouso/MG,-22.4657069,-46.1485376,248,2353.61108
D1,Bom Repouso/MG,-22.4657069,-46.1485376,9,85.41331
1,Bom Retiro do Sul/RS,-29.6000007,-51.9359243,517,4172.71994
D1,Bom Retiro do Sul/RS,-29.6000007,-51.9359243,8,64.56820
1,Bom Retiro/SC,-27.798993,-49.486994,335,3330.01988
D1,Bom Retiro/SC,-27.798993,-49.486994,8,79.52286
1,Bom Sucesso de Itararé/SP,-24.3190016,-49.1446207,47,1179.71888
D1,Bom Sucesso de Itararé/SP,-24.3190016,-49.1446207,4,100.40161
1,Bom Sucesso do Sul/PR,-26.0749256,-52.8348629,132,4056.54579
D1,Bom Sucesso do Sul/PR,-26.0749256,-52.8348629,2,61.46281
1,Bom Sucesso/MG,-21.0323516,-44.7598082,176,999.60243
D1,Bom Sucesso/MG,-21.0323516,-44.7598082,2,11.35912
1,Bom Sucesso/PB,-6.4458948,-37.9297662,76,1533.49475
1,Bom Sucesso/PR,-23.7088019,-51.7651297,311,4400.11319
D1,Bom Sucesso/PR,-23.7088019,-51.7651297,4,56.59310
1,Bombinhas/SC,-27.1519159,-48.4875691,2538,12480.94418
D1,Bombinhas/SC,-27.1519159,-48.4875691,25,122.94074
1,Bonfim do Piauí/PI,-9.1648678,-42.8734415,162,2849.60422
D1,Bonfim do Piauí/PI,-9.1648678,-42.8734415,2,35.18030
1,Bonfim/MG,-20.3266626, -44.2386157,164,2390.67055
D1,Bonfim/MG,-20.3266626, -44.2386157,3,43.73178
1,Bonfim/RR,3.3613818,-59.8427241,1363,10854.50346
D1,Bonfim/RR,3.3613818,-59.8427241,15,119.45528
1,Bonfinópolis de Minas/MG,-16.5660011,-45.98645,213,3912.56429
D1,Bonfinópolis de Minas/MG,-16.5660011,-45.98645,9,165.31962
1,Bonfinópolis/GO,-16.6172709,-48.9615701,400,4032.66458
D1,Bonfinópolis/GO,-16.6172709,-48.9615701,11,110.89828
1,Boninal/BA,-12.7095183,-41.8299984,369,2554.34030
D1,Boninal/BA,-12.7095183,-41.8299984,4,27.68933
1,Bonito de Minas/MG,-15.3191266,-44.7544,14,123.14188
1,Bonito de Santa Fé/PB,-7.3143332,-38.5146677,329,2736.64948
D1,Bonito de Santa Fé/PB,-7.3143332,-38.5146677,11,91.49892
1,Bonito/BA,-11.9665473,-41.2649896,447,2647.47690
D1,Bonito/BA,-11.9665473,-41.2649896,3,17.76830
1,Bonito/MS,-21.1264766,-56.4902208,1330,5993.69085
D1,Bonito/MS,-21.1264766,-56.4902208,21,94.63722
1,Bonito/PA,-1.3605722,-47.3049907,318,1923.77495
D1,Bonito/PA,-1.3605722,-47.3049907,10,60.49607
1,Bonito/PE,-8.4721161,-35.7314591,474,1243.53963
D1,Bonito/PE,-8.4721161,-35.7314591,28,73.45804
1,Bonópolis/GO,-13.649331,-49.8329113,93,2069.88649
D1,Bonópolis/GO,-13.649331,-49.8329113,1,22.25684
1,Boqueirão do Leão/RS,-29.30332,-52.4296817,196,2544.79356
D1,Boqueirão do Leão/RS,-29.30332,-52.4296817,6,77.90184
1,Boqueirão do Piauí/PI,-4.4850148,-42.1095161,286,4450.66916
D1,Boqueirão do Piauí/PI,-4.4850148,-42.1095161,2,31.12356
1,Boqueirão/PB,-7.487004,-36.130887,959,5366.53609
D1,Boqueirão/PB,-7.487004,-36.130887,14,78.34359
1,Boquim/SE,-11.1450175,-37.6204228,1112,4133.98268
D1,Boquim/SE,-11.1450175,-37.6204228,25,92.94026
1,Boquira/BA,-12.8184859,-42.7270883,314,1460.66893
D1,Boquira/BA,-12.8184859,-42.7270883,5,23.25906
1,Boracéia/SP,-22.195355,-48.7801925,220,4519.30978
D1,Boracéia/SP,-22.195355,-48.7801925,3,61.62695
1,Borba/AM,-4.3934778,-59.5947721,1195,2862.41257
D1,Borba/AM,-4.3934778,-59.5947721,37,88.62700
1,Borborema/PB,-6.8066718,-35.5990191,97,1834.68886
D1,Borborema/PB,-6.8066718,-35.5990191,1,18.91432
1,Borborema/SP,-21.6212706,-49.074135,471,2913.88270
D1,Borborema/SP,-21.6212706,-49.074135,12,74.23905
1,Borda da Mata/MG,-22.274167,-46.165278,676,3446.51779
D1,Borda da Mata/MG,-22.274167,-46.165278,19,96.86958
1,Borebi/SP,-22.5700178,-48.9714871,83,3093.55199
D1,Borebi/SP,-22.5700178,-48.9714871,2,74.54342
1,Borrazópolis/PR,-23.9393362,-51.5850786,363,5637.52135
D1,Borrazópolis/PR,-23.9393362,-51.5850786,9,139.77326
1,Borá/SP,-22.2701088,-50.544407,10,1193.31742
1,Bossoroca/RS,-28.7278885,-54.9120278,117,1885.57615
D1,Bossoroca/RS,-28.7278885,-54.9120278,4,64.46414
1,Botelhos/MG,-21.65,-46.394722,338,2261.02080
D1,Botelhos/MG,-21.65,-46.394722,4,26.75764
1,Botucatu/SP,-22.8879628,-48.4410712,6230,4205.76521
D1,Botucatu/SP,-22.8879628,-48.4410712,79,53.33153
1,Botumirim/MG,-16.862778,-43.011111,74,1176.84478
D1,Botumirim/MG,-16.862778,-43.011111,1,15.90331
1,Botuporã/BA,-13.3744752,-42.5198469,83,819.42936
D1,Botuporã/BA,-13.3744752,-42.5198469,1,9.87264
1,Botuverá/SC,-27.200749,-49.068892,575,10804.20894
D1,Botuverá/SC,-27.200749,-49.068892,3,56.36979
1,Bozano/RS,-28.3669953,-53.7705165,59,2794.88394
1,Braga/RS,-27.617348,-53.740514,80,2416.18846
D1,Braga/RS,-27.617348,-53.740514,2,60.40471
1,Braganey/PR,-24.8179919,-53.118506,155,2879.97027
D1,Braganey/PR,-24.8179919,-53.118506,3,55.74136
1,Bragança Paulista/SP,-22.9520235,-46.5418586,6209,3640.93753
D1,Bragança Paulista/SP,-22.9520235,-46.5418586,125,73.29960
1,Bragança/PA,-1.0573967,-46.7635406,3125,2424.09668
D1,Bragança/PA,-1.0573967,-46.7635406,101,78.34680
1,Branquinha/AL,-9.2478057,-36.0152009,281,2686.42447
D1,Branquinha/AL,-9.2478057,-36.0152009,7,66.92161
1,Brasil Novo/PA,-3.3055853,-52.539198,832,5552.96002
D1,Brasil Novo/PA,-3.3055853,-52.539198,17,113.46192
1,Brasileira/PI,-4.131182,-41.7824969,294,3522.22355
D1,Brasileira/PI,-4.131182,-41.7824969,5,59.90176
1,Brasilândia de Minas/MG,-17.0096469,-46.0087183,588,3510.86697
D1,Brasilândia de Minas/MG,-17.0096469,-46.0087183,4,23.88345
1,Brasilândia do Sul/PR,-24.1975793,-53.527551,126,4874.27466
D1,Brasilândia do Sul/PR,-24.1975793,-53.527551,1,38.68472
1,Brasilândia do Tocantins/TO,-8.3886619,-48.4842729,72,3256.44505
D1,Brasilândia do Tocantins/TO,-8.3886619,-48.4842729,1,45.22840
1,Brasilândia/MS,-21.255575,-52.0365617,243,2050.11390
D1,Brasilândia/MS,-21.255575,-52.0365617,5,42.18341
1,Brasiléia/AC,-11.0010413,-68.7487894,1634,6119.39181
D1,Brasiléia/AC,-11.0010413,-68.7487894,25,93.62595
1,Brasnorte/MT,-12.1227151,-58.0050109,691,3430.98312
D1,Brasnorte/MT,-12.1227151,-58.0050109,7,34.75670
1,Brasília de Minas/MG,-16.2075114,-44.430559,460,1419.53402
D1,Brasília de Minas/MG,-16.2075114,-44.430559,5,15.42972
1,Brasília/DF,-15.7934036,-47.8823172,278316,9109.73573
D1,Brasília/DF,-15.7934036,-47.8823172,4573,149.68173
1,Brazabrantes/GO,-16.4291635,-49.3858216,210,5605.97971
D1,Brazabrantes/GO,-16.4291635,-49.3858216,2,53.39028
1,Brazópolis/MG,-22.4742842,-45.6165577,417,2893.82373
D1,Brazópolis/MG,-22.4742842,-45.6165577,9,62.45663
1,Braço do Norte/SC,-28.2728633,-49.1622712,4838,14281.49723
D1,Braço do Norte/SC,-28.2728633,-49.1622712,40,118.07770
1,Braço do Trombudo/SC,-27.358578,-49.882145,312,8278.05784
D1,Braço do Trombudo/SC,-27.358578,-49.882145,3,79.59671
1,Braúna/SP,-21.5015319,-50.3175246,172,2995.99373
D1,Braúna/SP,-21.5015319,-50.3175246,7,121.92998
1,Braúnas/MG,-19.055556,-42.716111,72,1509.75047
D1,Braúnas/MG,-19.055556,-42.716111,3,62.90627
1,Brejetuba/ES,-20.1465817,-41.2902303,936,7531.98680
D1,Brejetuba/ES,-20.1465817,-41.2902303,3,24.14098
1,Brejinho de Nazaré/TO,-11.0205883,-48.5722906,125,2264.90306
D1,Brejinho de Nazaré/TO,-11.0205883,-48.5722906,5,90.59612
1,Brejinho/PE,-7.3482153,-37.28538,318,4246.79487
D1,Brejinho/PE,-7.3482153,-37.28538,4,53.41880
1,Brejinho/RN,-6.1957907,-35.3583019,516,4035.34840
D1,Brejinho/RN,-6.1957907,-35.3583019,5,39.10221
1,Brejo Alegre/SP,-21.1671191,-50.1850393,166,5745.93285
D1,Brejo Alegre/SP,-21.1671191,-50.1850393,7,242.29837
1,Brejo Grande do Araguaia/PA,-5.7011449,-48.4037308,683,9269.81542
D1,Brejo Grande do Araguaia/PA,-5.7011449,-48.4037308,4,54.28882
1,Brejo Grande/SE,-10.4287358,-36.4667918,236,2825.33222
D1,Brejo Grande/SE,-10.4287358,-36.4667918,9,107.74572
1,Brejo Santo/CE,-7.4909841,-38.9859152,3189,6398.21837
D1,Brejo Santo/CE,-7.4909841,-38.9859152,28,56.17752
1,Brejo da Madre de Deus/PE,-8.1409718,-36.3712527,1207,2356.27135
D1,Brejo da Madre de Deus/PE,-8.1409718,-36.3712527,36,70.27818
1,Brejo de Areia/MA,-4.3316785,-45.5833334,267,2962.05902
D1,Brejo de Areia/MA,-4.3316785,-45.5833334,2,22.18771
1,Brejo do Cruz/PB,-6.32926065,-37.48746163303929,1042,7334.92890
D1,Brejo do Cruz/PB,-6.32926065,-37.48746163303929,12,84.47135
1,Brejo do Piauí/PI,-8.207583,-42.8359849,40,1039.50104
D1,Brejo do Piauí/PI,-8.207583,-42.8359849,3,77.96258
1,Brejo dos Santos/PB,-6.3769367,-37.8243125,134,2073.01980
D1,Brejo dos Santos/PB,-6.3769367,-37.8243125,3,46.41089
1,Brejo/MA,-3.6804397,-42.7529313,708,1931.73447
D1,Brejo/MA,-3.6804397,-42.7529313,18,49.11189
1,Brejolândia/BA,-12.4843845,-43.9611861,126,1186.66416
D1,Brejolândia/BA,-12.4843845,-43.9611861,7,65.92579
1,Brejão/PE,-9.029146,-36.566034,121,1346.38923
D1,Brejão/PE,-9.029146,-36.566034,3,33.38155
1,Brejões/BA,-13.1033754,-39.7909837,406,2854.73211
D1,Brejões/BA,-13.1033754,-39.7909837,5,35.15680
1,Breu Branco/PA,-3.7785073,-49.5684795,427,634.17097
D1,Breu Branco/PA,-3.7785073,-49.5684795,27,40.09980
1,Breves/PA,-1.68036,-50.479085,3540,3420.38900
D1,Breves/PA,-1.68036,-50.479085,99,95.65495
1,Britânia/GO,-15.2427599,-51.1602061,292,5037.08815
D1,Britânia/GO,-15.2427599,-51.1602061,1,17.25030
1,Brochier/RS,-29.556766,-51.5963047,126,2468.65204
1,Brodowski/SP,-20.984532,-47.657217,1076,4256.83428
D1,Brodowski/SP,-20.984532,-47.657217,26,102.86031
1,Brotas de Macaúbas/BA,-12.0019007,-42.6257506,51,503.45508
1,Brotas/SP,-22.2840884,-48.1267265,275,1116.25264
D1,Brotas/SP,-22.2840884,-48.1267265,9,36.53190
1,Brumadinho/MG,-20.143611,-44.2,1942,4775.48812
D1,Brumadinho/MG,-20.143611,-44.2,24,59.01736
1,Brumado/BA,-14.29507325,-41.659307508575985,4455,6616.17287
D1,Brumado/BA,-14.29507325,-41.659307508575985,39,57.91936
1,Brunópolis/SC,-27.310953,-50.837585,68,2871.62162
1,Brusque/SC,-27.0964628,-48.9136323,15998,11618.93833
D1,Brusque/SC,-27.0964628,-48.9136323,121,87.87921
1,Brás Pires/MG,-20.8483109,-43.2430524,94,2189.61099
D1,Brás Pires/MG,-20.8483109,-43.2430524,4,93.17494
1,Bueno Brandão/MG,-22.441976,-46.3517971,256,2329.17842
D1,Bueno Brandão/MG,-22.441976,-46.3517971,6,54.59012
1,Buenos Aires/PE,-7.7218931,-35.326587,78,591.35709
D1,Buenos Aires/PE,-7.7218931,-35.326587,10,75.81501
1,Buenópolis/MG,-17.8756607,-44.1749365,138,1332.94697
D1,Buenópolis/MG,-17.8756607,-44.1749365,5,48.29518
1,Buerarema/BA,-14.9571177,-39.3008035,875,4779.85360
D1,Buerarema/BA,-14.9571177,-39.3008035,26,142.02994
1,Bugre/MG,-19.4257687,-42.2556,286,7180.51720
D1,Bugre/MG,-19.4257687,-42.2556,8,200.85363
1,Bujari/AC,-9.8309656,-67.9520886,524,5028.79079
D1,Bujari/AC,-9.8309656,-67.9520886,8,76.77543
1,Bujaru/PA,-1.5169239,-48.0410699,854,2902.09671
D1,Bujaru/PA,-1.5169239,-48.0410699,25,84.95599
1,Buri/SP,-23.79849,-48.598924,583,2920.11019
D1,Buri/SP,-23.79849,-48.598924,12,60.10518
1,Buritama/SP,-21.0664017,-50.1448077,1130,6538.97344
D1,Buritama/SP,-21.0664017,-50.1448077,30,173.60106
1,Buriti Alegre/GO,-18.1377879,-49.0404411,460,4850.27415
D1,Buriti Alegre/GO,-18.1377879,-49.0404411,12,126.52889
1,Buriti Bravo/MA,-5.8391884,-43.8367876,1019,4256.65232
D1,Buriti Bravo/MA,-5.8391884,-43.8367876,10,41.77284
1,Buriti de Goiás/GO,-16.180644,-50.4287479,120,4846.52666
D1,Buriti de Goiás/GO,-16.180644,-50.4287479,1,40.38772
1,Buriti do Tocantins/TO,-5.3187439,-48.2256609,347,3018.17866
D1,Buriti do Tocantins/TO,-5.3187439,-48.2256609,1,8.69792
1,Buriti dos Lopes/PI,-3.1776723,-41.8707444,832,4200.53516
D1,Buriti dos Lopes/PI,-3.1776723,-41.8707444,12,60.58464
1,Buriti dos Montes/PI,-5.3136171,-41.0971256,316,3823.81413
D1,Buriti dos Montes/PI,-5.3136171,-41.0971256,2,24.20136
1,Buriti/MA,-3.9430944,-42.9244281,706,2451.55914
D1,Buriti/MA,-3.9430944,-42.9244281,5,17.36232
1,Buriticupu/MA,-4.3227472,-46.4516989,2648,3628.24219
D1,Buriticupu/MA,-4.3227472,-46.4516989,19,26.03346
1,Buritinópolis/GO,-14.4589282,-46.4293104,64,1949.43649
1,Buritirama/BA,-10.7148421,-43.6362327,576,2707.27580
D1,Buritirama/BA,-10.7148421,-43.6362327,14,65.80184
1,Buritirana/MA,-5.5897455,-47.0148915,244,1577.55221
D1,Buritirana/MA,-5.5897455,-47.0148915,10,64.65378
1,Buritis/MG,-15.621389,-46.423889,596,2382.76096
D1,Buritis/MG,-15.621389,-46.423889,8,31.98337
1,Buritis/RO,-10.2054937,-63.8281954,2530,6269.20408
D1,Buritis/RO,-10.2054937,-63.8281954,21,52.03687
1,Buritizal/SP,-20.1933264,-47.7097165,87,1927.33717
D1,Buritizal/SP,-20.1933264,-47.7097165,3,66.45990
1,Buritizeiro/MG,-17.3667765,-44.9647781,508,1806.47914
D1,Buritizeiro/MG,-17.3667765,-44.9647781,13,46.22880
1,Butiá/RS,-30.1256795,-51.9692224,742,3541.42803
D1,Butiá/RS,-30.1256795,-51.9692224,26,124.09317
1,Buíque/PE,-8.6239732,-37.157296,1012,1717.61232
D1,Buíque/PE,-8.6239732,-37.157296,13,22.06419
1,Bálsamo/SP,-20.7343722,-49.5807484,747,8173.76081
D1,Bálsamo/SP,-20.7343722,-49.5807484,30,328.26349
0,CASO SEM LOCALIZAÇÃO DEFINIDA/AL,-9.931093434363673,-35.609611600637464,8,0.23971
D0,CASO SEM LOCALIZAÇÃO DEFINIDA/AL,-9.931093434363673,-35.609611600637464,8,0.23971
0,CASO SEM LOCALIZAÇÃO DEFINIDA/BA,-13.415069300066518,-38.14174656569957,8341,56.08125
D0,CASO SEM LOCALIZAÇÃO DEFINIDA/BA,-13.415069300066518,-38.14174656569957,72,0.48410
0,CASO SEM LOCALIZAÇÃO DEFINIDA/CE,-3.3445126297392798,-38.624961942434304,8681,95.06051
D0,CASO SEM LOCALIZAÇÃO DEFINIDA/CE,-3.3445126297392798,-38.624961942434304,24,0.26281
0,CASO SEM LOCALIZAÇÃO DEFINIDA/ES,-20.30989267097039,-39.81745156645774,2414,60.06992
D0,CASO SEM LOCALIZAÇÃO DEFINIDA/ES,-20.30989267097039,-39.81745156645774,83,2.06537
0,CASO SEM LOCALIZAÇÃO DEFINIDA/GO,-16.701590966270153,-49.164524059025034,1568,22.34142
D0,CASO SEM LOCALIZAÇÃO DEFINIDA/GO,-16.701590966270153,-49.164524059025034,13,0.18523
0,CASO SEM LOCALIZAÇÃO DEFINIDA/MG,-19.97049116501593,-43.8852149072783,3970,18.75402
D0,CASO SEM LOCALIZAÇÃO DEFINIDA/MG,-19.97049116501593,-43.8852149072783,126,0.59522
0,CASO SEM LOCALIZAÇÃO DEFINIDA/MT,-15.54791153961863,-56.17143998972475,1242,35.64391
D0,CASO SEM LOCALIZAÇÃO DEFINIDA/MT,-15.54791153961863,-56.17143998972475,82,2.35330
0,CASO SEM LOCALIZAÇÃO DEFINIDA/PA,-0.09317078214359542,-48.0050231510481,1889,21.95780
D0,CASO SEM LOCALIZAÇÃO DEFINIDA/PA,-0.09317078214359542,-48.0050231510481,16,0.18598
0,CASO SEM LOCALIZAÇÃO DEFINIDA/PI,-2.683810218391744,-41.470898009352254,511,15.61151
D0,CASO SEM LOCALIZAÇÃO DEFINIDA/PI,-2.683810218391744,-41.470898009352254,15,0.45826
0,CASO SEM LOCALIZAÇÃO DEFINIDA/PR,-25.69415946385943,-48.10141676336737,4179,36.54903
D0,CASO SEM LOCALIZAÇÃO DEFINIDA/PR,-25.69415946385943,-48.10141676336737,78,0.68218
0,CASO SEM LOCALIZAÇÃO DEFINIDA/RN,-5.749310788669161,-34.95302586257457,999,28.48708
D0,CASO SEM LOCALIZAÇÃO DEFINIDA/RN,-5.749310788669161,-34.95302586257457,18,0.51328
0,CASO SEM LOCALIZAÇÃO DEFINIDA/RR,2.813328208465927,-60.663338675861986,2323,383.48458
D0,CASO SEM LOCALIZAÇÃO DEFINIDA/RR,2.813328208465927,-60.663338675861986,23,3.79688
0,CASO SEM LOCALIZAÇÃO DEFINIDA/SC,-27.675643660562308,-48.18313219398259,12427,173.44547
0,CASO SEM LOCALIZAÇÃO DEFINIDA/SP,-24.30968974555485,-46.21366504207253,303,0.65986
1,Caapiranga/AM,-3.3188884,-61.2096404,502,3779.26673
D1,Caapiranga/AM,-3.3188884,-61.2096404,15,112.92630
1,Caaporã/PB,-7.510234,-34.9154114,1218,5547.71123
D1,Caaporã/PB,-7.510234,-34.9154114,19,86.54065
1,Caarapó/MS,-22.6349267,-54.8240903,1680,5491.45229
D1,Caarapó/MS,-22.6349267,-54.8240903,17,55.56827
1,Caatiba/BA,-14.9782759,-40.4092325,486,7490.75216
D1,Caatiba/BA,-14.9782759,-40.4092325,4,61.65228
1,Cabaceiras do Paraguaçu/BA,-12.5377868,-39.1901339,230,1216.22336
D1,Cabaceiras do Paraguaçu/BA,-12.5377868,-39.1901339,1,5.28793
1,Cabaceiras/PB,-7.4899156,-36.2860501,225,3974.56280
1,Cabeceira Grande/MG,-16.0297,-47.0906,108,1545.50658
D1,Cabeceira Grande/MG,-16.0297,-47.0906,2,28.62049
1,Cabeceiras do Piauí/PI,-4.4733665,-42.3098716,285,2681.09125
D1,Cabeceiras do Piauí/PI,-4.4733665,-42.3098716,7,65.85136
1,Cabeceiras/GO,-15.7995459,-46.9264991,118,1466.56724
D1,Cabeceiras/GO,-15.7995459,-46.9264991,3,37.28561
1,Cabedelo/PB,-6.97324,-34.8351609,4791,6967.00452
D1,Cabedelo/PB,-6.97324,-34.8351609,99,143.96440
1,Cabixi/RO,-13.4956065,-60.5424442,392,7555.89823
D1,Cabixi/RO,-13.4956065,-60.5424442,9,173.47726
1,Cabo Frio/RJ,-22.8804369,-42.0189227,6627,2876.57676
D1,Cabo Frio/RJ,-22.8804369,-42.0189227,272,118.06683
1,Cabo Verde/MG,-21.4743338,-46.3964995,209,1484.90231
D1,Cabo Verde/MG,-21.4743338,-46.3964995,3,21.31439
1,Cabo de Santo Agostinho/PE,-8.2838945,-35.0320984,2735,1308.96317
D1,Cabo de Santo Agostinho/PE,-8.2838945,-35.0320984,310,148.36511
1,Cabreúva/SP,-23.3075813,-47.1324417,2167,4297.13062
D1,Cabreúva/SP,-23.3075813,-47.1324417,51,101.13228
1,Cabrobó/PE,-8.5083701,-39.3106961,961,2785.26505
D1,Cabrobó/PE,-8.5083701,-39.3106961,9,26.08469
1,Cabrália Paulista/SP,-22.4562909,-49.3385645,139,3275.98397
D1,Cabrália Paulista/SP,-22.4562909,-49.3385645,1,23.56823
1,Cacaulândia/RO,-10.3380043,-62.9007231,230,3668.84671
D1,Cacaulândia/RO,-10.3380043,-62.9007231,2,31.90301
1,Cacequi/RS,-29.8838059,-54.8273443,122,982.04942
D1,Cacequi/RS,-29.8838059,-54.8273443,2,16.09917
1,Cachoeira Alta/GO,-18.7618269,-50.9432431,838,6616.13769
D1,Cachoeira Alta/GO,-18.7618269,-50.9432431,12,94.74183
1,Cachoeira Dourada/GO,-18.4934204,-49.481062,196,2440.54290
D1,Cachoeira Dourada/GO,-18.4934204,-49.481062,4,49.80700
1,Cachoeira Dourada/MG,-18.517136,-49.5002062,88,3252.03252
1,Cachoeira Grande/MA,-2.9290492,-44.0573223,187,1972.99008
D1,Cachoeira Grande/MA,-2.9290492,-44.0573223,4,42.20300
1,Cachoeira Paulista/SP,-22.666498,-45.015384,792,2358.47652
D1,Cachoeira Paulista/SP,-22.666498,-45.015384,22,65.51324
1,Cachoeira da Prata/MG,-19.524723,-44.453056,168,4678.36257
D1,Cachoeira da Prata/MG,-19.524723,-44.453056,2,55.69479
1,Cachoeira de Goiás/GO,-16.6688414,-50.6435997,30,2235.46945
1,Cachoeira de Minas/MG,-22.3554043,-45.7796324,343,2962.25926
D1,Cachoeira de Minas/MG,-22.3554043,-45.7796324,3,25.90897
1,Cachoeira de Pajeú/MG,-15.965833,-41.496666,293,3103.15611
D1,Cachoeira de Pajeú/MG,-15.965833,-41.496666,4,42.36391
1,Cachoeira do Arari/PA,-1.0143572,-48.9621089,339,1408.74335
D1,Cachoeira do Arari/PA,-1.0143572,-48.9621089,13,54.02261
1,Cachoeira do Piriá/PA,-1.7599443,-46.5446954,542,1566.06663
D1,Cachoeira do Piriá/PA,-1.7599443,-46.5446954,3,8.66827
1,Cachoeira do Sul/RS,-30.0474778,-52.8905413,2448,2990.14279
D1,Cachoeira do Sul/RS,-30.0474778,-52.8905413,32,39.08683
1,Cachoeira dos Índios/PB,-6.9259193,-38.6742159,339,3289.66521
D1,Cachoeira dos Índios/PB,-6.9259193,-38.6742159,11,106.74430
1,Cachoeira/BA,-12.5998256,-38.9665918,706,2103.25617
D1,Cachoeira/BA,-12.5998256,-38.9665918,12,35.74940
1,Cachoeiras de Macacu/RJ,-22.4626861,-42.6534414,1504,2536.12802
D1,Cachoeiras de Macacu/RJ,-22.4626861,-42.6534414,53,89.37153
1,Cachoeirinha/PE,-8.4906364,-36.2338963,327,1595.04414
D1,Cachoeirinha/PE,-8.4906364,-36.2338963,22,107.31184
1,Cachoeirinha/RS,-29.9493353,-51.0898927,6257,4767.60134
D1,Cachoeirinha/RS,-29.9493353,-51.0898927,159,121.15209
1,Cachoeirinha/TO,-6.118647,-47.9208885,113,4947.46060
D1,Cachoeirinha/TO,-6.118647,-47.9208885,2,87.56567
1,Cachoeiro de Itapemirim/ES,-20.848084,-41.11129,15379,7302.85058
D1,Cachoeiro de Itapemirim/ES,-20.848084,-41.11129,307,145.78159
1,Cacimba de Areia/PB,-7.1288513,-37.1575194,20,541.27199
1,Cacimba de Dentro/PB,-6.6425101,-35.7929304,719,4185.58621
D1,Cacimba de Dentro/PB,-6.6425101,-35.7929304,17,98.96379
1,Cacimbas/PB,-7.2125451,-37.0593398,106,1472.42673
D1,Cacimbas/PB,-7.2125451,-37.0593398,5,69.45409
1,Cacimbinhas/AL,-9.401212,-36.991082,370,3397.92451
D1,Cacimbinhas/AL,-9.401212,-36.991082,3,27.55074
1,Cacique Doble/RS,-27.7700117,-51.6616409,183,3606.62199
D1,Cacique Doble/RS,-27.7700117,-51.6616409,1,19.70832
1,Cacoal/RO,-11.4333,-61.4420502,6992,8140.36068
D1,Cacoal/RO,-11.4333,-61.4420502,91,105.94577
1,Caconde/SP,-21.527995,-46.643659,526,2767.11032
D1,Caconde/SP,-21.527995,-46.643659,3,15.78200
1,Caculé/BA,-14.4990734,-42.2233006,419,1798.97815
D1,Caculé/BA,-14.4990734,-42.2233006,4,17.17402
1,Caetanos/BA,-14.3387456,-40.9085971,324,2217.96276
D1,Caetanos/BA,-14.3387456,-40.9085971,2,13.69113
1,Caetanópolis/MG,-19.2947496,-44.4138386,465,3957.78364
D1,Caetanópolis/MG,-19.2947496,-44.4138386,3,25.53409
1,Caetité/BA,-14.0691776,-42.4852428,1048,2051.64347
D1,Caetité/BA,-14.0691776,-42.4852428,5,9.78838
1,Caeté/MG,-19.897777,-43.670278,925,2053.41088
D1,Caeté/MG,-19.897777,-43.670278,26,57.71750
1,Caetés/PE,-8.7728788,-36.6255835,888,3072.23914
D1,Caetés/PE,-8.7728788,-36.6255835,10,34.59729
1,Cafarnaum/BA,-11.691399,-41.468823,615,3321.98995
D1,Cafarnaum/BA,-11.691399,-41.468823,10,54.01610
1,Cafeara/PR,-22.78905,-51.714195,141,4773.18890
D1,Cafeara/PR,-22.78905,-51.714195,2,67.70481
1,Cafelândia/PR,-24.6176963,-53.3218057,975,5282.83485
D1,Cafelândia/PR,-24.6176963,-53.3218057,6,32.50975
1,Cafelândia/SP,-21.8054355,-49.6030627,485,2718.15278
D1,Cafelândia/SP,-21.8054355,-49.6030627,14,78.46214
1,Cafezal do Sul/PR,-23.900508,-53.512418,108,2693.93864
D1,Cafezal do Sul/PR,-23.900508,-53.512418,1,24.94388
1,Caiabu/SP,-22.0143038,-51.2356597,47,1120.91581
D1,Caiabu/SP,-22.0143038,-51.2356597,2,47.69855
1,Caiana/MG,-20.695555,-41.924723,69,1245.26259
D1,Caiana/MG,-20.695555,-41.924723,2,36.09457
1,Caiapônia/GO,-16.9538779,-51.8090761,424,2219.08201
D1,Caiapônia/GO,-16.9538779,-51.8090761,8,41.86947
1,Caibaté/RS,-28.290475,-54.645407,30,622.01949
D1,Caibaté/RS,-28.290475,-54.645407,3,62.20195
1,Caibi/SC,-27.0751925,-53.2502133,213,3474.71452
D1,Caibi/SC,-27.0751925,-53.2502133,2,32.62643
1,Caicó/RN,-6.4594544,-37.0971911,6654,9736.18366
D1,Caicó/RN,-6.4594544,-37.0971911,74,108.27737
1,Caieiras/SP,-23.3644621,-46.7484765,4145,4033.08198
D1,Caieiras/SP,-23.3644621,-46.7484765,127,123.57091
1,Cairu/BA,-13.4860505,-39.0455744,796,4319.74820
D1,Cairu/BA,-13.4860505,-39.0455744,8,43.41455
1,Caiuá/SP,-21.8319357,-51.9887179,152,2556.34040
D1,Caiuá/SP,-21.8319357,-51.9887179,2,33.63606
1,Caiçara do Norte/RN,-5.0645017,-36.0561226,143,2179.54580
D1,Caiçara do Norte/RN,-5.0645017,-36.0561226,3,45.72474
1,Caiçara do Rio do Vento/RN,-5.757968,-36.00089,110,2960.96904
D1,Caiçara do Rio do Vento/RN,-5.757968,-36.00089,3,80.75370
1,Caiçara/PB,-6.6146866,-35.4681434,492,6841.88569
D1,Caiçara/PB,-6.6146866,-35.4681434,10,139.06272
1,Caiçara/RS,-27.2750478,-53.4310053,274,5829.78723
D1,Caiçara/RS,-27.2750478,-53.4310053,3,63.82979
1,Cajamar/SP,-23.3561111,-46.8769444,2049,2629.14774
D1,Cajamar/SP,-23.3561111,-46.8769444,88,112.91606
1,Cajapió/MA,-2.8778715,-44.6746871,54,481.45506
D1,Cajapió/MA,-2.8778715,-44.6746871,2,17.83167
1,Cajari/MA,-3.3213076,-45.0118757,132,678.62835
D1,Cajari/MA,-3.3213076,-45.0118757,4,20.56450
1,Cajati/SP,-24.7272376,-48.1077914,2393,8398.25928
D1,Cajati/SP,-24.7272376,-48.1077914,49,171.96603
1,Cajazeiras do Piauí/PI,-6.794271,-42.3935024,24,671.70445
D1,Cajazeiras do Piauí/PI,-6.794271,-42.3935024,1,27.98769
1,Cajazeiras/PB,-6.8897849,-38.5570389,3923,6298.06226
D1,Cajazeiras/PB,-6.8897849,-38.5570389,72,115.59023
1,Cajazeirinhas/PB,-6.961442,-37.7993733,75,2340.09360
1,Cajobi/SP,-20.8776238,-48.8106972,367,3463.57116
D1,Cajobi/SP,-20.8776238,-48.8106972,7,66.06267
1,Cajueiro da Praia/PI,-2.931114,-41.340801,445,5798.80115
D1,Cajueiro da Praia/PI,-2.931114,-41.340801,10,130.31014
1,Cajueiro/AL,-9.399589,-36.1524309,400,1875.20510
D1,Cajueiro/AL,-9.399589,-36.1524309,18,84.38423
1,Cajuri/MG,-20.7901414,-42.7954489,142,3573.22597
1,Cajuru/SP,-21.2759978,-47.3046035,533,2019.47486
D1,Cajuru/SP,-21.2759978,-47.3046035,17,64.41102
1,Caldas Brandão/PB,-7.1027959,-35.3254676,370,6119.74859
D1,Caldas Brandão/PB,-7.1027959,-35.3254676,5,82.69931
1,Caldas Novas/GO,-17.745,-48.625,4259,4569.93862
D1,Caldas Novas/GO,-17.745,-48.625,75,80.47556
1,Caldas/MG,-21.923611,-46.386111,327,2248.81370
D1,Caldas/MG,-21.923611,-46.386111,10,68.77106
1,Caldazinha/GO,-16.7116649,-49.0012601,132,3430.35343
D1,Caldazinha/GO,-16.7116649,-49.0012601,2,51.97505
1,Caldeirão Grande do Piauí/PI,-7.3310393,-40.6374433,190,3286.62861
D1,Caldeirão Grande do Piauí/PI,-7.3310393,-40.6374433,1,17.29805
1,Caldeirão Grande/BA,-11.0208483,-40.3041387,512,3823.46352
D1,Caldeirão Grande/BA,-11.0208483,-40.3041387,4,29.87081
1,Califórnia/PR,-23.6672543,-51.3554556,424,4926.79526
D1,Califórnia/PR,-23.6672543,-51.3554556,8,92.95840
1,Calmon/SC,-26.6023644,-51.0992893,16,479.76012
D1,Calmon/SC,-26.6023644,-51.0992893,2,59.97001
1,Calumbi/PE,-7.9389746,-38.1516871,308,5359.31790
D1,Calumbi/PE,-7.9389746,-38.1516871,2,34.80077
1,Calçado/PE,-8.7413446,-36.3351787,206,1869.66782
D1,Calçado/PE,-8.7413446,-36.3351787,2,18.15211
1,Calçoene/AP,2.4981757,-50.9539503,1524,13479.56837
D1,Calçoene/AP,2.4981757,-50.9539503,9,79.60375
1,Camacan/BA,-15.4166631,-39.4930088,1866,5830.15685
D1,Camacan/BA,-15.4166631,-39.4930088,41,128.10098
1,Camacho/MG,-20.625556,-45.156667,46,1603.34611
1,Camalaú/PB,-7.885031,-36.824191,201,3332.78063
D1,Camalaú/PB,-7.885031,-36.824191,2,33.16200
1,Camamu/BA,-13.9438142,-39.1060917,1213,3428.29687
D1,Camamu/BA,-13.9438142,-39.1060917,26,73.48369
1,Camanducaia/MG,-22.755278,-46.144444,1439,6600.61465
D1,Camanducaia/MG,-22.755278,-46.144444,13,59.63029
1,Camapuã/MS,-19.5291747,-54.0434641,307,2242.02147
D1,Camapuã/MS,-19.5291747,-54.0434641,7,51.12101
1,Camaquã/RS,-30.8524752,-51.8075619,3245,4881.31412
D1,Camaquã/RS,-30.8524752,-51.8075619,40,60.17028
1,Camaragibe/PE,-8.0213832,-34.9810768,3015,1897.43170
D1,Camaragibe/PE,-8.0213832,-34.9810768,230,144.74603
1,Camargo/RS,-28.5865661,-52.2031474,174,6345.73304
D1,Camargo/RS,-28.5865661,-52.2031474,1,36.46973
1,Camaçari/BA,-12.6998188,-38.3260762,9222,3030.54203
D1,Camaçari/BA,-12.6998188,-38.3260762,156,51.26486
1,Cambará do Sul/RS,-29.0489517,-50.145412,261,4074.30534
D1,Cambará do Sul/RS,-29.0489517,-50.145412,2,31.22073
1,Cambará/PR,-23.042273,-50.075281,743,2917.61564
D1,Cambará/PR,-23.042273,-50.075281,9,35.34124
1,Cambira/PR,-23.600265,-51.581045,312,3940.88670
D1,Cambira/PR,-23.600265,-51.581045,6,75.78628
1,Camboriú/SC,-27.0273601,-48.6535657,7757,9114.62311
D1,Camboriú/SC,-27.0273601,-48.6535657,88,103.40168
1,Cambuci/RJ,-21.5749919,-41.9107833,418,2694.34060
D1,Cambuci/RJ,-21.5749919,-41.9107833,7,45.12054
1,Cambuquira/MG,-21.853056,-45.2953619,168,1311.27068
D1,Cambuquira/MG,-21.853056,-45.2953619,7,54.63628
1,Cambuí/MG,-22.6122501,-46.0572137,1260,4226.20246
D1,Cambuí/MG,-22.6122501,-46.0572137,12,40.24955
1,Cambé/PR,-23.2782035,-51.2779583,5978,5569.16742
D1,Cambé/PR,-23.2782035,-51.2779583,76,70.80240
1,Cametá/PA,-2.242949,-49.497885,5769,4139.51953
D1,Cametá/PA,-2.242949,-49.497885,123,88.25809
1,Camocim de São Félix/PE,-8.3616757,-35.7638903,320,1693.12169
D1,Camocim de São Félix/PE,-8.3616757,-35.7638903,11,58.20106
1,Camocim/CE,-2.9009918,-40.8427389,2710,4240.53703
D1,Camocim/CE,-2.9009918,-40.8427389,82,128.31145
1,Campanha/MG,-21.8361108,-45.401986,611,3645.14974
D1,Campanha/MG,-21.8361108,-45.401986,12,71.59050
1,Campanário/MG,-18.2398144,-41.7271768,79,2117.96247
1,Campestre da Serra/RS,-28.7966535,-51.0958149,89,2621.50221
1,Campestre de Goiás/GO,-16.7624179,-49.69497,233,6385.31104
D1,Campestre de Goiás/GO,-16.7624179,-49.69497,4,109.61907
1,Campestre do Maranhão/MA,-6.1729113,-47.3640512,573,3964.57483
D1,Campestre do Maranhão/MA,-6.1729113,-47.3640512,17,117.62264
1,Campestre/AL,-8.8481634,-35.5660033,111,1596.20362
D1,Campestre/AL,-8.8481634,-35.5660033,4,57.52085
1,Campestre/MG,-19.6142116,-43.219378,508,2412.84317
D1,Campestre/MG,-19.6142116,-43.219378,6,28.49815
1,Campina Grande do Sul/PR,-25.3046032,-49.0545355,3138,7183.24368
D1,Campina Grande do Sul/PR,-25.3046032,-49.0545355,56,128.19045
1,Campina Grande/PB,-7.2246743,-35.8771292,17487,4246.40669
D1,Campina Grande/PB,-7.2246743,-35.8771292,517,125.54425
1,Campina Verde/MG,-19.535277,-49.486389,262,1326.44795
D1,Campina Verde/MG,-19.535277,-49.486389,12,60.75334
1,Campina da Lagoa/PR,-24.5937926,-52.8038965,302,2150.53763
D1,Campina da Lagoa/PR,-24.5937926,-52.8038965,8,56.96788
1,Campina das Missões/RS,-27.9883295,-54.8411665,191,3538.34754
D1,Campina das Missões/RS,-27.9883295,-54.8411665,4,74.10152
1,Campina do Monte Alegre/SP,-23.5935653,-48.4801876,164,2707.61103
1,Campina do Simão/PR,-25.1086375,-51.8076658,35,906.97072
D1,Campina do Simão/PR,-25.1086375,-51.8076658,1,25.91345
1,Campinas do Piauí/PI,-7.6593687,-41.8814875,101,1797.15302
D1,Campinas do Piauí/PI,-7.6593687,-41.8814875,1,17.79359
1,Campinas do Sul/RS,-27.7167968,-52.6257885,274,5038.61714
D1,Campinas do Sul/RS,-27.7167968,-52.6257885,2,36.77823
1,Campinas/SP,-22.90556,-47.06083,52140,4295.62891
D1,Campinas/SP,-22.90556,-47.06083,1658,136.59672
1,Campinaçu/GO,-13.7869969,-48.5703841,133,3661.89427
1,Campinorte/GO,-14.3136699,-49.1510931,607,4755.56252
D1,Campinorte/GO,-14.3136699,-49.1510931,9,70.51081
1,Campinápolis/MT,-14.5403731,-52.7970626,535,3162.12542
D1,Campinápolis/MT,-14.5403731,-52.7970626,17,100.47875
1,Campo Alegre de Goiás/GO,-17.6337896,-47.779291,67,865.85681
D1,Campo Alegre de Goiás/GO,-17.6337896,-47.779291,2,25.84647
1,Campo Alegre de Lourdes/BA,-9.5160326,-43.0101338,241,836.22484
D1,Campo Alegre de Lourdes/BA,-9.5160326,-43.0101338,5,17.34906
1,Campo Alegre do Fidalgo/PI,-8.3753852,-41.8364191,54,1065.29888
D1,Campo Alegre do Fidalgo/PI,-8.3753852,-41.8364191,1,19.72776
1,Campo Alegre/AL,-9.7798607,-36.3575793,1747,3036.30707
D1,Campo Alegre/AL,-9.7798607,-36.3575793,34,59.09241
1,Campo Alegre/SC,-26.1941684,-49.2657484,564,4707.45347
D1,Campo Alegre/SC,-26.1941684,-49.2657484,21,175.27752
1,Campo Azul/MG,-16.5078525,-44.8133524,52,1359.83264
1,Campo Belo do Sul/SC,-27.8987563,-50.7586887,387,5566.74338
D1,Campo Belo do Sul/SC,-27.8987563,-50.7586887,8,115.07480
1,Campo Belo/MG,-20.8975,-45.277223,1999,3689.14480
D1,Campo Belo/MG,-20.8975,-45.277223,40,73.81981
1,Campo Bom/RS,-29.674694,-51.060601,5857,8432.43399
D1,Campo Bom/RS,-29.674694,-51.060601,92,132.45414
1,Campo Bonito/PR,-25.0328004,-52.992976,110,2923.19957
D1,Campo Bonito/PR,-25.0328004,-52.992976,2,53.14908
1,Campo Erê/SC,-26.3947432,-53.0790495,529,6284.15301
D1,Campo Erê/SC,-26.3947432,-53.0790495,4,47.51722
1,Campo Florido/MG,-19.760833,-48.572223,272,3289.39412
1,Campo Formoso/BA,-10.51055,-40.320031,2196,3071.88720
D1,Campo Formoso/BA,-10.51055,-40.320031,21,29.37597
1,Campo Grande do Piauí/PI,-7.1327559,-41.0381164,372,6236.37888
D1,Campo Grande do Piauí/PI,-7.1327559,-41.0381164,4,67.05784
1,Campo Grande/AL,-9.9725,-36.74791447368421,252,2634.05456
D1,Campo Grande/AL,-9.9725,-36.74791447368421,7,73.16818
1,Campo Grande/MS,-20.4640173,-54.6162947,69261,7643.92578
D1,Campo Grande/MS,-20.4640173,-54.6162947,1302,143.69402
1,Campo Grande/RN,-5.862063,-37.3134908,184,1902.79214
D1,Campo Grande/RN,-5.862063,-37.3134908,3,31.02378
1,Campo Largo do Piauí/PI,-3.8104731,-42.6288333,237,3241.69060
D1,Campo Largo do Piauí/PI,-3.8104731,-42.6288333,5,68.39010
1,Campo Largo/PR,-25.4597726,-49.5270851,8478,6333.24618
D1,Campo Largo/PR,-25.4597726,-49.5270851,153,114.29425
1,Campo Limpo Paulista/SP,-23.207791,-46.788919,2034,2377.80713
D1,Campo Limpo Paulista/SP,-23.207791,-46.788919,92,107.55077
1,Campo Limpo de Goiás/GO,-16.297101,-49.0894994,140,1763.22418
D1,Campo Limpo de Goiás/GO,-16.297101,-49.0894994,2,25.18892
1,Campo Magro/PR,-25.3691533,-49.4496921,1600,5379.95965
D1,Campo Magro/PR,-25.3691533,-49.4496921,38,127.77404
1,Campo Maior/PI,-4.8339574,-42.1739786,3069,6544.68684
D1,Campo Maior/PI,-4.8339574,-42.1739786,58,123.68584
1,Campo Mourão/PR,-24.046329,-52.37802,4657,4877.05261
