type,name,lat,lon,total,total_per_100k_inhabitants
1,Abadia de Goiás/GO,-16.7572644,-49.4412205,1175,13116.76714
D1,Abadia de Goiás/GO,-16.7572644,-49.4412205,18,200.93771
1,Abadia dos Dourados/MG,-18.4911191,-47.4063589,331,4724.52184
D1,Abadia dos Dourados/MG,-18.4911191,-47.4063589,12,171.28176
1,Abadiânia/GO,-16.1940946,-48.7067767,306,1495.52808
D1,Abadiânia/GO,-16.1940946,-48.7067767,23,112.40897
1,Abaetetuba/PA,-1.721828,-48.878843,6187,3889.23812
D1,Abaetetuba/PA,-1.721828,-48.878843,138,86.74881
1,Abaeté/MG,-19.1566833,-45.4481213,819,3522.58065
D1,Abaeté/MG,-19.1566833,-45.4481213,17,73.11828
1,Abaiara/CE,-7.3607808,-39.0487878,334,2817.85202
D1,Abaiara/CE,-7.3607808,-39.0487878,7,59.05678
1,Abaré/BA,-8.7239913,-39.1139689,604,2968.49658
D1,Abaré/BA,-8.7239913,-39.1139689,3,14.74419
1,Abatiá/PR,-23.3052967,-50.3102532,412,5561.55508
D1,Abatiá/PR,-23.3052967,-50.3102532,6,80.99352
1,Abaíra/BA,-13.2503296,-41.6640342,242,2778.41561
D1,Abaíra/BA,-13.2503296,-41.6640342,9,103.32951
1,Abdon Batista/SC,-27.612419,-51.022992,248,9733.12402
D1,Abdon Batista/SC,-27.612419,-51.022992,2,78.49294
1,Abel Figueiredo/PA,-4.953001,-48.3958485,765,10219.07561
D1,Abel Figueiredo/PA,-4.953001,-48.3958485,6,80.14961
1,Abelardo Luz/SC,-26.5705893,-52.3280339,1145,6375.27840
D1,Abelardo Luz/SC,-26.5705893,-52.3280339,37,206.01336
1,Abre Campo/MG,-20.2976097,-42.4764741,777,5779.52990
D1,Abre Campo/MG,-20.2976097,-42.4764741,9,66.94436
1,Abreu e Lima/PE,-7.900719,-34.898389,1968,1961.21420
D1,Abreu e Lima/PE,-7.900719,-34.898389,170,169.41383
1,Abreulândia/TO,-9.6221526,-49.1558343,217,8365.45875
D1,Abreulândia/TO,-9.6221526,-49.1558343,5,192.75251
1,Acaiaca/MG,-20.3621646,-43.1444162,174,4356.53480
D1,Acaiaca/MG,-20.3621646,-43.1444162,6,150.22534
1,Acajutiba/BA,-11.6609659,-38.0186381,448,2949.89135
D1,Acajutiba/BA,-11.6609659,-38.0186381,13,85.59953
1,Acarape/CE,-4.2237866,-38.7071663,2229,14824.42139
D1,Acarape/CE,-4.2237866,-38.7071663,18,119.71269
1,Acaraú/CE,-2.8869514,-40.1194713,4058,6430.65416
D1,Acaraú/CE,-2.8869514,-40.1194713,82,129.94422
1,Acari/RN,-6.4364689,-36.6394777,714,6420.28595
D1,Acari/RN,-6.4364689,-36.6394777,10,89.91997
1,Acará/PA,-1.961388,-48.1987043,1066,1914.88980
D1,Acará/PA,-1.961388,-48.1987043,23,41.31563
1,Acauã/PI,-8.219542,-41.083059,159,2238.80597
D1,Acauã/PI,-8.219542,-41.083059,1,14.08054
1,Aceguá/RS,-31.8695131,-54.1615593,210,4249.29178
D1,Aceguá/RS,-31.8695131,-54.1615593,1,20.23472
1,Acopiara/CE,-6.0936464,-39.4543204,2167,3977.53345
D1,Acopiara/CE,-6.0936464,-39.4543204,92,168.86621
1,Acorizal/MT,-15.2001544,-56.3668953,398,7461.56730
D1,Acorizal/MT,-15.2001544,-56.3668953,14,262.46719
1,Acrelândia/AC,-10.0759167,-67.0526898,1352,8728.21175
D1,Acrelândia/AC,-10.0759167,-67.0526898,23,148.48289
1,Acreúna/GO,-17.3959899,-50.3749031,1450,6431.29602
D1,Acreúna/GO,-17.3959899,-50.3749031,39,172.97969
1,Adamantina/SP,-21.6866517,-51.0762975,2099,5978.18348
D1,Adamantina/SP,-21.6866517,-51.0762975,51,145.25362
1,Adelândia/GO,-16.4155077,-50.1665834,108,4292.52782
D1,Adelândia/GO,-16.4155077,-50.1665834,2,79.49126
1,Adolfo/SP,-21.2356597,-49.6441918,326,9172.76308
D1,Adolfo/SP,-21.2356597,-49.6441918,8,225.09848
1,Adrianópolis/PR,-24.6557863,-48.9912769,1031,17602.86836
D1,Adrianópolis/PR,-24.6557863,-48.9912769,23,392.69250
1,Adustina/BA,-10.5358875,-38.114479,516,3012.96275
D1,Adustina/BA,-10.5358875,-38.114479,9,52.55168
1,Afogados da Ingazeira/PE,-7.750429,-37.6356375,3110,8314.61876
D1,Afogados da Ingazeira/PE,-7.750429,-37.6356375,46,122.98150
1,Afonso Bezerra/RN,-5.4745,-36.57625071327935,355,3218.78683
D1,Afonso Bezerra/RN,-5.4745,-36.57625071327935,11,99.73706
1,Afonso Cláudio/ES,-20.077841,-41.12606,2927,9610.90133
D1,Afonso Cláudio/ES,-20.077841,-41.12606,48,157.60959
1,Afonso Cunha/MA,-4.1326105,-43.3230026,155,2356.33931
D1,Afonso Cunha/MA,-4.1326105,-43.3230026,2,30.40438
1,Afrânio/PE,-8.5198919,-41.0070197,622,3139.82837
D1,Afrânio/PE,-8.5198919,-41.0070197,9,45.43160
1,Afuá/PA,-0.1535664,-50.3879223,2786,7041.22122
D1,Afuá/PA,-0.1535664,-50.3879223,14,35.38302
1,Agrestina/PE,-8.4558021,-35.9442663,1036,4133.25354
D1,Agrestina/PE,-8.4558021,-35.9442663,39,155.59545
1,Agricolândia/PI,-5.7967843,-42.6605131,171,3332.68369
D1,Agricolândia/PI,-5.7967843,-42.6605131,2,38.97876
1,Agrolândia/SC,-27.4122212,-49.8295774,824,7482.06665
D1,Agrolândia/SC,-27.4122212,-49.8295774,9,81.72160
1,Agronômica/SC,-27.2660744,-49.7104753,411,7460.51915
D1,Agronômica/SC,-27.2660744,-49.7104753,9,163.36903
1,Aguanil/MG,-20.9424533,-45.3927152,338,7474.56877
D1,Aguanil/MG,-20.9424533,-45.3927152,7,154.79876
1,Aguaí/SP,-22.0592036,-46.979384,1646,4491.37743
D1,Aguaí/SP,-22.0592036,-46.979384,35,95.50317
1,Agudo/RS,-29.6423259,-53.2494005,888,5414.30401
D1,Agudo/RS,-29.6423259,-53.2494005,12,73.16627
1,Agudos do Sul/PR,-25.9890808,-49.3328175,422,4456.17740
D1,Agudos do Sul/PR,-25.9890808,-49.3328175,6,63.35797
1,Agudos/SP,-22.471162,-48.987822,2180,5828.72116
D1,Agudos/SP,-22.471162,-48.987822,50,133.68627
1,Aguiar/PB,-7.0928404,-38.1727215,252,4476.02131
D1,Aguiar/PB,-7.0928404,-38.1727215,3,53.28597
1,Aguiarnópolis/TO,-6.5600452,-47.4721189,503,7298.31689
D1,Aguiarnópolis/TO,-6.5600452,-47.4721189,11,159.60534
1,Aimorés/MG,-19.4917754,-41.0615603,1541,6129.43001
D1,Aimorés/MG,-19.4917754,-41.0615603,39,155.12509
1,Aiquara/BA,-14.126918,-39.8887574,435,9850.54348
D1,Aiquara/BA,-14.126918,-39.8887574,9,203.80435
1,Aiuaba/CE,-6.5710836,-40.1212278,311,1777.85400
D1,Aiuaba/CE,-6.5710836,-40.1212278,9,51.44915
1,Aiuruoca/MG,-21.9759554,-44.6036637,79,1321.95448
D1,Aiuruoca/MG,-21.9759554,-44.6036637,5,83.66801
1,Ajuricaba/RS,-28.239654,-53.7693013,585,8372.69214
D1,Ajuricaba/RS,-28.239654,-53.7693013,22,314.87047
1,Alagoa Grande/PB,-7.0415212,-35.6285322,2295,8069.90401
D1,Alagoa Grande/PB,-7.0415212,-35.6285322,44,154.71711
1,Alagoa Nova/PB,-7.0653703,-35.76695977336711,682,3259.88241
D1,Alagoa Nova/PB,-7.0653703,-35.76695977336711,13,62.13852
1,Alagoa/MG,-22.1697202,-44.6400042,267,10018.76173
D1,Alagoa/MG,-22.1697202,-44.6400042,3,112.57036
1,Alagoinha do Piauí/PI,-7.0090952,-40.939675,242,3157.20809
D1,Alagoinha do Piauí/PI,-7.0090952,-40.939675,9,117.41683
1,Alagoinha/PB,-6.97063215,-35.51490901897793,1314,9024.72527
D1,Alagoinha/PB,-6.97063215,-35.51490901897793,21,144.23077
1,Alagoinha/PE,-8.50355635,-36.77701174370496,467,3172.98546
D1,Alagoinha/PE,-8.50355635,-36.77701174370496,13,88.32722
1,Alagoinhas/BA,-12.133526,-38.420772,10288,6753.89130
D1,Alagoinhas/BA,-12.133526,-38.420772,190,124.73166
1,Alambari/SP,-23.550338,-47.897971,389,6346.87551
D1,Alambari/SP,-23.550338,-47.897971,9,146.84288
1,Albertina/MG,-20.66164,-43.784039,167,5546.33012
D1,Albertina/MG,-20.66164,-43.784039,6,199.26935
1,Alcantil/PB,-7.7425491,-36.0609604,224,4066.07370
D1,Alcantil/PB,-7.7425491,-36.0609604,6,108.91269
1,Alcinópolis/MS,-18.3264121,-53.7094463,131,2418.31272
D1,Alcinópolis/MS,-18.3264121,-53.7094463,5,92.30201
1,Alcobaça/BA,-17.5215875,-39.1965474,1160,5157.84793
D1,Alcobaça/BA,-17.5215875,-39.1965474,17,75.58915
1,Alcântara/MA,-2.4038956,-44.4154241,208,940.66570
D1,Alcântara/MA,-2.4038956,-44.4154241,11,49.74674
1,Alcântaras/CE,-3.586247,-40.5457641,956,8114.76106
D1,Alcântaras/CE,-3.586247,-40.5457641,11,93.37068
1,Aldeias Altas/MA,-4.6291957,-43.4708622,974,3640.16893
D1,Aldeias Altas/MA,-4.6291957,-43.4708622,12,44.84808
1,Alecrim/RS,-27.6566142,-54.7653195,223,3827.01218
D1,Alecrim/RS,-27.6566142,-54.7653195,9,154.45341
1,Alegre/ES,-20.7625787,-41.5318886,1593,5314.42869
D1,Alegre/ES,-20.7625787,-41.5318886,37,123.43620
1,Alegrete do Piauí/PI,-7.2440138,-40.8602296,407,8275.72184
D1,Alegrete do Piauí/PI,-7.2440138,-40.8602296,4,81.33388
1,Alegrete/RS,-29.790166,-55.794862,5423,7425.91883
D1,Alegrete/RS,-29.790166,-55.794862,170,232.78742
1,Alegria/RS,-27.8332103,-54.0574959,289,8565.50089
D1,Alegria/RS,-27.8332103,-54.0574959,1,29.63841
1,Alenquer/PA,-1.946229,-54.738355,2217,3883.20605
D1,Alenquer/PA,-1.946229,-54.738355,69,120.85756
1,Alexandria/RN,-6.414779,-38.0135516,993,7326.79112
D1,Alexandria/RN,-6.414779,-38.0135516,11,81.16284
1,Alexânia/GO,-16.0834049,-48.5077803,2288,8168.51125
D1,Alexânia/GO,-16.0834049,-48.5077803,46,164.22706
1,Alfenas/MG,-21.4297405,-45.9479419,5320,6609.18826
D1,Alfenas/MG,-21.4297405,-45.9479419,118,146.59478
1,Alfredo Chaves/ES,-20.624970400000002,-40.75006690147988,1948,13309.64744
D1,Alfredo Chaves/ES,-20.624970400000002,-40.75006690147988,24,163.97923
1,Alfredo Marcondes/SP,-21.9527,-51.413956,191,4565.00956
D1,Alfredo Marcondes/SP,-21.9527,-51.413956,7,167.30402
1,Alfredo Vasconcelos/MG,-21.145833,-43.776389,215,3079.78800
D1,Alfredo Vasconcelos/MG,-21.145833,-43.776389,6,85.94757
1,Alfredo Wagner/SC,-27.6961513,-49.3326734,586,5810.03371
D1,Alfredo Wagner/SC,-27.6961513,-49.3326734,5,49.57367
1,Algodão de Jandaíra/PB,-6.9040175,-36.0089879,90,3492.43306
1,Alhandra/PB,-7.4304246,-34.9106103,1222,6194.55569
D1,Alhandra/PB,-7.4304246,-34.9106103,23,116.59147
1,Aliança do Tocantins/TO,-11.3055927,-48.9409096,476,8903.85335
D1,Aliança do Tocantins/TO,-11.3055927,-48.9409096,15,280.58361
1,Aliança/PE,-7.60398,-35.222696,481,1252.70203
D1,Aliança/PE,-7.60398,-35.222696,33,85.94421
1,Almadina/BA,-14.70466,-39.6381994,575,10715.61685
D1,Almadina/BA,-14.70466,-39.6381994,9,167.72270
1,Almas/TO,-11.5681309,-47.1702803,176,2521.85127
D1,Almas/TO,-11.5681309,-47.1702803,4,57.31480
1,Almeirim/PA,-1.5290377,-52.5788111,3111,9129.59268
D1,Almeirim/PA,-1.5290377,-52.5788111,30,88.03850
1,Almenara/MG,-16.1740678,-40.6904907,2893,6864.72249
D1,Almenara/MG,-16.1740678,-40.6904907,30,71.18620
1,Almino Afonso/RN,-6.1544208,-37.7649018,322,6836.51805
D1,Almino Afonso/RN,-6.1544208,-37.7649018,9,191.08280
1,Almirante Tamandaré do Sul/RS,-28.1141129,-52.9134874,160,8209.33812
D1,Almirante Tamandaré do Sul/RS,-28.1141129,-52.9134874,1,51.30836
1,Almirante Tamandaré/PR,-25.3133048,-49.2997838,7238,6029.60655
D1,Almirante Tamandaré/PR,-25.3133048,-49.2997838,251,209.09523
1,Aloândia/GO,-17.7277983,-49.4809338,186,9365.55891
D1,Aloândia/GO,-17.7277983,-49.4809338,6,302.11480
1,Alpercata/MG,-18.9803616,-41.9827637,407,5473.37278
D1,Alpercata/MG,-18.9803616,-41.9827637,13,174.82517
1,Alpestre/RS,-27.2512339,-53.0349646,252,4153.61793
D1,Alpestre/RS,-27.2512339,-53.0349646,6,98.89567
1,Alpinópolis/MG,-20.863611,-46.387777,701,3512.37599
D1,Alpinópolis/MG,-20.863611,-46.387777,12,60.12627
1,Alta Floresta D'Oeste/RO,-11.9296917,-61.9961284,3013,13256.77578
D1,Alta Floresta D'Oeste/RO,-11.9296917,-61.9961284,47,206.79338
1,Alta Floresta/MT,-9.8715018,-56.0839881,6263,12053.73468
D1,Alta Floresta/MT,-9.8715018,-56.0839881,79,152.04296
1,Altair/SP,-20.5238955,-49.0606135,118,2818.92021
D1,Altair/SP,-20.5238955,-49.0606135,7,167.22408
1,Altamira do Maranhão/MA,-4.1643006,-45.4674574,279,3407.00940
D1,Altamira do Maranhão/MA,-4.1643006,-45.4674574,8,97.69203
1,Altamira do Paraná/PR,-24.799114,-52.7128633,98,5826.39715
D1,Altamira do Paraná/PR,-24.799114,-52.7128633,3,178.35910
1,Altamira/PA,-3.204065,-52.209961,11179,9639.64508
D1,Altamira/PA,-3.204065,-52.209961,224,193.15507
1,Altaneira/CE,-6.9980933,-39.7385742,302,3947.71242
D1,Altaneira/CE,-6.9980933,-39.7385742,10,130.71895
1,Alterosa/MG,-21.249166,-46.143055,501,3451.12627
D1,Alterosa/MG,-21.249166,-46.143055,25,172.21189
1,Altinho/PE,-8.4904095,-36.0607494,824,3585.10268
D1,Altinho/PE,-8.4904095,-36.0607494,16,69.61364
1,Altinópolis/SP,-21.021364,-47.3712,621,3832.62359
D1,Altinópolis/SP,-21.021364,-47.3712,19,117.26224
1,Alto Alegre do Maranhão/MA,-4.2055693,-44.4525287,721,2588.12549
D1,Alto Alegre do Maranhão/MA,-4.2055693,-44.4525287,21,75.38230
1,Alto Alegre do Pindaré/MA,-3.6698186,-45.8462153,1717,5375.19957
D1,Alto Alegre do Pindaré/MA,-3.6698186,-45.8462153,34,106.43960
1,Alto Alegre dos Parecis/RO,-12.1314515,-61.856265,871,6571.10524
D1,Alto Alegre dos Parecis/RO,-12.1314515,-61.856265,18,135.79781
1,Alto Alegre/RR,2.98858,-61.307167,1149,7470.74122
D1,Alto Alegre/RR,2.98858,-61.307167,25,162.54876
1,Alto Alegre/RS,-31.780844700000003,-52.81311114489171,119,7377.55735
1,Alto Alegre/SP,-21.5820592,-50.1661976,189,4623.28767
D1,Alto Alegre/SP,-21.5820592,-50.1661976,7,171.23288
1,Alto Araguaia/MT,-17.3156528,-53.2169365,929,4792.36523
D1,Alto Araguaia/MT,-17.3156528,-53.2169365,19,98.01393
1,Alto Bela Vista/SC,-27.4320737,-51.905771,107,5555.55556
D1,Alto Bela Vista/SC,-27.4320737,-51.905771,2,103.84216
1,Alto Boa Vista/MT,-11.6723985,-51.3744431,456,6574.39446
D1,Alto Boa Vista/MT,-11.6723985,-51.3744431,8,115.34025
1,Alto Caparaó/MG,-20.4405661,-41.8683799,310,5259.58602
D1,Alto Caparaó/MG,-20.4405661,-41.8683799,7,118.76485
1,Alto Feliz/RS,-29.3785943,-51.3123751,158,5204.21607
1,Alto Garças/MT,-16.9469683,-53.529427,514,4230.10452
D1,Alto Garças/MT,-16.9469683,-53.529427,21,172.82528
1,Alto Horizonte/GO,-14.1954948,-49.3366993,584,8841.78653
D1,Alto Horizonte/GO,-14.1954948,-49.3366993,6,90.84027
1,Alto Jequitibá/MG,-20.423611,-41.966111,480,5782.43585
D1,Alto Jequitibá/MG,-20.423611,-41.966111,9,108.42067
1,Alto Longá/PI,-5.2549051,-42.2072388,489,3410.27966
D1,Alto Longá/PI,-5.2549051,-42.2072388,11,76.71386
1,Alto Paraguai/MT,-14.513712,-56.4936374,560,4881.02502
D1,Alto Paraguai/MT,-14.513712,-56.4936374,15,130.74174
1,Alto Paraná/PR,-23.131247,-52.318893,632,4253.31449
D1,Alto Paraná/PR,-23.131247,-52.318893,14,94.21899
1,Alto Paraíso de Goiás/GO,-14.1304779,-47.5100161,488,6347.55463
D1,Alto Paraíso de Goiás/GO,-14.1304779,-47.5100161,4,52.02914
1,Alto Paraíso/PR,-23.508137,-53.728537,152,5661.08007
D1,Alto Paraíso/PR,-23.508137,-53.728537,2,74.48790
1,Alto Paraíso/RO,-9.7240103,-63.3188123,1470,6728.61262
D1,Alto Paraíso/RO,-9.7240103,-63.3188123,32,146.47320
1,Alto Parnaíba/MA,-9.112506,-45.9310154,650,5797.35997
D1,Alto Parnaíba/MA,-9.112506,-45.9310154,5,44.59508
1,Alto Piquiri/PR,-24.0239021,-53.4417448,444,4540.80589
D1,Alto Piquiri/PR,-24.0239021,-53.4417448,11,112.49744
1,Alto Rio Doce/MG,-21.0239537,-43.4133507,260,2394.32729
D1,Alto Rio Doce/MG,-21.0239537,-43.4133507,22,202.59692
1,Alto Rio Novo/ES,-19.0577208,-41.0171518,628,7975.61595
D1,Alto Rio Novo/ES,-19.0577208,-41.0171518,20,254.00051
1,Alto Santo/CE,-5.5190371,-38.2719351,708,4117.23657
D1,Alto Santo/CE,-5.5190371,-38.2719351,18,104.67551
1,Alto Taquari/MT,-17.8269099,-53.2831736,1192,10706.90739
D1,Alto Taquari/MT,-17.8269099,-53.2831736,21,188.62840
1,Alto do Rodrigues/RN,-5.290868,-36.7616726,1158,7862.57469
D1,Alto do Rodrigues/RN,-5.290868,-36.7616726,23,156.16513
1,Altos/PI,-5.0393915,-42.4611694,3428,8442.31006
D1,Altos/PI,-5.0393915,-42.4611694,62,152.69056
1,Altônia/PR,-23.8722004,-53.894037,812,3661.61616
D1,Altônia/PR,-23.8722004,-53.894037,14,63.13131
1,Alumínio/SP,-23.5203479,-47.2575256,974,5189.96110
D1,Alumínio/SP,-23.5203479,-47.2575256,29,154.52656
1,Alvarenga/MG,-19.4175,-41.728334,341,8870.96774
D1,Alvarenga/MG,-19.4175,-41.728334,4,104.05827
1,Alvarães/AM,-3.214786,-64.8143124,2654,16362.51541
D1,Alvarães/AM,-3.214786,-64.8143124,38,234.27867
1,Alvinlândia/SP,-22.4431852,-49.7643596,103,3181.95860
D1,Alvinlândia/SP,-22.4431852,-49.7643596,1,30.89280
1,Alvinópolis/MG,-20.1105199,-43.0601805,439,2894.06025
D1,Alvinópolis/MG,-20.1105199,-43.0601805,8,52.73914
1,Alvorada D'Oeste/RO,-11.346271,-62.284697,758,5373.59989
D1,Alvorada D'Oeste/RO,-11.346271,-62.284697,19,134.69446
1,Alvorada de Minas/MG,-18.7318587,-43.3641479,219,6074.89598
D1,Alvorada de Minas/MG,-18.7318587,-43.3641479,1,27.73925
1,Alvorada do Gurguéia/PI,-8.4465288,-43.8655915,232,4260.78972
D1,Alvorada do Gurguéia/PI,-8.4465288,-43.8655915,6,110.19284
1,Alvorada do Norte/GO,-14.483911,-46.4959897,557,6398.62148
D1,Alvorada do Norte/GO,-14.483911,-46.4959897,2,22.97530
1,Alvorada do Sul/PR,-22.7807269,-51.2307721,615,5346.43137
D1,Alvorada do Sul/PR,-22.7807269,-51.2307721,14,121.70738
1,Alvorada/RS,-29.9981184,-51.0772509,15432,7301.56327
D1,Alvorada/RS,-29.9981184,-51.0772509,567,268.27283
1,Alvorada/TO,-12.478465,-49.124926,966,11505.47880
D1,Alvorada/TO,-12.478465,-49.124926,16,190.56694
1,Além Paraíba/MG,-21.8760576,-42.6810473,2309,6522.41462
D1,Além Paraíba/MG,-21.8760576,-42.6810473,106,299.42657
1,Amajari/RR,3.6523869,-61.4194315,821,6226.77285
D1,Amajari/RR,3.6523869,-61.4194315,18,136.51877
1,Amambai/MS,-23.1082701,-55.2284854,1978,4966.60473
D1,Amambai/MS,-23.1082701,-55.2284854,37,92.90413
1,Amaporã/PR,-23.094272,-52.786597,175,2763.73973
1,Amapá do Maranhão/MA,-1.6762114,-46.0109669,78,1113.49036
1,Amapá/AP,2.0529997,-50.7930003,1195,13007.51061
D1,Amapá/AP,2.0529997,-50.7930003,10,108.84946
1,Amaraji/PE,-8.373925,-35.4536527,415,1814.60429
D1,Amaraji/PE,-8.373925,-35.4536527,27,118.05859
1,Amaral Ferrador/RS,-30.8750633,-52.2542051,188,2653.49330
D1,Amaral Ferrador/RS,-30.8750633,-52.2542051,4,56.45730
1,Amaralina/GO,-13.9236199,-49.2962411,46,1196.35891
1,Amarante do Maranhão/MA,-5.56913,-46.747284,1314,3148.88926
D1,Amarante do Maranhão/MA,-5.56913,-46.747284,46,110.23509
1,Amarante/PI,-6.2459374,-42.8476238,1131,6424.67621
D1,Amarante/PI,-6.2459374,-42.8476238,26,147.69371
1,Amargosa/BA,-13.03793715,-39.60796443875596,2118,5656.90019
D1,Amargosa/BA,-13.03793715,-39.60796443875596,42,112.17649
1,Amaturá/AM,-3.3640509,-68.1994689,2111,17987.38923
D1,Amaturá/AM,-3.3640509,-68.1994689,17,144.85344
1,Americana/SP,-22.7392463,-47.3306032,13821,5710.73226
D1,Americana/SP,-22.7392463,-47.3306032,388,160.31865
1,Americano do Brasil/GO,-16.2515808,-49.9806104,340,5515.89877
D1,Americano do Brasil/GO,-16.2515808,-49.9806104,12,194.67878
1,Ametista do Sul/RS,-27.3617341,-53.1826575,482,6510.87397
D1,Ametista do Sul/RS,-27.3617341,-53.1826575,11,148.58841
1,Amontada/CE,-3.3634586,-39.8284791,1642,3746.37797
D1,Amontada/CE,-3.3634586,-39.8284791,29,66.16624
1,Amorinópolis/GO,-16.6211308,-51.0949921,142,4626.91430
D1,Amorinópolis/GO,-16.6211308,-51.0949921,1,32.58390
1,Amparo de São Francisco/SE,-10.1299754,-36.9269099,121,5084.03361
D1,Amparo de São Francisco/SE,-10.1299754,-36.9269099,3,126.05042
1,Amparo do Serra/MG,-20.5070255,-42.8028462,98,2094.91236
D1,Amparo do Serra/MG,-20.5070255,-42.8028462,3,64.12997
1,Amparo/PB,-7.56394725,-37.04652873235175,142,6308.30742
D1,Amparo/PB,-7.56394725,-37.04652873235175,4,177.69880
1,Amparo/SP,-22.70111,-46.76444,3526,4851.60367
D1,Amparo/SP,-22.70111,-46.76444,106,145.85082
1,Ampére/PR,-25.9168712,-53.4742414,867,4489.66910
D1,Ampére/PR,-25.9168712,-53.4742414,23,119.10310
1,Amélia Rodrigues/BA,-12.4015388,-38.7516971,1665,6647.23730
D1,Amélia Rodrigues/BA,-12.4015388,-38.7516971,34,135.73938
1,América Dourada/BA,-11.4515262,-41.4357517,495,3076.44500
D1,América Dourada/BA,-11.4515262,-41.4357517,2,12.43008
1,Américo Brasiliense/SP,-21.7297099,-48.1052092,2853,6953.10977
D1,Américo Brasiliense/SP,-21.7297099,-48.1052092,63,153.53870
1,Américo de Campos/SP,-20.298476,-49.735904,558,9329.54355
D1,Américo de Campos/SP,-20.298476,-49.735904,18,300.95302
1,Anadia/AL,-9.6830208,-36.3052699,991,5654.45624
D1,Anadia/AL,-9.6830208,-36.3052699,17,96.99874
1,Anagé/BA,-14.6134669,-41.1376308,630,2915.72176
D1,Anagé/BA,-14.6134669,-41.1376308,15,69.42195
1,Anahy/PR,-24.6450861,-53.1337957,226,8106.16930
D1,Anahy/PR,-24.6450861,-53.1337957,4,143.47202
1,Anajatuba/MA,-3.26441,-44.6179916,669,2478.87950
D1,Anajatuba/MA,-3.26441,-44.6179916,17,62.99096
1,Anajás/PA,-0.9878802,-49.9390114,1247,4200.35031
D1,Anajás/PA,-0.9878802,-49.9390114,14,47.15710
1,Analândia/SP,-22.128917,-47.661939,234,4628.16456
D1,Analândia/SP,-22.128917,-47.661939,3,59.33544
1,Anamã/AM,-3.5797356,-61.4049996,1626,11650.90284
D1,Anamã/AM,-3.5797356,-61.4049996,7,50.15764
1,Ananindeua/PA,-1.374035,-48.4016623,17173,3206.62799
D1,Ananindeua/PA,-1.374035,-48.4016623,570,106.43324
1,Ananás/TO,-6.3663053,-48.080238,1309,13790.56047
D1,Ananás/TO,-6.3663053,-48.080238,20,210.70375
1,Anapu/PA,-3.4668292,-51.2057035,1229,4296.15129
D1,Anapu/PA,-3.4668292,-51.2057035,29,101.37379
1,Anapurus/MA,-3.6751298,-43.1046001,828,5209.51302
D1,Anapurus/MA,-3.6751298,-43.1046001,11,69.20851
1,Anastácio/MS,-20.4832458,-55.8048448,1582,6268.57392
D1,Anastácio/MS,-20.4832458,-55.8048448,49,194.15937
1,Anaurilândia/MS,-22.185169,-52.719056,249,2743.49934
D1,Anaurilândia/MS,-22.185169,-52.719056,7,77.12649
1,Anchieta/ES,-20.8057672,-40.6454564,3774,12673.36042
D1,Anchieta/ES,-20.8057672,-40.6454564,52,174.61970
1,Anchieta/SC,-26.5350527,-53.3293938,387,6964.18931
D1,Anchieta/SC,-26.5350527,-53.3293938,6,107.97193
1,Andaraí/BA,-12.8059674,-41.3322919,601,4576.60676
D1,Andaraí/BA,-12.8059674,-41.3322919,5,38.07493
1,Andirá/PR,-23.0494761,-50.2310027,1336,6704.80779
D1,Andirá/PR,-23.0494761,-50.2310027,46,230.85416
1,Andorinha/BA,-10.3445708,-39.8334411,633,4364.61422
D1,Andorinha/BA,-10.3445708,-39.8334411,9,62.05613
1,Andradas/MG,-22.0680484,-46.5688976,2283,5515.02561
D1,Andradas/MG,-22.0680484,-46.5688976,57,137.69446
1,Andradina/SP,-20.896505,-51.3742765,4060,7097.65393
D1,Andradina/SP,-20.896505,-51.3742765,153,267.47317
1,Andrelândia/MG,-21.739722,-44.308889,206,1687.69458
D1,Andrelândia/MG,-21.739722,-44.308889,6,49.15615
1,André da Rocha/RS,-28.6309124,-51.5733328,87,6478.03425
1,Angatuba/SP,-23.4938938,-48.4110675,1925,7555.24157
D1,Angatuba/SP,-23.4938938,-48.4110675,47,184.46564
1,Angelim/PE,-8.8902038,-36.2872987,119,1060.03919
D1,Angelim/PE,-8.8902038,-36.2872987,4,35.63157
1,Angelina/SC,-27.5805287,-48.9838759,430,9065.99199
D1,Angelina/SC,-27.5805287,-48.9838759,1,21.08370
1,Angelândia/MG,-17.7253,-42.2728,80,934.90709
1,Angical do Piauí/PI,-6.0872666,-42.7366138,343,5056.75955
D1,Angical do Piauí/PI,-6.0872666,-42.7366138,8,117.94191
1,Angical/BA,-12.005623,-44.7000236,375,2690.48644
D1,Angical/BA,-12.005623,-44.7000236,8,57.39704
1,Angico/TO,-6.3893733,-47.8656722,200,5790.38796
D1,Angico/TO,-6.3893733,-47.8656722,3,86.85582
1,Angicos/RN,-5.6666344,-36.6009064,460,3929.94447
D1,Angicos/RN,-5.6666344,-36.6009064,12,102.52029
1,Angra dos Reis/RJ,-23.0063966,-44.316326,11636,5620.06144
D1,Angra dos Reis/RJ,-23.0063966,-44.316326,359,173.39310
1,Anguera/BA,-12.1509425,-39.2452469,301,2664.42418
D1,Anguera/BA,-12.1509425,-39.2452469,1,8.85191
1,Angélica/MS,-22.1588196,-53.7728504,562,5140.87084
D1,Angélica/MS,-22.1588196,-53.7728504,11,100.62203
1,Anhanguera/GO,-18.3338749,-48.220363,83,7155.17241
D1,Anhanguera/GO,-18.3338749,-48.220363,6,517.24138
1,Anhembi/SP,-22.7891096,-48.1316776,109,1598.47485
D1,Anhembi/SP,-22.7891096,-48.1316776,2,29.32981
1,Anhumas/SP,-22.2956478,-51.3873401,174,4198.84170
D1,Anhumas/SP,-22.2956478,-51.3873401,4,96.52510
1,Anicuns/GO,-16.4606451,-49.9572265,2120,9644.69314
D1,Anicuns/GO,-16.4606451,-49.9572265,52,236.56795
1,Anita Garibaldi/SC,-27.6855032,-51.1293873,780,11211.72919
D1,Anita Garibaldi/SC,-27.6855032,-51.1293873,6,86.24407
1,Anitápolis/SC,-27.9041185,-49.1287395,295,9138.78563
D1,Anitápolis/SC,-27.9041185,-49.1287395,1,30.97893
1,Anori/AM,-3.7435254,-61.6605203,1817,8460.21325
D1,Anori/AM,-3.7435254,-61.6605203,31,144.34046
1,Anta Gorda/RS,-28.9718745,-52.0069187,515,8639.49002
D1,Anta Gorda/RS,-28.9718745,-52.0069187,4,67.10284
1,Antas/BA,-10.4114649,-38.3308815,971,4984.85549
D1,Antas/BA,-10.4114649,-38.3308815,4,20.53494
1,Antonina do Norte/CE,-6.7754187,-39.9879345,196,2656.54649
D1,Antonina do Norte/CE,-6.7754187,-39.9879345,9,121.98428
1,Antonina/PR,-25.4298854,-48.7125431,1792,9456.96343
D1,Antonina/PR,-25.4298854,-48.7125431,45,237.47955
1,Antônio Almeida/PI,-7.2186016,-44.1950248,389,12271.29338
D1,Antônio Almeida/PI,-7.2186016,-44.1950248,10,315.45741
1,Antônio Cardoso/BA,-12.4363122,-39.1200307,300,2569.15304
D1,Antônio Cardoso/BA,-12.4363122,-39.1200307,7,59.94690
1,Antônio Carlos/MG,-21.318334,-43.746666,374,3263.81011
D1,Antônio Carlos/MG,-21.318334,-43.746666,7,61.08735
1,Antônio Carlos/SC,-27.5168462,-48.7684715,1412,16393.82329
D1,Antônio Carlos/SC,-27.5168462,-48.7684715,19,220.59677
1,Antônio Dias/MG,-19.6525,-42.872778,400,4312.66846
D1,Antônio Dias/MG,-19.6525,-42.872778,14,150.94340
1,Antônio Gonçalves/BA,-10.5715409,-40.2748824,554,4664.08486
D1,Antônio Gonçalves/BA,-10.5715409,-40.2748824,5,42.09463
1,Antônio João/MS,-22.1892837,-55.9508227,245,2716.18625
D1,Antônio João/MS,-22.1892837,-55.9508227,5,55.43237
1,Antônio Martins/RN,-6.2155812,-37.8890129,251,3508.52670
D1,Antônio Martins/RN,-6.2155812,-37.8890129,3,41.93458
1,Antônio Olinto/PR,-25.9849006,-50.1974516,262,3527.66931
D1,Antônio Olinto/PR,-25.9849006,-50.1974516,6,80.78632
1,Antônio Prado de Minas/MG,-21.0171988,-42.1101106,148,9325.77190
D1,Antônio Prado de Minas/MG,-21.0171988,-42.1101106,5,315.05986
1,Antônio Prado/RS,-28.8567806,-51.2801355,1538,11789.95784
D1,Antônio Prado/RS,-28.8567806,-51.2801355,16,122.65236
1,Anápolis/GO,-16.3332828,-48.9525756,27322,6973.95424
D1,Anápolis/GO,-16.3332828,-48.9525756,697,177.90960
1,Anísio de Abreu/PI,-9.185643,-43.04941,248,2495.47193
D1,Anísio de Abreu/PI,-9.185643,-43.04941,4,40.24955
1,Aparecida d'Oeste/SP,-20.4498109,-50.8808706,524,12602.21260
D1,Aparecida d'Oeste/SP,-20.4498109,-50.8808706,11,264.55026
1,Aparecida de Goiânia/GO,-16.8226769,-49.2452546,55183,9350.73694
D1,Aparecida de Goiânia/GO,-16.8226769,-49.2452546,1016,172.16079
1,Aparecida do Rio Doce/GO,-18.2980167,-51.1491312,170,6871.46322
D1,Aparecida do Rio Doce/GO,-18.2980167,-51.1491312,4,161.68149
1,Aparecida do Rio Negro/TO,-9.9513491,-47.9773786,271,5589.93399
D1,Aparecida do Rio Negro/TO,-9.9513491,-47.9773786,5,103.13531
1,Aparecida do Taboado/MS,-20.0840304,-51.1013943,1982,7602.90000
D1,Aparecida do Taboado/MS,-20.0840304,-51.1013943,29,111.24324
1,Aparecida/PB,-6.7859598, -38.0831353,638,7580.79848
D1,Aparecida/PB,-6.7859598, -38.0831353,10,118.82129
1,Aparecida/SP,-22.851552,-45.2340924,1952,5394.50048
D1,Aparecida/SP,-22.851552,-45.2340924,58,160.28741
1,Aperibé/RJ,-21.6211928,-42.1028167,360,3024.95589
D1,Aperibé/RJ,-21.6211928,-42.1028167,15,126.03983
1,Apiacá/ES,-21.152272,-41.569297,578,7651.57532
D1,Apiacá/ES,-21.152272,-41.569297,20,264.76039
1,Apiacás/MT,-9.5678422,-57.394852,872,8480.01556
D1,Apiacás/MT,-9.5678422,-57.394852,7,68.07352
1,Apiaí/SP,-24.5076527,-48.8461582,890,3673.73896
D1,Apiaí/SP,-24.5076527,-48.8461582,35,144.47288
1,Apicum-Açu/MA,-1.5279295,-45.082278,335,1923.85000
D1,Apicum-Açu/MA,-1.5279295,-45.082278,3,17.22851
1,Apiúna/SC,-27.0374658,-49.3885037,673,6203.90855
D1,Apiúna/SC,-27.0374658,-49.3885037,13,119.83776
1,Apodi/RN,-5.6631109,-37.796927,4376,12198.24943
D1,Apodi/RN,-5.6631109,-37.796927,56,156.10191
1,Aporá/BA,-11.6599747,-38.0794757,427,2400.49472
D1,Aporá/BA,-11.6599747,-38.0794757,12,67.46121
1,Aporé/GO,-18.9642193,-51.92804,275,6498.10964
D1,Aporé/GO,-18.9642193,-51.92804,6,141.77694
1,Apuarema/BA,-13.8517897,-39.7457126,606,8299.09614
D1,Apuarema/BA,-13.8517897,-39.7457126,9,123.25390
1,Apucarana/PR,-23.5525327,-51.4610764,5162,3789.06881
D1,Apucarana/PR,-23.5525327,-51.4610764,173,126.98739
1,Apuiarés/CE,-3.9460303,-39.4313298,689,4696.01963
D1,Apuiarés/CE,-3.9460303,-39.4313298,13,88.60414
1,Apuí/AM,-7.1940195,-59.8830192,1111,4968.91632
D1,Apuí/AM,-7.1940195,-59.8830192,23,102.86685
1,Aquidabã/SE,-10.2837579,-37.0188687,1508,6955.39874
D1,Aquidabã/SE,-10.2837579,-37.0188687,25,115.30833
1,Aquidauana/MS,-20.473969,-55.7821375,3767,7843.17808
D1,Aquidauana/MS,-20.473969,-55.7821375,103,214.45377
1,Aquiraz/CE,-3.9063117,-38.387504,3947,4876.75295
D1,Aquiraz/CE,-3.9063117,-38.387504,62,76.60468
1,Arabutã/SC,-27.1587028,-52.1438142,346,8108.74150
D1,Arabutã/SC,-27.1587028,-52.1438142,4,93.74268
1,Aracaju/SE,-10.9162061,-37.0774655,90600,13625.94524
D1,Aracaju/SE,-10.9162061,-37.0774655,1434,215.66893
1,Aracati/CE,-4.558259,-37.767894,4198,5599.19973
D1,Aracati/CE,-4.558259,-37.767894,86,114.70490
1,Aracatu/BA,-14.4274236,-41.4604105,655,5021.08087
D1,Aracatu/BA,-14.4274236,-41.4604105,10,76.65772
1,Araci/BA,-11.3356065,-38.9573261,3100,5672.66872
D1,Araci/BA,-11.3356065,-38.9573261,38,69.53594
1,Aracitaba/MG,-21.3425,-43.378611,71,3448.27586
D1,Aracitaba/MG,-21.3425,-43.378611,7,339.97086
1,Aracoiaba/CE,-4.3702577,-38.8084313,1735,6538.53401
D1,Aracoiaba/CE,-4.3702577,-38.8084313,22,82.90936
1,Aracruz/ES,-19.8245218,-40.2735025,12045,11682.71889
D1,Aracruz/ES,-19.8245218,-40.2735025,166,161.00717
1,Aragarças/GO,-15.8957166,-52.2514538,1691,8341.14339
D1,Aragarças/GO,-15.8957166,-52.2514538,38,187.44142
1,Aragoiânia/GO,-16.9146388,-49.4499148,791,7536.20427
D1,Aragoiânia/GO,-16.9146388,-49.4499148,7,66.69207
1,Aragominas/TO,-7.1654101,-48.525488,437,7625.19630
D1,Aragominas/TO,-7.1654101,-48.525488,8,139.59169
1,Araguacema/TO,-8.8067391,-49.5560969,352,4919.63662
D1,Araguacema/TO,-8.8067391,-49.5560969,10,139.76240
1,Araguaiana/MT,-15.729144,-51.834112,107,3441.62110
D1,Araguaiana/MT,-15.729144,-51.834112,2,64.32937
1,Araguainha/MT,-16.857016,-53.031778,17,1797.04017
1,Araguanã/MA,-2.9508403,-45.6651986,692,4449.87461
D1,Araguanã/MA,-2.9508403,-45.6651986,5,32.15227
1,Araguanã/TO,-6.5799107,-48.6428482,274,4729.84637
D1,Araguanã/TO,-6.5799107,-48.6428482,12,207.14656
1,Araguapaz/GO,-15.0937927,-50.626417,379,4869.58756
D1,Araguapaz/GO,-15.0937927,-50.626417,16,205.57626
1,Araguari/MG,-18.6511256,-48.1933764,10628,9020.15701
D1,Araguari/MG,-18.6511256,-48.1933764,299,253.76618
1,Araguatins/TO,-5.6522925,-48.1158973,1570,4340.61377
D1,Araguatins/TO,-5.6522925,-48.1158973,44,121.64777
1,Araguaçu/TO,-12.928934,-49.823134,718,8479.98110
D1,Araguaçu/TO,-12.928934,-49.823134,16,188.96894
1,Araguaína/TO,-7.193241,-48.2018597,24772,13508.48779
D1,Araguaína/TO,-7.193241,-48.2018597,323,176.13602
1,Araioses/MA,-2.890914,-41.904993,605,1293.53659
D1,Araioses/MA,-2.890914,-41.904993,12,25.65692
1,Aral Moreira/MS,-22.951141,-55.6268421,330,2675.96497
D1,Aral Moreira/MS,-22.951141,-55.6268421,8,64.87188
1,Aramari/BA,-12.0907897,-38.4985065,492,4292.81913
D1,Aramari/BA,-12.0907897,-38.4985065,10,87.25242
1,Arambaré/RS,-30.9132252,-51.4994625,131,3677.70915
D1,Arambaré/RS,-30.9132252,-51.4994625,4,112.29646
1,Arame/MA,-4.8858769,-46.0102484,983,3000.24417
D1,Arame/MA,-4.8858769,-46.0102484,28,85.45965
1,Aramina/SP,-20.0876144,-47.789201,218,3854.99558
D1,Aramina/SP,-20.0876144,-47.789201,8,141.46773
1,Arandu/SP,-23.1345103,-49.0545651,228,3582.08955
D1,Arandu/SP,-23.1345103,-49.0545651,7,109.97643
1,Arantina/MG,-21.911667,-44.255833,70,2511.66128
D1,Arantina/MG,-21.911667,-44.255833,2,71.76175
1,Arapeí/SP,-22.6738889,-44.4477778,174,7073.17073
D1,Arapeí/SP,-22.6738889,-44.4477778,2,81.30081
1,Arapiraca/AL,-9.754866,-36.661471,19713,8458.80874
D1,Arapiraca/AL,-9.754866,-36.661471,307,131.73308
1,Arapoema/TO,-7.6575001,-49.0641484,398,6015.71947
D1,Arapoema/TO,-7.6575001,-49.0641484,5,75.57437
1,Araponga/MG,-20.666667,-42.520556,305,3608.18644
D1,Araponga/MG,-20.666667,-42.520556,3,35.49036
1,Arapongas/PR,-23.415296,-51.42592,8716,6983.41479
D1,Arapongas/PR,-23.415296,-51.42592,302,241.96779
1,Araporã/MG,-18.4318188,-49.188313,1460,21064.78142
D1,Araporã/MG,-18.4318188,-49.188313,18,259.70278
1,Arapoti/PR,-24.1457957,-49.8224605,1992,7038.86926
D1,Arapoti/PR,-24.1457957,-49.8224605,30,106.00707
1,Araputanga/MT,-15.4710868,-58.346796,1353,7981.82998
D1,Araputanga/MT,-15.4710868,-58.346796,32,188.77942
1,Arapuá/MG,-19.034444,-46.155556,99,3492.06349
D1,Arapuá/MG,-19.034444,-46.155556,1,35.27337
1,Arapuã/PR,-24.3079525,-51.7901941,162,5383.84845
D1,Arapuã/PR,-24.3079525,-51.7901941,5,166.16816
1,Araquari/SC,-26.3703324,-48.7210994,2689,6803.46119
D1,Araquari/SC,-26.3703324,-48.7210994,49,123.97531
1,Arara/PB,-6.8271895,-35.7605703,472,3485.45267
D1,Arara/PB,-6.8271895,-35.7605703,14,103.38207
1,Araranguá/SC,-28.9348832,-49.4858389,7921,11501.88044
D1,Araranguá/SC,-28.9348832,-49.4858389,157,227.97566
1,Araraquara/SP,-21.7886713,-48.1773096,14541,6100.97382
D1,Araraquara/SP,-21.7886713,-48.1773096,319,133.84297
1,Araras/SP,-22.3569477,-47.3838889,11418,8426.19515
D1,Araras/SP,-22.3569477,-47.3838889,245,180.80380
1,Ararendá/CE,-4.7504395,-40.8303611,587,5356.32813
D1,Ararendá/CE,-4.7504395,-40.8303611,11,100.37412
1,Arari/MA,-3.4547602,-44.7772723,391,1306.29427
D1,Arari/MA,-3.4547602,-44.7772723,16,53.45450
1,Araricá/RS,-29.6168543,-50.929121,892,15456.59331
D1,Araricá/RS,-29.6168543,-50.929121,24,415.87247
1,Araripe/CE,-7.212861,-40.1359222,644,2974.04637
D1,Araripe/CE,-7.212861,-40.1359222,9,41.56276
1,Araripina/PE,-7.5768582,-40.5038509,5142,6059.10633
D1,Araripina/PE,-7.5768582,-40.5038509,101,119.01395
1,Araruama/RJ,-22.8733203,-42.3428897,4200,3127.48989
D1,Araruama/RJ,-22.8733203,-42.3428897,181,134.77992
1,Araruna/PB,-6.5321155,-35.7397595,584,2853.93149
D1,Araruna/PB,-6.5321155,-35.7397595,15,73.30303
1,Araruna/PR,-23.9320308,-52.4976047,865,6178.57143
D1,Araruna/PR,-23.9320308,-52.4976047,17,121.42857
1,Arataca/BA,-15.2617424,-39.4122943,435,3968.61600
D1,Arataca/BA,-15.2617424,-39.4122943,12,109.47906
1,Aratiba/RS,-27.3955734,-52.3024325,313,5057.35983
D1,Aratiba/RS,-27.3955734,-52.3024325,5,80.78850
1,Aratuba/CE,-4.4195958,-39.0463737,734,6219.28487
D1,Aratuba/CE,-4.4195958,-39.0463737,4,33.89256
1,Aratuípe/BA,-13.077137,-39.0010786,276,3123.23187
D1,Aratuípe/BA,-13.077137,-39.0010786,7,79.21240
1,Araucária/PR,-25.5861107,-49.4051209,18003,12312.77443
D1,Araucária/PR,-25.5861107,-49.4051209,238,162.77511
1,Arauá/SE,-11.2644014,-37.6181058,688,6916.65829
D1,Arauá/SE,-11.2644014,-37.6181058,13,130.69267
1,Araxá/MG,-19.5928536,-46.940241,7953,7409.37421
D1,Araxá/MG,-19.5928536,-46.940241,116,108.07084
1,Araçagi/PB,-6.8519969,-35.3835602,857,5064.71249
D1,Araçagi/PB,-6.8519969,-35.3835602,12,70.91779
1,Araçariguama/SP,-23.438611,-47.061389,1004,4391.95101
D1,Araçariguama/SP,-23.438611,-47.061389,30,131.23360
1,Araçatuba/SP,-21.207992,-50.4390225,19769,9977.84272
D1,Araçatuba/SP,-21.207992,-50.4390225,515,259.93166
1,Araçaí/MG,-19.200833,-44.2475,49,2081.56330
1,Araçoiaba da Serra/SP,-23.5045367,-47.6168158,1749,5029.33057
D1,Araçoiaba da Serra/SP,-23.5045367,-47.6168158,36,103.51967
1,Araçoiaba/PE,-7.7856903,-35.0898881,327,1577.19577
D1,Araçoiaba/PE,-7.7856903,-35.0898881,22,106.11103
1,Araçu/GO,-16.3561579,-49.6815269,354,10154.90534
D1,Araçu/GO,-16.3561579,-49.6815269,10,286.86173
1,Araçuaí/MG,-16.8484451,-42.0661868,979,2666.70299
D1,Araçuaí/MG,-16.8484451,-42.0661868,18,49.03029
1,Araçás/BA,-12.2139176,-38.2026159,514,4210.35387
D1,Araçás/BA,-12.2139176,-38.2026159,7,57.33945
1,Araújos/MG,-19.948055,-45.165556,522,5552.60079
D1,Araújos/MG,-19.948055,-45.165556,4,42.54867
1,Arceburgo/MG,-21.364444,-46.939722,501,4603.51006
D1,Arceburgo/MG,-21.364444,-46.939722,12,110.26371
1,Arco-Íris/SP,-21.7741308,-50.4668814,69,3891.70897
D1,Arco-Íris/SP,-21.7741308,-50.4668814,5,282.00790
1,Arcos/MG,-20.282223,-45.539444,3843,9517.08767
D1,Arcos/MG,-20.282223,-45.539444,50,123.82368
1,Arcoverde/PE,-8.415192,-37.057748,4506,6022.29291
D1,Arcoverde/PE,-8.415192,-37.057748,90,120.28548
1,Areado/MG,-21.3582771,-46.1476688,457,3010.34187
D1,Areado/MG,-21.3582771,-46.1476688,13,85.63336
1,Areal/RJ,-22.2314922,-43.1056264,615,4854.36893
D1,Areal/RJ,-22.2314922,-43.1056264,33,260.47833
1,Arealva/SP,-22.0301906,-48.9111936,509,5909.67143
D1,Arealva/SP,-22.0301906,-48.9111936,8,92.88285
1,Areia Branca/RN,-4.9506652,-37.1263312,1756,6278.82862
D1,Areia Branca/RN,-4.9506652,-37.1263312,71,253.87063
1,Areia Branca/SE,-10.7591455,-37.3148072,1252,6700.20336
D1,Areia Branca/SE,-10.7591455,-37.3148072,26,139.14160
1,Areia de Baraúnas/PB,-7.1233949,-36.9446216,58,2741.02079
D1,Areia de Baraúnas/PB,-7.1233949,-36.9446216,2,94.51796
1,Areia/PB,-6.9680243,-35.6994783,991,4374.11723
D1,Areia/PB,-6.9680243,-35.6994783,19,83.86299
1,Areial/PB,-7.0501306,-35.9245244,207,2945.78056
D1,Areial/PB,-7.0501306,-35.9245244,6,85.38494
1,Areias/SP,-22.5800929,-44.6975127,209,5364.47639
D1,Areias/SP,-22.5800929,-44.6975127,1,25.66735
1,Areiópolis/SP,-22.6758064,-48.6673653,629,5637.21097
D1,Areiópolis/SP,-22.6758064,-48.6673653,8,71.69744
1,Arenápolis/MT,-14.4610369,-56.8432806,1129,11881.70911
D1,Arenápolis/MT,-14.4610369,-56.8432806,19,199.95790
1,Arenópolis/GO,-16.3859286,-51.55937,154,6072.55521
D1,Arenópolis/GO,-16.3859286,-51.55937,4,157.72871
1,Argirita/MG,-21.612761,-42.8371922,236,8727.81065
D1,Argirita/MG,-21.612761,-42.8371922,5,184.91124
1,Aricanduva/MG,-17.8678,-42.5569,71,1347.50427
1,Arinos/MG,-15.917223,-46.106111,316,1769.11880
D1,Arinos/MG,-15.917223,-46.106111,10,55.98477
1,Aripuanã/MT,-10.175806,-59.4439663,1836,8083.12054
D1,Aripuanã/MT,-10.175806,-59.4439663,36,158.49256
1,Ariquemes/RO,-9.9076522,-63.033069,16751,15294.50435
D1,Ariquemes/RO,-9.9076522,-63.033069,343,313.17623
1,Ariranha do Ivaí/PR,-24.3834527,-51.5876772,121,5856.72798
D1,Ariranha do Ivaí/PR,-24.3834527,-51.5876772,2,96.80542
1,Ariranha/SP,-21.18716,-48.790418,343,3513.98422
D1,Ariranha/SP,-21.18716,-48.790418,13,133.18308
1,Armazém/SC,-28.2624996,-49.0190126,1239,14145.45039
D1,Armazém/SC,-28.2624996,-49.0190126,21,239.75340
1,Armação dos Búzios/RJ,-22.7597805,-41.8875267,3207,9301.85341
D1,Armação dos Búzios/RJ,-22.7597805,-41.8875267,31,89.91502
1,Arneiroz/CE,-6.3235099,-40.1603859,214,2728.19990
D1,Arneiroz/CE,-6.3235099,-40.1603859,8,101.98878
1,Aroazes/PI,-6.1108814,-41.7886137,473,8117.38459
D1,Aroazes/PI,-6.1108814,-41.7886137,12,205.93788
1,Aroeiras do Itaim/PI,-7.2797031,-41.5629681,97,3802.43042
D1,Aroeiras do Itaim/PI,-7.2797031,-41.5629681,1,39.20031
1,Aroeiras/PB,-7.5462904,-35.7080002,793,4148.35740
D1,Aroeiras/PB,-7.5462904,-35.7080002,5,26.15610
1,Arraial do Cabo/RJ,-22.9662839,-42.024427,542,1771.64711
D1,Arraial do Cabo/RJ,-22.9662839,-42.024427,13,42.49338
1,Arraial/PI,-6.6541632,-42.5335332,126,2669.49153
D1,Arraial/PI,-6.6541632,-42.5335332,2,42.37288
1,Arraias/TO,-12.9287788,-46.9437231,388,3683.31118
D1,Arraias/TO,-12.9287788,-46.9437231,3,28.47921
1,Arroio Grande/RS,-32.2384246,-53.0866661,848,4649.63264
D1,Arroio Grande/RS,-32.2384246,-53.0866661,34,186.42395
1,Arroio Trinta/SC,-26.9301976,-51.334928,377,10622.71062
D1,Arroio Trinta/SC,-26.9301976,-51.334928,7,197.23866
1,Arroio do Meio/RS,-29.4020392,-51.9444993,2391,11403.63428
D1,Arroio do Meio/RS,-29.4020392,-51.9444993,23,109.69619
1,Arroio do Padre/RS,-31.4428773,-52.4228985,116,3930.87089
D1,Arroio do Padre/RS,-31.4428773,-52.4228985,1,33.88682
1,Arroio do Sal/RS,-29.549852,-49.8874395,847,8240.10118
D1,Arroio do Sal/RS,-29.549852,-49.8874395,24,233.48575
1,Arroio do Tigre/RS,-29.334158,-53.0888935,891,6642.80921
D1,Arroio do Tigre/RS,-29.334158,-53.0888935,16,119.28726
1,Arroio dos Ratos/RS,-30.0894524,-51.7265541,735,5184.45369
D1,Arroio dos Ratos/RS,-30.0894524,-51.7265541,26,183.39564
1,Artur Nogueira/SP,-22.572737,-47.172679,2802,5063.24539
D1,Artur Nogueira/SP,-22.572737,-47.172679,71,128.29780
1,Aruanã/GO,-14.9162439,-51.0715692,349,3452.02770
D1,Aruanã/GO,-14.9162439,-51.0715692,9,89.02077
1,Arujá/SP,-23.396266,-46.3175449,5082,5574.99698
D1,Arujá/SP,-23.396266,-46.3175449,189,207.33460
1,Arvoredo/SC,-27.0752908,-52.4571847,255,11414.50313
D1,Arvoredo/SC,-27.0752908,-52.4571847,3,134.28827
1,Arvorezinha/RS,-28.87369,-52.17808,640,6140.26672
D1,Arvorezinha/RS,-28.87369,-52.17808,20,191.88333
1,Arês/RN,-6.1969216,-35.1642968,636,4411.45869
D1,Arês/RN,-6.1969216,-35.1642968,18,124.85260
1,Ascurra/SC,-26.9569975,-49.3767752,957,11995.48759
D1,Ascurra/SC,-26.9569975,-49.3767752,7,87.74129
1,Aspásia/SP,-20.160028,-50.728046,75,4125.41254
D1,Aspásia/SP,-20.160028,-50.728046,3,165.01650
1,Assaré/CE,-6.8746791,-39.8741385,1092,4651.16279
D1,Assaré/CE,-6.8746791,-39.8741385,24,102.22336
1,Assaí/PR,-23.3736041,-50.8454929,1015,6787.48161
D1,Assaí/PR,-23.3736041,-50.8454929,28,187.24087
1,Assis Brasil/AC,-10.9409203,-69.5672108,1353,17958.58774
D1,Assis Brasil/AC,-10.9409203,-69.5672108,19,252.19007
1,Assis Chateaubriand/PR,-24.4054826,-53.5120468,2836,8506.29874
D1,Assis Chateaubriand/PR,-24.4054826,-53.5120468,46,137.97241
1,Assis/SP,-22.6620892,-50.420623,5941,5653.41098
D1,Assis/SP,-22.6620892,-50.420623,174,165.57709
1,Assunção do Piauí/PI,-5.8610212,-41.0485091,258,3281.19039
D1,Assunção do Piauí/PI,-5.8610212,-41.0485091,6,76.30675
1,Assunção/PB,-7.073396,-36.7274003,249,6180.19360
D1,Assunção/PB,-7.073396,-36.7274003,1,24.82005
1,Astolfo Dutra/MG,-21.3132636,-42.8624102,952,6671.33847
D1,Astolfo Dutra/MG,-21.3132636,-42.8624102,13,91.10021
1,Astorga/PR,-23.2350184,-51.6647074,2158,8233.81281
D1,Astorga/PR,-23.2350184,-51.6647074,43,164.06578
1,Atalaia do Norte/AM,-4.3658547,-70.1908742,2599,12741.44524
D1,Atalaia do Norte/AM,-4.3658547,-70.1908742,8,39.21953
1,Atalaia/AL,-9.5029595,-36.0219316,915,1931.80619
D1,Atalaia/AL,-9.5029595,-36.0219316,36,76.00549
1,Atalaia/PR,-23.1513833,-52.0529697,302,7781.49961
D1,Atalaia/PR,-23.1513833,-52.0529697,14,360.73177
1,Atalanta/SC,-27.421916,-49.778863,197,6165.88419
D1,Atalanta/SC,-27.421916,-49.778863,3,93.89671
1,Ataléia/MG,-18.04432,-41.1110524,945,7453.85708
D1,Ataléia/MG,-18.04432,-41.1110524,6,47.32608
1,Atibaia/SP,-23.1177393,-46.5547861,7748,5377.26945
D1,Atibaia/SP,-23.1177393,-46.5547861,189,131.16984
1,Atilio Vivacqua/ES,-20.9139369,-41.1947519,1172,9681.94961
D1,Atilio Vivacqua/ES,-20.9139369,-41.1947519,18,148.69888
1,Augustinópolis/TO,-5.4662267,-47.8897519,1253,6721.02129
D1,Augustinópolis/TO,-5.4662267,-47.8897519,18,96.55098
1,Augusto Corrêa/PA,-1.0229335,-46.6404029,1737,3737.81498
D1,Augusto Corrêa/PA,-1.0229335,-46.6404029,29,62.40451
1,Augusto Pestana/RS,-28.5148413,-53.9906433,280,4241.13905
D1,Augusto Pestana/RS,-28.5148413,-53.9906433,4,60.58770
1,Augusto de Lima/MG,-18.1092963,-44.2651945,171,3525.04638
D1,Augusto de Lima/MG,-18.1092963,-44.2651945,6,123.68584
1,Aurelino Leal/BA,-14.3167137,-39.3256107,788,6974.06850
D1,Aurelino Leal/BA,-14.3167137,-39.3256107,22,194.70750
1,Auriflama/SP,-20.6840418,-50.5554616,1433,9394.87314
D1,Auriflama/SP,-20.6840418,-50.5554616,42,275.35567
1,Aurilândia/GO,-16.6772599,-50.4641231,166,5428.38457
D1,Aurilândia/GO,-16.6772599,-50.4641231,4,130.80445
1,Aurora do Pará/PA,-2.1323199,-47.558436,985,3100.11645
D1,Aurora do Pará/PA,-2.1323199,-47.558436,11,34.62059
1,Aurora do Tocantins/TO,-12.71045,-46.407604,149,3938.67301
D1,Aurora do Tocantins/TO,-12.71045,-46.407604,2,52.86809
1,Aurora/CE,-6.9426019,-38.9693765,1103,4481.91792
D1,Aurora/CE,-6.9426019,-38.9693765,25,101.58472
1,Aurora/SC,-27.3166417,-49.6368502,596,10487.41862
D1,Aurora/SC,-27.3166417,-49.6368502,12,211.15608
1,Autazes/AM,-3.5833283,-59.1301518,2647,6569.86845
D1,Autazes/AM,-3.5833283,-59.1301518,86,213.45247
1,Avanhandava/SP,-21.4603331,-49.9465156,503,3629.41049
D1,Avanhandava/SP,-21.4603331,-49.9465156,21,151.52608
1,Avaré/SP,-23.1045215,-48.9259103,4691,5141.83620
D1,Avaré/SP,-23.1045215,-48.9259103,94,103.03402
1,Avaí/SP,-22.1564662,-49.3316395,226,4157.46873
D1,Avaí/SP,-22.1564662,-49.3316395,4,73.58352
1,Aveiro/PA,-3.6049239,-55.3310742,564,3438.18581
D1,Aveiro/PA,-3.6049239,-55.3310742,7,42.67252
1,Avelino Lopes/PI,-10.1346855,-43.9489525,260,2295.60304
D1,Avelino Lopes/PI,-10.1346855,-43.9489525,17,150.09712
1,Avelinópolis/GO,-16.4672409,-49.7578661,237,9838.10710
D1,Avelinópolis/GO,-16.4672409,-49.7578661,10,415.11000
1,Axixá do Tocantins/TO,-5.612747,-47.77007,874,8930.21355
D1,Axixá do Tocantins/TO,-5.612747,-47.77007,14,143.04690
1,Axixá/MA,-2.8379465,-44.0561053,189,1551.34203
D1,Axixá/MA,-2.8379465,-44.0561053,4,32.83264
1,Açailândia/MA,-4.9514278,-47.4844564,4388,3879.03219
D1,Açailândia/MA,-4.9514278,-47.4844564,153,135.25340
1,Açu/RN,-5.5836157,-36.9139541,4049,6935.11921
D1,Açu/RN,-5.5836157,-36.9139541,113,193.54618
1,Açucena/MG,-19.073056,-42.546666,531,5668.23228
D1,Açucena/MG,-19.073056,-42.546666,16,170.79419
1,Babaçulândia/TO,-7.2034355,-47.761613,541,5072.19201
D1,Babaçulândia/TO,-7.2034355,-47.761613,4,37.50234
1,Bacabal/MA,-4.2318132,-44.781167,4141,3951.71295
D1,Bacabal/MA,-4.2318132,-44.781167,126,120.24048
1,Bacabeira/MA,-2.9775747,-44.3155943,280,1623.00023
D1,Bacabeira/MA,-2.9775747,-44.3155943,5,28.98215
1,Bacuri/MA,-1.728894,-45.1417148,429,2299.77485
D1,Bacuri/MA,-1.728894,-45.1417148,4,21.44312
1,Bacurituba/MA,-2.7082587,-44.7381309,111,1957.67196
D1,Bacurituba/MA,-2.7082587,-44.7381309,1,17.63668
1,Bady Bassitt/SP,-20.9178969,-49.4517911,2085,11739.20387
D1,Bady Bassitt/SP,-20.9178969,-49.4517911,37,208.32160
1,Baependi/MG,-21.959162,-44.8899249,962,5010.67764
D1,Baependi/MG,-21.959162,-44.8899249,10,52.08605
1,Bagre/PA,-1.8994498,-50.2103844,784,2502.79330
D1,Bagre/PA,-1.8994498,-50.2103844,11,35.11572
1,Bagé/RS,-31.3314264,-54.1062808,5807,4785.92327
D1,Bagé/RS,-31.3314264,-54.1062808,147,121.15218
1,Baianópolis/BA,-12.3067564,-44.5383591,300,2153.77988
D1,Baianópolis/BA,-12.3067564,-44.5383591,2,14.35853
1,Baixa Grande do Ribeiro/PI,-7.862861,-45.2113289,1837,15739.86805
D1,Baixa Grande do Ribeiro/PI,-7.862861,-45.2113289,19,162.79668
1,Baixa Grande/BA,-11.9630941,-40.1657537,548,2679.83764
D1,Baixa Grande/BA,-11.9630941,-40.1657537,6,29.34129
1,Baixio/CE,-6.7303544,-38.7170095,279,4426.46359
D1,Baixio/CE,-6.7303544,-38.7170095,8,126.92369
1,Baixo Guandu/ES,-19.5138322,-41.0182089,2941,9446.87139
D1,Baixo Guandu/ES,-19.5138322,-41.0182089,63,202.36413
1,Baião/PA,-2.7903479,-49.6702845,609,1256.73250
D1,Baião/PA,-2.7903479,-49.6702845,21,43.33560
1,Balbinos/SP,-21.9006253,-49.3583966,291,4903.94338
D1,Balbinos/SP,-21.9006253,-49.3583966,3,50.55612
1,Baldim/MG,-19.2913568,-43.9558262,364,4664.87248
D1,Baldim/MG,-19.2913568,-43.9558262,7,89.70909
1,Baliza/GO,-16.1978119,-52.542789,156,2954.54545
D1,Baliza/GO,-16.1978119,-52.542789,5,94.69697
1,Balneário Arroio do Silva/SC,-28.9815269,-49.4189932,1567,11667.90767
D1,Balneário Arroio do Silva/SC,-28.9815269,-49.4189932,34,253.16456
1,Balneário Barra do Sul/SC,-26.459842,-48.6061471,1191,10792.93158
D1,Balneário Barra do Sul/SC,-26.459842,-48.6061471,24,217.48981
1,Balneário Camboriú/SC,-26.9924395,-48.6339782,21254,14577.90337
D1,Balneário Camboriú/SC,-26.9924395,-48.6339782,290,198.90806
1,Balneário Gaivota/SC,-29.1553098,-49.5808712,1041,9245.11545
D1,Balneário Gaivota/SC,-29.1553098,-49.5808712,19,168.73890
1,Balneário Pinhal/RS,-30.2482978,-50.234585,645,4490.70528
D1,Balneário Pinhal/RS,-30.2482978,-50.234585,31,215.83235
1,Balneário Piçarras/SC,-26.7638889,-48.6716667,3680,15480.39711
D1,Balneário Piçarras/SC,-26.7638889,-48.6716667,38,159.85193
1,Balneário Rincão/SC,-28.8235718,-49.2241642,1163,8983.46980
D1,Balneário Rincão/SC,-28.8235718,-49.2241642,30,231.73181
1,Balsa Nova/PR,-25.5842234,-49.6312741,1055,8058.35625
D1,Balsa Nova/PR,-25.5842234,-49.6312741,20,152.76505
1,Balsas/MA,-7.53214,-46.037163,7902,8237.34220
D1,Balsas/MA,-7.53214,-46.037163,103,107.37108
1,Bambuí/MG,-20.0131996,-45.9777034,903,3778.55888
D1,Bambuí/MG,-20.0131996,-45.9777034,9,37.66006
1,Banabuiú/CE,-5.3046404,-38.919766,883,4836.76599
D1,Banabuiú/CE,-5.3046404,-38.919766,7,38.34356
1,Bananal/SP,-22.6828195,-44.3221095,615,5594.46921
D1,Bananal/SP,-22.6828195,-44.3221095,2,18.19340
1,Bananeiras/PB,-6.7537682,-35.6338343,859,4038.74183
D1,Bananeiras/PB,-6.7537682,-35.6338343,11,51.71846
1,Bandeira do Sul/MG,-21.728056,-46.385555,143,2474.90481
D1,Bandeira do Sul/MG,-21.728056,-46.385555,5,86.53513
1,Bandeira/MG,-15.884444,-40.559167,433,9085.18674
D1,Bandeira/MG,-15.884444,-40.559167,9,188.83760
1,Bandeirante/SC,-26.7677402,-53.6397596,185,6986.40483
D1,Bandeirante/SC,-26.7677402,-53.6397596,2,75.52870
1,Bandeirantes do Tocantins/TO,-7.7635698,-48.579148,260,7238.30735
D1,Bandeirantes do Tocantins/TO,-7.7635698,-48.579148,4,111.35857
1,Bandeirantes/MS,-19.9179623,-54.3646768,418,5752.82136
D1,Bandeirantes/MS,-19.9179623,-54.3646768,7,96.33911
1,Bandeirantes/PR,-23.107788,-50.370407,2331,7468.52071
D1,Bandeirantes/PR,-23.107788,-50.370407,63,201.85191
1,Bannach/PA,-7.3508505,-50.4064531,527,16155.73268
D1,Bannach/PA,-7.3508505,-50.4064531,2,61.31208
1,Banzaê/BA,-10.5827616,-38.6122305,802,6057.40181
D1,Banzaê/BA,-10.5827616,-38.6122305,6,45.31722
1,Baraúna/PB,-6.643394,-36.2531932,203,4089.44400
D1,Baraúna/PB,-6.643394,-36.2531932,3,60.43513
1,Baraúna/RN,-5.0775002,-37.61752,749,2605.48927
D1,Baraúna/RN,-5.0775002,-37.61752,17,59.13661
1,Barbacena/MG,-21.2254524,-43.7735087,4541,3285.72256
D1,Barbacena/MG,-21.2254524,-43.7735087,129,93.34028
1,Barbalha/CE,-7.3121067,-39.3036427,3339,5453.38734
D1,Barbalha/CE,-7.3121067,-39.3036427,63,102.89410
1,Barbosa Ferraz/PR,-24.0287182,-52.00811,597,5224.92561
D1,Barbosa Ferraz/PR,-24.0287182,-52.00811,14,122.52757
1,Barbosa/SP,-21.265661,-49.951816,321,4298.33958
D1,Barbosa/SP,-21.265661,-49.951816,8,107.12373
1,Barcarena/PA,-1.5107945,-48.6190679,8220,6471.06521
D1,Barcarena/PA,-1.5107945,-48.6190679,158,124.38301
1,Barcelona/RN,-5.9514918,-35.9260284,51,1276.91537
D1,Barcelona/RN,-5.9514918,-35.9260284,3,75.11267
1,Barcelos/AM,-0.9729214,-62.925635,4034,14595.84630
D1,Barcelos/AM,-0.9729214,-62.925635,56,202.61958
1,Bariri/SP,-22.0746355,-48.7394852,2117,5953.65319
D1,Bariri/SP,-22.0746355,-48.7394852,79,222.17223
1,Barra Bonita/SC,-26.6526364,-53.4419581,106,6420.35130
D1,Barra Bonita/SC,-26.6526364,-53.4419581,1,60.56935
1,Barra Bonita/SP,-22.490859,-48.558349,2422,6704.31268
D1,Barra Bonita/SP,-22.490859,-48.558349,60,166.08537
1,Barra D'Alcântara/PI,-6.5209258,-42.1071089,101,2555.66802
D1,Barra D'Alcântara/PI,-6.5209258,-42.1071089,3,75.91093
1,Barra Funda/RS,-27.9230048,-53.0401045,365,14308.11446
D1,Barra Funda/RS,-27.9230048,-53.0401045,7,274.40220
1,Barra Longa/MG,-20.2833541,-43.0423516,204,4067.79661
D1,Barra Longa/MG,-20.2833541,-43.0423516,5,99.70090
1,Barra Mansa/RJ,-22.5394843,-44.1735129,11772,6368.99255
D1,Barra Mansa/RJ,-22.5394843,-44.1735129,333,180.16263
1,Barra Velha/SC,-26.6338203,-48.6835001,3192,10689.88614
D1,Barra Velha/SC,-26.6338203,-48.6835001,67,224.38044
1,Barra da Estiva/BA,-13.6269662,-41.3278287,1268,6218.12475
D1,Barra da Estiva/BA,-13.6269662,-41.3278287,9,44.13495
1,Barra de Guabiraba/PE,-8.4173522,-35.6626669,331,2281.18539
D1,Barra de Guabiraba/PE,-8.4173522,-35.6626669,12,82.70159
1,Barra de Santa Rosa/PB,-6.7218007,-36.0564638,657,4239.53023
D1,Barra de Santa Rosa/PB,-6.7218007,-36.0564638,3,19.35859
1,Barra de Santana/PB,-7.5230865,-35.9988518,293,3509.40232
D1,Barra de Santana/PB,-7.5230865,-35.9988518,4,47.90993
1,Barra de Santo Antônio/AL,-9.4038098,-35.5117693,218,1356.73388
D1,Barra de Santo Antônio/AL,-9.4038098,-35.5117693,15,93.35325
1,Barra de São Francisco/ES,-18.7570902,-40.8916119,3814,8479.51266
D1,Barra de São Francisco/ES,-18.7570902,-40.8916119,136,302.36333
1,Barra de São Miguel/AL,-9.8261357,-35.8837777,281,3354.02244
D1,Barra de São Miguel/AL,-9.8261357,-35.8837777,6,71.61614
1,Barra de São Miguel/PB,-7.7528088,-36.3170996,282,4649.62902
D1,Barra de São Miguel/PB,-7.7528088,-36.3170996,2,32.97609
1,Barra do Bugres/MT,-15.0683712,-57.1853688,2039,5775.05877
D1,Barra do Bugres/MT,-15.0683712,-57.1853688,46,130.28578
1,Barra do Chapéu/SP,-24.472203,-49.023784,205,3559.02778
D1,Barra do Chapéu/SP,-24.472203,-49.023784,1,17.36111
1,Barra do Choça/BA,-14.8638173,-40.5761637,1654,5299.75328
D1,Barra do Choça/BA,-14.8638173,-40.5761637,24,76.90089
1,Barra do Corda/MA,-5.496823,-45.248496,4777,5398.22809
D1,Barra do Corda/MA,-5.496823,-45.248496,48,54.24219
1,Barra do Garças/MT,-15.8916033,-52.2615413,5737,9384.14983
D1,Barra do Garças/MT,-15.8916033,-52.2615413,198,323.87339
1,Barra do Guarita/RS,-27.1888016,-53.7147086,105,3223.82561
D1,Barra do Guarita/RS,-27.1888016,-53.7147086,3,92.10930
1,Barra do Jacaré/PR,-23.1151788,-50.1813945,140,5034.16037
D1,Barra do Jacaré/PR,-23.1151788,-50.1813945,1,35.95829
1,Barra do Mendes/BA,-11.8053298,-42.057037,588,4250.70484
D1,Barra do Mendes/BA,-11.8053298,-42.057037,9,65.06181
1,Barra do Ouro/TO,-7.7113784,-47.6743925,113,2439.55095
D1,Barra do Ouro/TO,-7.7113784,-47.6743925,5,107.94473
1,Barra do Piraí/RJ,-22.4703403,-43.8263256,4173,4141.36001
D1,Barra do Piraí/RJ,-22.4703403,-43.8263256,193,191.53666
1,Barra do Quaraí/RS,-30.208947,-57.5505128,196,4636.85829
D1,Barra do Quaraí/RS,-30.208947,-57.5505128,2,47.31488
1,Barra do Ribeiro/RS,-30.2930206,-51.301437,883,6513.72086
D1,Barra do Ribeiro/RS,-30.2930206,-51.301437,42,309.82591
1,Barra do Rio Azul/RS,-27.4101581,-52.4117471,60,3625.37764
D1,Barra do Rio Azul/RS,-27.4101581,-52.4117471,1,60.42296
1,Barra do Rocha/BA,-14.2090974,-39.6004395,318,5666.42908
D1,Barra do Rocha/BA,-14.2090974,-39.6004395,4,71.27584
1,Barra do Turvo/SP,-24.756421,-48.5056942,357,4677.67296
D1,Barra do Turvo/SP,-24.756421,-48.5056942,10,131.02725
1,Barra dos Coqueiros/SE,-10.9075694,-37.0386249,4729,15289.36308
D1,Barra dos Coqueiros/SE,-10.9075694,-37.0386249,53,171.35467
1,Barra/BA,-11.0892702,-43.1420453,1371,2543.12743
D1,Barra/BA,-11.0892702,-43.1420453,26,48.22853
1,Barracão/PR,-26.252395,-53.6349576,857,8310.70597
D1,Barracão/PR,-26.252395,-53.6349576,22,213.34368
1,Barracão/RS,-27.6728964,-51.4582928,257,4889.64992
D1,Barracão/RS,-27.6728964,-51.4582928,7,133.18113
1,Barras/PI,-4.2446153,-42.2920241,3872,8205.99767
D1,Barras/PI,-4.2446153,-42.2920241,75,158.94882
1,Barreira/CE,-4.2883361,-38.641094,818,3623.79834
D1,Barreira/CE,-4.2883361,-38.641094,28,124.04200
1,Barreiras do Piauí/PI,-9.9224524,-45.4763776,52,1551.31265
D1,Barreiras do Piauí/PI,-9.9224524,-45.4763776,1,29.83294
1,Barreiras/BA,-12.1440031,-44.9967406,10680,6803.63115
D1,Barreiras/BA,-12.1440031,-44.9967406,137,87.27504
1,Barreirinha/AM,-2.798863,-57.067897,2241,6898.99332
D1,Barreirinha/AM,-2.798863,-57.067897,60,184.71200
1,Barreirinhas/MA,-2.7541271,-42.8259693,1585,2507.23698
D1,Barreirinhas/MA,-2.7541271,-42.8259693,31,49.03744
1,Barreiros/PE,-8.8159644,-35.1831905,568,1328.22000
D1,Barreiros/PE,-8.8159644,-35.1831905,45,105.22870
1,Barretos/SP,-20.5531437,-48.5697509,9549,7773.96954
D1,Barretos/SP,-20.5531437,-48.5697509,254,206.78482
1,Barrinha/SP,-21.1898849,-48.1550642,1132,3411.69379
D1,Barrinha/SP,-21.1898849,-48.1550642,42,126.58228
1,Barro Alto/BA,-11.7618025,-41.9094904,609,4045.43643
D1,Barro Alto/BA,-11.7618025,-41.9094904,7,46.49927
1,Barro Alto/GO,-14.9696025,-48.9190985,1146,10045.58205
D1,Barro Alto/GO,-14.9696025,-48.9190985,13,113.95512
1,Barro Duro/PI,-5.8180139,-42.5106589,522,7428.49011
D1,Barro Duro/PI,-5.8180139,-42.5106589,7,99.61577
1,Barro Preto/BA,-14.8068289,-39.4727588,481,8828.92805
D1,Barro Preto/BA,-14.8068289,-39.4727588,7,128.48752
1,Barro/CE,-7.1713587,-38.7742136,622,2733.10484
D1,Barro/CE,-7.1713587,-38.7742136,14,61.51683
1,Barrocas/BA,-11.5165,-39.099282894736845,631,3918.03788
D1,Barrocas/BA,-11.5165,-39.099282894736845,16,99.34803
1,Barrolândia/TO,-9.837246,-48.7264346,608,10759.15767
D1,Barrolândia/TO,-9.837246,-48.7264346,12,212.35180
1,Barroquinha/CE,-3.0200371,-41.1339229,914,6075.51183
D1,Barroquinha/CE,-3.0200371,-41.1339229,23,152.88487
1,Barros Cassal/RS,-29.094938,-52.5832366,444,3970.66714
D1,Barros Cassal/RS,-29.094938,-52.5832366,6,53.65766
1,Barroso/MG,-21.187222,-43.976111,628,3005.21606
D1,Barroso/MG,-21.187222,-43.976111,11,52.63913
1,Barueri/SP,-23.5112184,-46.8764612,20171,7282.42268
D1,Barueri/SP,-23.5112184,-46.8764612,711,256.69538
1,Barão de Antonina/SP,-23.6295651,-49.5632104,115,3287.59291
D1,Barão de Antonina/SP,-23.6295651,-49.5632104,2,57.17553
1,Barão de Cocais/MG,-19.9452437,-43.4870298,2787,8479.88803
D1,Barão de Cocais/MG,-19.9452437,-43.4870298,39,118.66366
1,Barão de Cotegipe/RS,-27.6214694,-52.3765316,518,7824.77341
D1,Barão de Cotegipe/RS,-27.6214694,-52.3765316,6,90.63444
1,Barão de Grajaú/MA,-6.7542591,-43.0263477,255,1347.49524
D1,Barão de Grajaú/MA,-6.7542591,-43.0263477,2,10.56859
1,Barão de Melgaço/MT,-16.195776,-55.9668049,247,3025.47771
D1,Barão de Melgaço/MT,-16.195776,-55.9668049,10,122.48898
1,Barão de Monte Alto/MG,-21.244722,-42.2375,163,3044.45275
D1,Barão de Monte Alto/MG,-21.244722,-42.2375,7,130.74337
1,Barão do Triunfo/RS,-30.3909877,-51.7375349,355,4721.37252
D1,Barão do Triunfo/RS,-30.3909877,-51.7375349,4,53.19856
1,Barão/RS,-29.372474,-51.494908,443,7142.85714
D1,Barão/RS,-29.372474,-51.494908,7,112.86682
1,Bastos/SP,-21.9222474,-50.7317727,445,2123.80089
D1,Bastos/SP,-21.9222474,-50.7317727,18,85.90655
1,Bataguassu/MS,-21.715899,-52.422058,1881,8064.30868
D1,Bataguassu/MS,-21.715899,-52.422058,19,81.45766
1,Batalha/AL,-9.6733809,-37.1265481,832,4537.02694
D1,Batalha/AL,-9.6733809,-37.1265481,15,81.79736
1,Batalha/PI,-4.022391,-42.0780926,777,2887.93904
D1,Batalha/PI,-4.022391,-42.0780926,23,85.48597
1,Batatais/SP,-20.892867,-47.592149,1909,3031.12099
D1,Batatais/SP,-20.892867,-47.592149,71,112.73420
1,Batayporã/MS,-22.2976466,-53.2685608,575,5066.52569
D1,Batayporã/MS,-22.2976466,-53.2685608,11,96.92484
1,Baturité/CE,-4.3290203,-38.8821055,1700,4729.97412
D1,Baturité/CE,-4.3290203,-38.8821055,47,130.76987
1,Bauru/SP,-22.3218102,-49.0705863,30662,8083.90259
D1,Bauru/SP,-22.3218102,-49.0705863,634,167.15134
1,Bayeux/PB,-7.1301631,-34.936532,5436,5592.41999
D1,Bayeux/PB,-7.1301631,-34.936532,194,199.58232
1,Baía Formosa/RN,-6.3691885,-35.0063741,242,2596.00944
D1,Baía Formosa/RN,-6.3691885,-35.0063741,8,85.81849
1,Baía da Traição/PB,-6.691258,-34.9371244,1097,12060.24626
D1,Baía da Traição/PB,-6.691258,-34.9371244,10,109.93843
1,Bebedouro/SP,-20.949077,-48.479083,3110,4010.05738
D1,Bebedouro/SP,-20.949077,-48.479083,75,96.70556
1,Beberibe/CE,-4.1810469,-38.1298101,2545,4717.41830
D1,Beberibe/CE,-4.1810469,-38.1298101,50,92.68012
1,Bela Cruz/CE,-3.0529129,-40.167582,2288,6992.23764
D1,Bela Cruz/CE,-3.0529129,-40.167582,45,137.52216
1,Bela Vista da Caroba/PR,-25.8792818,-53.6672545,153,4425.80272
D1,Bela Vista da Caroba/PR,-25.8792818,-53.6672545,4,115.70726
1,Bela Vista de Goiás/GO,-16.9692949,-48.9513071,1908,6257.37898
D1,Bela Vista de Goiás/GO,-16.9692949,-48.9513071,43,141.02060
1,Bela Vista de Minas/MG,-19.8289721,-43.0973688,503,4901.57864
D1,Bela Vista de Minas/MG,-19.8289721,-43.0973688,9,87.70220
1,Bela Vista do Maranhão/MA,-3.7416367,-45.2514192,180,1595.88616
D1,Bela Vista do Maranhão/MA,-3.7416367,-45.2514192,11,97.52638
1,Bela Vista do Paraíso/PR,-22.9948493,-51.1907996,1484,9636.98941
D1,Bela Vista do Paraíso/PR,-22.9948493,-51.1907996,44,285.73284
1,Bela Vista do Piauí/PI,-7.9716353,-41.8715061,217,5384.61538
D1,Bela Vista do Piauí/PI,-7.9716353,-41.8715061,6,148.88337
1,Bela Vista do Toldo/SC,-26.274625,-50.466354,57,895.94467
D1,Bela Vista do Toldo/SC,-26.274625,-50.466354,1,15.71833
1,Bela Vista/MS,-22.107327,-56.5317344,604,2441.88397
D1,Bela Vista/MS,-22.107327,-56.5317344,16,64.68567
1,Belford Roxo/RJ,-22.7667284,-43.4033603,18052,3518.09915
D1,Belford Roxo/RJ,-22.7667284,-43.4033603,474,92.37641
1,Belmiro Braga/MG,-21.9486291,-43.413564,142,4145.98540
D1,Belmiro Braga/MG,-21.9486291,-43.413564,3,87.59124
1,Belmonte/BA,-15.8630837,-38.8792845,869,3707.81243
D1,Belmonte/BA,-15.8630837,-38.8792845,15,64.00137
1,Belmonte/SC,-26.8448262,-53.578916,200,7382.79808
D1,Belmonte/SC,-26.8448262,-53.578916,4,147.65596
1,Belo Campo/BA,-15.0338286,-41.2585109,534,3121.16430
D1,Belo Campo/BA,-15.0338286,-41.2585109,6,35.06926
1,Belo Horizonte/MG,-19.9227318,-43.9450948,151885,6023.44418
D1,Belo Horizonte/MG,-19.9227318,-43.9450948,3451,136.85950
1,Belo Jardim/PE,-8.3338293,-36.4176419,2277,2969.21251
D1,Belo Jardim/PE,-8.3338293,-36.4176419,68,88.67213
1,Belo Monte/AL,-9.8269944,-37.2787165,233,3472.42921
D1,Belo Monte/AL,-9.8269944,-37.2787165,6,89.41878
1,Belo Oriente/MG,-19.2232523,-42.4807033,2065,7649.84811
D1,Belo Oriente/MG,-19.2232523,-42.4807033,41,151.88560
1,Belo Vale/MG,-20.407778,-44.024167,448,5803.86060
D1,Belo Vale/MG,-20.407778,-44.024167,8,103.64037
1,Belterra/PA,-2.636091,-54.937392,1061,5947.64281
D1,Belterra/PA,-2.636091,-54.937392,19,106.50821
1,Belágua/MA,-3.1604031,-43.5085052,282,3746.01488
D1,Belágua/MA,-3.1604031,-43.5085052,2,26.56748
1,Belém de Maria/PE,-8.6242497,-35.8388934,154,1270.41742
D1,Belém de Maria/PE,-8.6242497,-35.8388934,4,32.99786
1,Belém do Brejo do Cruz/PB,-6.1880727,-37.5332267,485,6599.53735
D1,Belém do Brejo do Cruz/PB,-6.1880727,-37.5332267,5,68.03647
1,Belém do Piauí/PI,-7.3767305,-40.9712156,397,11067.74463
D1,Belém do Piauí/PI,-7.3767305,-40.9712156,7,195.14915
1,Belém do São Francisco/PE,-8.7517707,-38.9625715,446,2151.47130
D1,Belém do São Francisco/PE,-8.7517707,-38.9625715,7,33.76749
1,Belém/AL,-9.5715351,-36.492841,88,2054.15500
D1,Belém/AL,-9.5715351,-36.492841,3,70.02801
1,Belém/PA,-1.45056,-48.4682453,88621,5909.48100
D1,Belém/PA,-1.45056,-48.4682453,3788,252.59379
1,Belém/PB,-6.6967586,-35.5369626,1600,9036.99520
D1,Belém/PB,-6.6967586,-35.5369626,30,169.44366
1,Beneditinos/PI,-5.4565671,-42.3605061,627,5986.82326
D1,Beneditinos/PI,-5.4565671,-42.3605061,24,229.16070
1,Benedito Leite/MA,-7.2173453,-44.5523331,268,4753.45867
D1,Benedito Leite/MA,-7.2173453,-44.5523331,2,35.47357
1,Benedito Novo/SC,-26.7840657,-49.3629511,876,7439.49045
D1,Benedito Novo/SC,-26.7840657,-49.3629511,12,101.91083
1,Benevides/PA,-1.3555577,-48.252235,2958,4638.69025
D1,Benevides/PA,-1.3555577,-48.252235,71,111.34111
1,Benjamin Constant do Sul/RS,-27.5105555,-52.6007689,149,7609.80592
1,Benjamin Constant/AM,-4.3782748,-70.0290603,2613,5947.42233
D1,Benjamin Constant/AM,-4.3782748,-70.0290603,74,168.43064
1,Bento Fernandes/RN,-5.6926846,-35.8207423,72,1303.16742
D1,Bento Fernandes/RN,-5.6926846,-35.8207423,2,36.19910
1,Bento Gonçalves/RS,-29.1654014,-51.5197627,12995,10668.86694
D1,Bento Gonçalves/RS,-29.1654014,-51.5197627,232,190.47150
1,Bento de Abreu/SP,-21.2707225,-50.8120444,215,7154.74210
1,Bequimão/MA,-2.4495376,-44.7884889,269,1262.97009
D1,Bequimão/MA,-2.4495376,-44.7884889,15,70.42584
1,Berilo/MG,-16.9515764,-42.4643732,10,84.23181
D1,Berilo/MG,-16.9515764,-42.4643732,1,8.42318
1,Berizal/MG,-15.6118785,-41.7417382,100,2099.07641
D1,Berizal/MG,-15.6118785,-41.7417382,1,20.99076
1,Bernardino Batista/PB,-6.4532173,-38.5495418,211,5967.19457
1,Bernardino de Campos/SP,-23.0140216,-49.4760724,319,2858.93529
D1,Bernardino de Campos/SP,-23.0140216,-49.4760724,7,62.73526
1,Bernardo Sayão/TO,-7.8794244,-48.8968905,319,7171.76259
D1,Bernardo Sayão/TO,-7.8794244,-48.8968905,5,112.41007
1,Bernardo do Mearim/MA,-4.6315929,-44.7617508,205,3375.59690
D1,Bernardo do Mearim/MA,-4.6315929,-44.7617508,4,65.86531
1,Bertioga/SP,-23.848568,-46.139586,3667,5665.68299
D1,Bertioga/SP,-23.848568,-46.139586,91,140.59917
1,Bertolínia/PI,-7.6372159,-43.9540611,654,11875.79444
D1,Bertolínia/PI,-7.6372159,-43.9540611,6,108.95224
1,Bertópolis/MG,-17.063333,-40.573889,242,5252.87606
1,Beruri/AM,-3.9007135,-61.3717319,2016,10033.34495
D1,Beruri/AM,-3.9007135,-61.3717319,31,154.28259
1,Betim/MG,-19.968056,-44.198333,22747,5114.16778
D1,Betim/MG,-19.968056,-44.198333,694,156.03079
1,Betânia do Piauí/PI,-8.1460635,-40.7961387,150,2415.45894
D1,Betânia do Piauí/PI,-8.1460635,-40.7961387,2,32.20612
1,Betânia/PE,-8.2742779,-38.0351767,266,2083.82295
D1,Betânia/PE,-8.2742779,-38.0351767,5,39.16960
1,Bezerros/PE,-8.2372132,-35.7558262,2926,4806.17608
D1,Bezerros/PE,-8.2372132,-35.7558262,84,137.97635
1,Bias Fortes/MG,-21.605833,-43.756944,96,2883.74887
D1,Bias Fortes/MG,-21.605833,-43.756944,2,60.07810
1,Bicas/MG,-21.7213723,-43.0604327,805,5531.12546
D1,Bicas/MG,-21.7213723,-43.0604327,22,151.16119
1,Biguaçu/SC,-27.4961277,-48.6542432,9748,14028.72521
D1,Biguaçu/SC,-27.4961277,-48.6542432,138,198.60116
1,Bilac/SP,-21.403962,-50.47464,666,8205.00185
D1,Bilac/SP,-21.403962,-50.47464,11,135.51805
1,Biquinhas/MG,-18.783611,-45.502222,76,3042.43395
1,Birigui/SP,-21.2908491,-50.34144,9968,7981.87103
D1,Birigui/SP,-21.2908491,-50.34144,274,219.40536
1,Biritiba Mirim/SP,-23.5697765,-46.0407456,877,2662.73986
D1,Biritiba Mirim/SP,-23.5697765,-46.0407456,58,176.09910
1,Biritinga/BA,-11.6227908,-38.8066738,269,1682.93293
D1,Biritinga/BA,-11.6227908,-38.8066738,5,31.28128
1,Bituruna/PR,-26.161281,-51.5533319,494,3012.19512
D1,Bituruna/PR,-26.161281,-51.5533319,6,36.58537
1,Blumenau/SC,-26.9195567,-49.0658025,42158,11650.52300
D1,Blumenau/SC,-26.9195567,-49.0658025,436,120.49025
1,Boa Esperança do Iguaçu/PR,-25.6362851,-53.2139114,120,4858.29960
1,Boa Esperança do Sul/SP,-21.9930206,-48.3917372,659,4388.06765
D1,Boa Esperança do Sul/SP,-21.9930206,-48.3917372,11,73.24544
1,Boa Esperança/ES,-18.5395472,-40.2904088,961,6367.61198
D1,Boa Esperança/ES,-18.5395472,-40.2904088,32,212.03287
1,Boa Esperança/MG,-21.0901253,-45.5660195,2218,5514.80643
D1,Boa Esperança/MG,-21.0901253,-45.5660195,57,141.72406
1,Boa Esperança/PR,-24.2411024,-52.7860277,233,5757.35112
D1,Boa Esperança/PR,-24.2411024,-52.7860277,6,148.25797
1,Boa Hora/PI,-4.4094627,-42.1255341,420,6162.87601
D1,Boa Hora/PI,-4.4094627,-42.1255341,5,73.36757
1,Boa Nova/BA,-14.365907,-40.2063056,639,5182.90210
D1,Boa Nova/BA,-14.365907,-40.2063056,11,89.22054
1,Boa Ventura de São Roque/PR,-24.88177,-51.5441292,269,4226.23723
D1,Boa Ventura de São Roque/PR,-24.88177,-51.5441292,5,78.55460
1,Boa Ventura/PB,-7.4202462,-38.2156782,232,4371.58470
D1,Boa Ventura/PB,-7.4202462,-38.2156782,4,75.37215
1,Boa Viagem/CE,-5.1261877,-39.7300055,2300,4214.22944
D1,Boa Viagem/CE,-5.1261877,-39.7300055,58,106.27187
1,Boa Vista da Aparecida/PR,-25.4357216,-53.4067721,534,7082.22812
D1,Boa Vista da Aparecida/PR,-25.4357216,-53.4067721,17,225.46419
1,Boa Vista das Missões/RS,-27.6677983,-53.3127622,83,3967.49522
D1,Boa Vista das Missões/RS,-27.6677983,-53.3127622,2,95.60229
1,Boa Vista do Buricá/RS,-27.6687782,-54.1111913,555,8268.77235
D1,Boa Vista do Buricá/RS,-27.6687782,-54.1111913,8,119.18951
1,Boa Vista do Cadeado/RS,-28.5783827,-53.8123759,136,5510.53485
D1,Boa Vista do Cadeado/RS,-28.5783827,-53.8123759,1,40.51864
1,Boa Vista do Gurupi/MA,-1.7981168,-46.3071882,14,167.02458
D1,Boa Vista do Gurupi/MA,-1.7981168,-46.3071882,3,35.79098
1,Boa Vista do Incra/RS,-28.8195551,-53.3866624,154,5886.85015
D1,Boa Vista do Incra/RS,-28.8195551,-53.3866624,1,38.22630
1,Boa Vista do Ramos/AM,-2.9716927,-57.5869819,821,4183.22633
D1,Boa Vista do Ramos/AM,-2.9716927,-57.5869819,11,56.04810
1,Boa Vista do Sul/RS,-29.3510488,-51.6779679,244,8783.29734
D1,Boa Vista do Sul/RS,-29.3510488,-51.6779679,2,71.99424
1,Boa Vista do Tupim/BA,-12.6605988,-40.6083594,164,885.00351
D1,Boa Vista do Tupim/BA,-12.6605988,-40.6083594,4,21.58545
1,Boa Vista/PB,-7.2620711,-36.2415161,454,6362.10762
D1,Boa Vista/PB,-7.2620711,-36.2415161,6,84.08072
1,Boa Vista/RR,2.8208478,-60.6719582,68892,16416.45935
D1,Boa Vista/RR,2.8208478,-60.6719582,1062,253.06683
1,Boca da Mata/AL,-9.6452054,-36.2116658,1471,5377.24814
D1,Boca da Mata/AL,-9.6452054,-36.2116658,34,124.28718
1,Boca do Acre/AM,-8.7553487,-67.3930873,2408,6952.50469
D1,Boca do Acre/AM,-8.7553487,-67.3930873,22,63.51956
1,Bocaina de Minas/MG,-22.167778,-44.394722,102,2004.32305
D1,Bocaina de Minas/MG,-22.167778,-44.394722,2,39.30045
1,Bocaina do Sul/SC,-27.745494,-49.942279,349,10005.73394
D1,Bocaina do Sul/SC,-27.745494,-49.942279,3,86.00917
1,Bocaina/PI,-6.9445939,-41.3224599,218,4839.06770
D1,Bocaina/PI,-6.9445939,-41.3224599,3,66.59267
1,Bocaina/SP,-22.1421831,-48.522276,1062,8528.75040
D1,Bocaina/SP,-22.1421831,-48.522276,24,192.74012
1,Bocaiúva do Sul/PR,-25.206591,-49.114131,918,6992.15477
D1,Bocaiúva do Sul/PR,-25.206591,-49.114131,7,53.31708
1,Bocaiúva/MG,-17.1160208,-43.8122678,1515,3014.56543
D1,Bocaiúva/MG,-17.1160208,-43.8122678,35,69.64343
1,Bodocó/PE,-7.777592,-39.933797,1472,3835.53077
D1,Bodocó/PE,-7.777592,-39.933797,22,57.32451
1,Bodoquena/MS,-20.5508775,-56.6769653,207,2640.97984
D1,Bodoquena/MS,-20.5508775,-56.6769653,3,38.27507
1,Bodó/RN,-5.9866104,-36.4134824,94,4278.56168
1,Bofete/SP,-23.1019554,-48.2610535,494,4143.94766
D1,Bofete/SP,-23.1019554,-48.2610535,10,83.88558
1,Boituva/SP,-23.2838893,-47.6738231,3678,5916.03667
D1,Boituva/SP,-23.2838893,-47.6738231,69,110.98601
1,Bom Conselho/PE,-9.169191,-36.685683,1206,2472.98378
D1,Bom Conselho/PE,-9.169191,-36.685683,39,79.97211
1,Bom Despacho/MG,-19.7375242,-45.2517288,2497,4893.39186
D1,Bom Despacho/MG,-19.7375242,-45.2517288,51,99.94513
1,Bom Jardim da Serra/SC,-28.3380324,-49.625588,531,11127.40989
D1,Bom Jardim da Serra/SC,-28.3380324,-49.625588,3,62.86672
1,Bom Jardim de Goiás/GO,-16.2062659,-52.172793,539,6077.34807
D1,Bom Jardim de Goiás/GO,-16.2062659,-52.172793,10,112.75228
1,Bom Jardim de Minas/MG,-21.9476466,-44.1906033,208,3220.31274
D1,Bom Jardim de Minas/MG,-21.9476466,-44.1906033,1,15.48227
1,Bom Jardim/MA,-3.54129,-45.606004,1116,2668.45201
D1,Bom Jardim/MA,-3.54129,-45.606004,39,93.25236
1,Bom Jardim/PE,-7.7961572,-35.5871696,965,2413.52575
D1,Bom Jardim/PE,-7.7961572,-35.5871696,43,107.54571
1,Bom Jardim/RJ,-22.1515328,-42.4186683,807,2922.21900
D1,Bom Jardim/RJ,-22.1515328,-42.4186683,22,79.66396
1,Bom Jesus da Lapa/BA,-13.250571,-43.410754,2471,3547.12756
D1,Bom Jesus da Lapa/BA,-13.250571,-43.410754,36,51.67810
1,Bom Jesus da Penha/MG,-21.0165299,-46.5226644,270,6361.92271
D1,Bom Jesus da Penha/MG,-21.0165299,-46.5226644,6,141.37606
1,Bom Jesus da Serra/BA,-14.3724084,-40.5047119,393,4000.81442
D1,Bom Jesus da Serra/BA,-14.3724084,-40.5047119,6,61.08114
1,Bom Jesus das Selvas/MA,-4.4878075,-46.8526639,2264,6549.59933
D1,Bom Jesus das Selvas/MA,-4.4878075,-46.8526639,21,60.75158
1,Bom Jesus de Goiás/GO,-18.2174587,-49.739721,2202,8585.46475
D1,Bom Jesus de Goiás/GO,-18.2174587,-49.739721,80,311.91516
1,Bom Jesus do Amparo/MG,-19.7045132,-43.4752911,149,2429.47986
D1,Bom Jesus do Amparo/MG,-19.7045132,-43.4752911,4,65.22094
1,Bom Jesus do Araguaia/MT,-12.1725897,-51.5074425,632,9424.39606
D1,Bom Jesus do Araguaia/MT,-12.1725897,-51.5074425,13,193.85625
1,Bom Jesus do Galho/MG,-19.8283191,-42.3162256,458,3081.68483
D1,Bom Jesus do Galho/MG,-19.8283191,-42.3162256,13,87.47140
1,Bom Jesus do Itabapoana/RJ,-21.1341025,-41.680095,2355,6330.13467
D1,Bom Jesus do Itabapoana/RJ,-21.1341025,-41.680095,59,158.58936
1,Bom Jesus do Norte/ES,-21.1254776,-41.6711646,787,7900.02008
D1,Bom Jesus do Norte/ES,-21.1254776,-41.6711646,19,190.72475
1,Bom Jesus do Oeste/SC,-26.6929713,-53.0967453,116,5423.09490
D1,Bom Jesus do Oeste/SC,-26.6929713,-53.0967453,3,140.25245
1,Bom Jesus do Sul/PR,-26.1922507,-53.6002033,217,6189.38962
D1,Bom Jesus do Sul/PR,-26.1922507,-53.6002033,3,85.56760
1,Bom Jesus do Tocantins/PA,-5.0471796,-48.5978362,646,3773.80535
D1,Bom Jesus do Tocantins/PA,-5.0471796,-48.5978362,19,110.99428
1,Bom Jesus do Tocantins/TO,-8.96306,-48.165043,115,2296.32588
D1,Bom Jesus do Tocantins/TO,-8.96306,-48.165043,1,19.96805
1,Bom Jesus dos Perdões/SP,-23.1353864,-46.4648052,1274,4902.82855
D1,Bom Jesus dos Perdões/SP,-23.1353864,-46.4648052,19,73.11911
1,Bom Jesus/PB,-6.8156725,-38.6551841,104,4038.83495
D1,Bom Jesus/PB,-6.8156725,-38.6551841,3,116.50485
1,Bom Jesus/PI,-9.0711644,-44.3583926,2485,9788.47442
D1,Bom Jesus/PI,-9.0711644,-44.3583926,28,110.29267
1,Bom Jesus/RN,-5.9887544,-35.5821149,576,5610.20746
D1,Bom Jesus/RN,-5.9887544,-35.5821149,11,107.13938
1,Bom Jesus/RS,-28.6692723,-50.4346894,519,4589.26519
D1,Bom Jesus/RS,-28.6692723,-50.4346894,13,114.95269
1,Bom Jesus/SC,-26.7350604,-52.3916519,313,10238.79621
D1,Bom Jesus/SC,-26.7350604,-52.3916519,5,163.55904
1,Bom Lugar/MA,-4.3728019,-45.0366054,375,2281.29943
D1,Bom Lugar/MA,-4.3728019,-45.0366054,7,42.58426
1,Bom Princípio do Piauí/PI,-3.1912777,-41.6430185,91,1610.33445
D1,Bom Princípio do Piauí/PI,-3.1912777,-41.6430185,8,141.56786
1,Bom Princípio/RS,-29.489788,-51.3566782,1252,8782.88320
D1,Bom Princípio/RS,-29.489788,-51.3566782,22,154.33181
1,Bom Progresso/RS,-27.5490948,-53.8655601,100,5265.92944
D1,Bom Progresso/RS,-27.5490948,-53.8655601,1,52.65929
1,Bom Repouso/MG,-22.4657069,-46.1485376,388,3682.26250
D1,Bom Repouso/MG,-22.4657069,-46.1485376,12,113.88441
1,Bom Retiro do Sul/RS,-29.6000007,-51.9359243,867,6997.57869
D1,Bom Retiro do Sul/RS,-29.6000007,-51.9359243,20,161.42050
1,Bom Retiro/SC,-27.798993,-49.486994,558,5546.71968
D1,Bom Retiro/SC,-27.798993,-49.486994,13,129.22465
1,Bom Sucesso de Itararé/SP,-24.3190016,-49.1446207,104,2610.44177
D1,Bom Sucesso de Itararé/SP,-24.3190016,-49.1446207,4,100.40161
1,Bom Sucesso do Sul/PR,-26.0749256,-52.8348629,260,7990.16595
D1,Bom Sucesso do Sul/PR,-26.0749256,-52.8348629,5,153.65704
1,Bom Sucesso/MG,-21.0323516,-44.7598082,364,2067.35957
D1,Bom Sucesso/MG,-21.0323516,-44.7598082,4,22.71824
1,Bom Sucesso/PB,-6.4458948,-37.9297662,161,3248.58757
D1,Bom Sucesso/PB,-6.4458948,-37.9297662,1,20.17756
1,Bom Sucesso/PR,-23.7088019,-51.7651297,537,7597.62309
D1,Bom Sucesso/PR,-23.7088019,-51.7651297,11,155.63101
1,Bombinhas/SC,-27.1519159,-48.4875691,3125,15367.59282
D1,Bombinhas/SC,-27.1519159,-48.4875691,45,221.29334
1,Bonfim do Piauí/PI,-9.1648678,-42.8734415,226,3975.37379
D1,Bonfim do Piauí/PI,-9.1648678,-42.8734415,4,70.36060
1,Bonfim/MG,-20.3266626, -44.2386157,312,4548.10496
D1,Bonfim/MG,-20.3266626, -44.2386157,9,131.19534
1,Bonfim/RR,3.3613818,-59.8427241,1910,15210.63948
D1,Bonfim/RR,3.3613818,-59.8427241,24,191.12845
1,Bonfinópolis de Minas/MG,-16.5660011,-45.98645,330,6061.71932
D1,Bonfinópolis de Minas/MG,-16.5660011,-45.98645,10,183.68846
1,Bonfinópolis/GO,-16.6172709,-48.9615701,422,4254.46114
D1,Bonfinópolis/GO,-16.6172709,-48.9615701,14,141.14326
1,Boninal/BA,-12.7095183,-41.8299984,555,3841.89395
D1,Boninal/BA,-12.7095183,-41.8299984,6,41.53399
1,Bonito de Minas/MG,-15.3191266,-44.7544,38,334.24224
1,Bonito de Santa Fé/PB,-7.3143332,-38.5146677,361,3002.82815
D1,Bonito de Santa Fé/PB,-7.3143332,-38.5146677,11,91.49892
1,Bonito/BA,-11.9665473,-41.2649896,595,3524.04643
D1,Bonito/BA,-11.9665473,-41.2649896,6,35.53660
1,Bonito/MS,-21.1264766,-56.4902208,1944,8760.70302
D1,Bonito/MS,-21.1264766,-56.4902208,33,148.71564
1,Bonito/PA,-1.3605722,-47.3049907,342,2068.96552
D1,Bonito/PA,-1.3605722,-47.3049907,12,72.59528
1,Bonito/PE,-8.4721161,-35.7314591,564,1479.65475
D1,Bonito/PE,-8.4721161,-35.7314591,29,76.08154
1,Bonópolis/GO,-13.649331,-49.8329113,114,2537.28021
D1,Bonópolis/GO,-13.649331,-49.8329113,1,22.25684
1,Boqueirão do Leão/RS,-29.30332,-52.4296817,425,5518.04726
D1,Boqueirão do Leão/RS,-29.30332,-52.4296817,28,363.54194
1,Boqueirão do Piauí/PI,-4.4850148,-42.1095161,397,6178.02677
D1,Boqueirão do Piauí/PI,-4.4850148,-42.1095161,7,108.93246
1,Boqueirão/PB,-7.487004,-36.130887,1190,6659.20537
D1,Boqueirão/PB,-7.487004,-36.130887,22,123.11136
1,Boquim/SE,-11.1450175,-37.6204228,1520,5650.76769
D1,Boquim/SE,-11.1450175,-37.6204228,30,111.52831
1,Boquira/BA,-12.8184859,-42.7270883,401,1865.37656
D1,Boquira/BA,-12.8184859,-42.7270883,6,27.91087
1,Boracéia/SP,-22.195355,-48.7801925,724,14872.63763
D1,Boracéia/SP,-22.195355,-48.7801925,14,287.59244
1,Borba/AM,-4.3934778,-59.5947721,1596,3822.93763
D1,Borba/AM,-4.3934778,-59.5947721,50,119.76622
1,Borborema/PB,-6.8066718,-35.5990191,177,3347.83431
D1,Borborema/PB,-6.8066718,-35.5990191,3,56.74295
1,Borborema/SP,-21.6212706,-49.074135,797,4930.71022
D1,Borborema/SP,-21.6212706,-49.074135,27,167.03786
1,Borda da Mata/MG,-22.274167,-46.165278,948,4833.28235
D1,Borda da Mata/MG,-22.274167,-46.165278,27,137.65678
1,Borebi/SP,-22.5700178,-48.9714871,116,4323.51845
D1,Borebi/SP,-22.5700178,-48.9714871,2,74.54342
1,Borrazópolis/PR,-23.9393362,-51.5850786,469,7283.73971
D1,Borrazópolis/PR,-23.9393362,-51.5850786,13,201.89470
1,Borá/SP,-22.2701088,-50.544407,41,4892.60143
D1,Borá/SP,-22.2701088,-50.544407,1,119.33174
1,Bossoroca/RS,-28.7278885,-54.9120278,287,4625.30218
D1,Bossoroca/RS,-28.7278885,-54.9120278,18,290.08864
1,Botelhos/MG,-21.65,-46.394722,965,6455.28129
D1,Botelhos/MG,-21.65,-46.394722,7,46.82587
1,Botucatu/SP,-22.8879628,-48.4410712,10506,7092.41882
D1,Botucatu/SP,-22.8879628,-48.4410712,165,111.38865
1,Botumirim/MG,-16.862778,-43.011111,141,2242.36641
D1,Botumirim/MG,-16.862778,-43.011111,2,31.80662
1,Botuporã/BA,-13.3744752,-42.5198469,176,1737.58515
D1,Botuporã/BA,-13.3744752,-42.5198469,3,29.61793
1,Botuverá/SC,-27.200749,-49.068892,773,14524.61481
D1,Botuverá/SC,-27.200749,-49.068892,7,131.52950
1,Bozano/RS,-28.3669953,-53.7705165,190,9000.47371
D1,Bozano/RS,-28.3669953,-53.7705165,7,331.59640
1,Braga/RS,-27.617348,-53.740514,124,3745.09212
D1,Braga/RS,-27.617348,-53.740514,3,90.60707
1,Braganey/PR,-24.8179919,-53.118506,280,5202.52694
D1,Braganey/PR,-24.8179919,-53.118506,6,111.48272
1,Bragança Paulista/SP,-22.9520235,-46.5418586,10301,6040.47310
D1,Bragança Paulista/SP,-22.9520235,-46.5418586,253,148.35838
1,Bragança/PA,-1.0573967,-46.7635406,3333,2585.44456
D1,Bragança/PA,-1.0573967,-46.7635406,109,84.55249
1,Branquinha/AL,-9.2478057,-36.0152009,407,3891.01338
D1,Branquinha/AL,-9.2478057,-36.0152009,9,86.04207
1,Brasil Novo/PA,-3.3055853,-52.539198,1204,8035.77388
D1,Brasil Novo/PA,-3.3055853,-52.539198,24,160.18154
1,Brasileira/PI,-4.131182,-41.7824969,404,4840.06230
D1,Brasileira/PI,-4.131182,-41.7824969,8,95.84282
1,Brasilândia de Minas/MG,-17.0096469,-46.0087183,764,4561.73872
D1,Brasilândia de Minas/MG,-17.0096469,-46.0087183,9,53.73776
1,Brasilândia do Sul/PR,-24.1975793,-53.527551,289,11179.88395
D1,Brasilândia do Sul/PR,-24.1975793,-53.527551,7,270.79304
1,Brasilândia do Tocantins/TO,-8.3886619,-48.4842729,108,4884.66757
D1,Brasilândia do Tocantins/TO,-8.3886619,-48.4842729,1,45.22840
1,Brasilândia/MS,-21.255575,-52.0365617,531,4479.87851
D1,Brasilândia/MS,-21.255575,-52.0365617,11,92.80351
1,Brasiléia/AC,-11.0010413,-68.7487894,2176,8149.20231
D1,Brasiléia/AC,-11.0010413,-68.7487894,30,112.35113
1,Brasnorte/MT,-12.1227151,-58.0050109,1455,7224.42900
D1,Brasnorte/MT,-12.1227151,-58.0050109,21,104.27011
1,Brasília de Minas/MG,-16.2075114,-44.430559,678,2092.26971
D1,Brasília de Minas/MG,-16.2075114,-44.430559,5,15.42972
1,Brasília/DF,-15.7934036,-47.8823172,354816,11613.70526
D1,Brasília/DF,-15.7934036,-47.8823172,6609,216.32333
1,Brazabrantes/GO,-16.4291635,-49.3858216,335,8942.87240
D1,Brazabrantes/GO,-16.4291635,-49.3858216,3,80.08542
1,Brazópolis/MG,-22.4742842,-45.6165577,579,4018.04303
D1,Brazópolis/MG,-22.4742842,-45.6165577,21,145.73213
1,Braço do Norte/SC,-28.2728633,-49.1622712,6607,19503.48329
D1,Braço do Norte/SC,-28.2728633,-49.1622712,59,174.16460
1,Braço do Trombudo/SC,-27.358578,-49.882145,502,13319.18281
D1,Braço do Trombudo/SC,-27.358578,-49.882145,4,106.12895
1,Braúna/SP,-21.5015319,-50.3175246,330,5748.12750
D1,Braúna/SP,-21.5015319,-50.3175246,13,226.44139
1,Braúnas/MG,-19.055556,-42.716111,153,3208.21975
D1,Braúnas/MG,-19.055556,-42.716111,5,104.84378
1,Brejetuba/ES,-20.1465817,-41.2902303,1354,10895.63048
D1,Brejetuba/ES,-20.1465817,-41.2902303,11,88.51694
1,Brejinho de Nazaré/TO,-11.0205883,-48.5722906,319,5780.03261
D1,Brejinho de Nazaré/TO,-11.0205883,-48.5722906,7,126.83457
1,Brejinho/PE,-7.3482153,-37.28538,398,5315.17094
D1,Brejinho/PE,-7.3482153,-37.28538,6,80.12821
1,Brejinho/RN,-6.1957907,-35.3583019,742,5802.76844
D1,Brejinho/RN,-6.1957907,-35.3583019,8,62.56354
1,Brejo Alegre/SP,-21.1671191,-50.1850393,246,8515.05711
D1,Brejo Alegre/SP,-21.1671191,-50.1850393,10,346.14053
1,Brejo Grande do Araguaia/PA,-5.7011449,-48.4037308,722,9799.13138
D1,Brejo Grande do Araguaia/PA,-5.7011449,-48.4037308,4,54.28882
1,Brejo Grande/SE,-10.4287358,-36.4667918,273,3268.28684
D1,Brejo Grande/SE,-10.4287358,-36.4667918,10,119.71747
1,Brejo Santo/CE,-7.4909841,-38.9859152,5718,11472.25232
D1,Brejo Santo/CE,-7.4909841,-38.9859152,83,166.52622
1,Brejo da Madre de Deus/PE,-8.1409718,-36.3712527,1591,3105.90532
D1,Brejo da Madre de Deus/PE,-8.1409718,-36.3712527,41,80.03904
1,Brejo de Areia/MA,-4.3316785,-45.5833334,280,3106.27912
D1,Brejo de Areia/MA,-4.3316785,-45.5833334,7,77.65698
1,Brejo do Cruz/PB,-6.32926065,-37.48746163303929,1228,8644.23483
D1,Brejo do Cruz/PB,-6.32926065,-37.48746163303929,19,133.74630
1,Brejo do Piauí/PI,-8.207583,-42.8359849,58,1507.27651
D1,Brejo do Piauí/PI,-8.207583,-42.8359849,3,77.96258
1,Brejo dos Santos/PB,-6.3769367,-37.8243125,324,5012.37624
D1,Brejo dos Santos/PB,-6.3769367,-37.8243125,4,61.88119
1,Brejo/MA,-3.6804397,-42.7529313,765,2087.25546
D1,Brejo/MA,-3.6804397,-42.7529313,18,49.11189
1,Brejolândia/BA,-12.4843845,-43.9611861,129,1214.91806
D1,Brejolândia/BA,-12.4843845,-43.9611861,8,75.34376
1,Brejão/PE,-9.029146,-36.566034,147,1635.69601
D1,Brejão/PE,-9.029146,-36.566034,4,44.50873
1,Brejões/BA,-13.1033754,-39.7909837,507,3564.89945
D1,Brejões/BA,-13.1033754,-39.7909837,7,49.21952
1,Breu Branco/PA,-3.7785073,-49.5684795,538,799.02572
D1,Breu Branco/PA,-3.7785073,-49.5684795,31,46.04052
1,Breves/PA,-1.68036,-50.479085,3657,3533.43575
D1,Breves/PA,-1.68036,-50.479085,103,99.51979
1,Britânia/GO,-15.2427599,-51.1602061,399,6882.87045
D1,Britânia/GO,-15.2427599,-51.1602061,2,34.50060
1,Brochier/RS,-29.556766,-51.5963047,327,6406.73981
D1,Brochier/RS,-29.556766,-51.5963047,1,19.59248
1,Brodowski/SP,-20.984532,-47.657217,1582,6258.65411
D1,Brodowski/SP,-20.984532,-47.657217,40,158.24663
1,Brotas de Macaúbas/BA,-12.0019007,-42.6257506,56,552.81343
D1,Brotas de Macaúbas/BA,-12.0019007,-42.6257506,1,9.87167
1,Brotas/SP,-22.2840884,-48.1267265,359,1457.21708
D1,Brotas/SP,-22.2840884,-48.1267265,19,77.12291
1,Brumadinho/MG,-20.143611,-44.2,2574,6329.61196
D1,Brumadinho/MG,-20.143611,-44.2,46,113.11661
1,Brumado/BA,-14.29507325,-41.659307508575985,7328,10882.89894
D1,Brumado/BA,-14.29507325,-41.659307508575985,123,182.66875
1,Brunópolis/SC,-27.310953,-50.837585,157,6630.06757
D1,Brunópolis/SC,-27.310953,-50.837585,4,168.91892
1,Brusque/SC,-27.0964628,-48.9136323,20831,15129.02265
D1,Brusque/SC,-27.0964628,-48.9136323,203,147.43371
1,Brás Pires/MG,-20.8483109,-43.2430524,111,2585.60447
D1,Brás Pires/MG,-20.8483109,-43.2430524,5,116.46867
1,Bueno Brandão/MG,-22.441976,-46.3517971,484,4403.60295
D1,Bueno Brandão/MG,-22.441976,-46.3517971,15,136.47530
1,Buenos Aires/PE,-7.7218931,-35.326587,178,1349.50720
D1,Buenos Aires/PE,-7.7218931,-35.326587,17,128.88552
1,Buenópolis/MG,-17.8756607,-44.1749365,234,2260.21443
D1,Buenópolis/MG,-17.8756607,-44.1749365,7,67.61325
1,Buerarema/BA,-14.9571177,-39.3008035,1169,6385.88441
D1,Buerarema/BA,-14.9571177,-39.3008035,35,191.19414
1,Bugre/MG,-19.4257687,-42.2556,334,8385.63897
D1,Bugre/MG,-19.4257687,-42.2556,10,251.06703
1,Bujari/AC,-9.8309656,-67.9520886,996,9558.54127
D1,Bujari/AC,-9.8309656,-67.9520886,12,115.16315
1,Bujaru/PA,-1.5169239,-48.0410699,1136,3860.40031
D1,Bujaru/PA,-1.5169239,-48.0410699,30,101.94719
1,Buri/SP,-23.79849,-48.598924,1797,9000.75131
D1,Buri/SP,-23.79849,-48.598924,26,130.22790
1,Buritama/SP,-21.0664017,-50.1448077,1609,9310.80377
D1,Buritama/SP,-21.0664017,-50.1448077,43,248.82819
1,Buriti Alegre/GO,-18.1377879,-49.0404411,719,7581.18937
D1,Buriti Alegre/GO,-18.1377879,-49.0404411,25,263.60186
1,Buriti Bravo/MA,-5.8391884,-43.8367876,1100,4595.01232
D1,Buriti Bravo/MA,-5.8391884,-43.8367876,10,41.77284
1,Buriti de Goiás/GO,-16.180644,-50.4287479,170,6865.91276
D1,Buriti de Goiás/GO,-16.180644,-50.4287479,4,161.55089
1,Buriti do Tocantins/TO,-5.3187439,-48.2256609,550,4783.85666
D1,Buriti do Tocantins/TO,-5.3187439,-48.2256609,3,26.09376
1,Buriti dos Lopes/PI,-3.1776723,-41.8707444,1057,5336.49720
D1,Buriti dos Lopes/PI,-3.1776723,-41.8707444,22,111.07184
1,Buriti dos Montes/PI,-5.3136171,-41.0971256,487,5893.03001
D1,Buriti dos Montes/PI,-5.3136171,-41.0971256,6,72.60407
1,Buriti/MA,-3.9430944,-42.9244281,742,2576.56782
D1,Buriti/MA,-3.9430944,-42.9244281,7,24.30724
1,Buriticupu/MA,-4.3227472,-46.4516989,2831,3878.98552
D1,Buriticupu/MA,-4.3227472,-46.4516989,34,46.58619
1,Buritinópolis/GO,-14.4589282,-46.4293104,124,3777.03320
1,Buritirama/BA,-10.7148421,-43.6362327,662,3111.48712
D1,Buritirama/BA,-10.7148421,-43.6362327,15,70.50197
1,Buritirana/MA,-5.5897455,-47.0148915,280,1810.30581
D1,Buritirana/MA,-5.5897455,-47.0148915,21,135.77294
1,Buritis/MG,-15.621389,-46.423889,1052,4205.81298
D1,Buritis/MG,-15.621389,-46.423889,18,71.96258
1,Buritis/RO,-10.2054937,-63.8281954,3969,9834.96878
D1,Buritis/RO,-10.2054937,-63.8281954,54,133.80910
1,Buritizal/SP,-20.1933264,-47.7097165,145,3212.22862
D1,Buritizal/SP,-20.1933264,-47.7097165,5,110.76650
1,Buritizeiro/MG,-17.3667765,-44.9647781,752,2674.15810
D1,Buritizeiro/MG,-17.3667765,-44.9647781,19,67.56516
1,Butiá/RS,-30.1256795,-51.9692224,1366,6519.66399
D1,Butiá/RS,-30.1256795,-51.9692224,39,186.13975
1,Buíque/PE,-8.6239732,-37.157296,1646,2793.66588
D1,Buíque/PE,-8.6239732,-37.157296,29,49.22012
1,Bálsamo/SP,-20.7343722,-49.5807484,1157,12660.02845
D1,Bálsamo/SP,-20.7343722,-49.5807484,40,437.68465
0,CASO SEM LOCALIZAÇÃO DEFINIDA/AL,-9.931093434363673,-35.609611600637464,2,0.05993
D0,CASO SEM LOCALIZAÇÃO DEFINIDA/AL,-9.931093434363673,-35.609611600637464,2,0.05993
0,CASO SEM LOCALIZAÇÃO DEFINIDA/BA,-13.415069300066518,-38.14174656569957,9821,66.03212
D0,CASO SEM LOCALIZAÇÃO DEFINIDA/BA,-13.415069300066518,-38.14174656569957,138,0.92785
0,CASO SEM LOCALIZAÇÃO DEFINIDA/CE,-3.3445126297392798,-38.624961942434304,11299,123.72868
D0,CASO SEM LOCALIZAÇÃO DEFINIDA/CE,-3.3445126297392798,-38.624961942434304,7,0.07665
0,CASO SEM LOCALIZAÇÃO DEFINIDA/ES,-20.30989267097039,-39.81745156645774,3334,82.96318
D0,CASO SEM LOCALIZAÇÃO DEFINIDA/ES,-20.30989267097039,-39.81745156645774,147,3.65794
0,CASO SEM LOCALIZAÇÃO DEFINIDA/GO,-16.701590966270153,-49.164524059025034,2162,30.80494
D0,CASO SEM LOCALIZAÇÃO DEFINIDA/GO,-16.701590966270153,-49.164524059025034,88,1.25386
0,CASO SEM LOCALIZAÇÃO DEFINIDA/MG,-19.97049116501593,-43.8852149072783,4266,20.15231
D0,CASO SEM LOCALIZAÇÃO DEFINIDA/MG,-19.97049116501593,-43.8852149072783,210,0.99203
0,CASO SEM LOCALIZAÇÃO DEFINIDA/MT,-15.54791153961863,-56.17143998972475,1948,55.90527
D0,CASO SEM LOCALIZAÇÃO DEFINIDA/MT,-15.54791153961863,-56.17143998972475,146,4.19003
0,CASO SEM LOCALIZAÇÃO DEFINIDA/PA,-0.09317078214359542,-48.0050231510481,2750,31.96610
D0,CASO SEM LOCALIZAÇÃO DEFINIDA/PA,-0.09317078214359542,-48.0050231510481,87,1.01129
0,CASO SEM LOCALIZAÇÃO DEFINIDA/PI,-2.683810218391744,-41.470898009352254,1213,37.05823
D0,CASO SEM LOCALIZAÇÃO DEFINIDA/PI,-2.683810218391744,-41.470898009352254,46,1.40534
0,CASO SEM LOCALIZAÇÃO DEFINIDA/PR,-25.69415946385943,-48.10141676336737,5405,47.27147
D0,CASO SEM LOCALIZAÇÃO DEFINIDA/PR,-25.69415946385943,-48.10141676336737,117,1.02327
0,CASO SEM LOCALIZAÇÃO DEFINIDA/RN,-5.749310788669161,-34.95302586257457,1665,47.47847
D0,CASO SEM LOCALIZAÇÃO DEFINIDA/RN,-5.749310788669161,-34.95302586257457,36,1.02656
0,CASO SEM LOCALIZAÇÃO DEFINIDA/RR,2.813328208465927,-60.663338675861986,2496,412.04369
D0,CASO SEM LOCALIZAÇÃO DEFINIDA/RR,2.813328208465927,-60.663338675861986,13,2.14606
0,CASO SEM LOCALIZAÇÃO DEFINIDA/SP,-24.30968974555485,-46.21366504207253,439,0.95603
1,Caapiranga/AM,-3.3188884,-61.2096404,545,4102.98878
D1,Caapiranga/AM,-3.3188884,-61.2096404,20,150.56840
1,Caaporã/PB,-7.510234,-34.9154114,1381,6290.13892
D1,Caaporã/PB,-7.510234,-34.9154114,25,113.86928
1,Caarapó/MS,-22.6349267,-54.8240903,2462,8047.59259
D1,Caarapó/MS,-22.6349267,-54.8240903,21,68.64315
1,Caatiba/BA,-14.9782759,-40.4092325,620,9556.10358
D1,Caatiba/BA,-14.9782759,-40.4092325,6,92.47842
1,Cabaceiras do Paraguaçu/BA,-12.5377868,-39.1901339,388,2051.71593
D1,Cabaceiras do Paraguaçu/BA,-12.5377868,-39.1901339,4,21.15171
1,Cabaceiras/PB,-7.4899156,-36.2860501,297,5246.42289
D1,Cabaceiras/PB,-7.4899156,-36.2860501,1,17.66472
1,Cabeceira Grande/MG,-16.0297,-47.0906,219,3133.94390
D1,Cabeceira Grande/MG,-16.0297,-47.0906,4,57.24098
1,Cabeceiras do Piauí/PI,-4.4733665,-42.3098716,395,3715.89840
D1,Cabeceiras do Piauí/PI,-4.4733665,-42.3098716,9,84.66604
1,Cabeceiras/GO,-15.7995459,-46.9264991,237,2945.56301
D1,Cabeceiras/GO,-15.7995459,-46.9264991,8,99.42829
1,Cabedelo/PB,-6.97324,-34.8351609,6820,9917.54766
D1,Cabedelo/PB,-6.97324,-34.8351609,152,221.03625
1,Cabixi/RO,-13.4956065,-60.5424442,562,10832.69082
D1,Cabixi/RO,-13.4956065,-60.5424442,13,250.57826
1,Cabo Frio/RJ,-22.8804369,-42.0189227,8905,3865.38645
D1,Cabo Frio/RJ,-22.8804369,-42.0189227,414,179.70466
1,Cabo Verde/MG,-21.4743338,-46.3964995,307,2181.17229
D1,Cabo Verde/MG,-21.4743338,-46.3964995,5,35.52398
1,Cabo de Santo Agostinho/PE,-8.2838945,-35.0320984,3905,1868.92182
D1,Cabo de Santo Agostinho/PE,-8.2838945,-35.0320984,358,171.33777
1,Cabreúva/SP,-23.3075813,-47.1324417,2796,5544.42880
D1,Cabreúva/SP,-23.3075813,-47.1324417,62,122.94513
1,Cabrobó/PE,-8.5083701,-39.3106961,1297,3759.09341
D1,Cabrobó/PE,-8.5083701,-39.3106961,13,37.67788
1,Cabrália Paulista/SP,-22.4562909,-49.3385645,194,4572.23663
D1,Cabrália Paulista/SP,-22.4562909,-49.3385645,2,47.13646
1,Cacaulândia/RO,-10.3380043,-62.9007231,671,10703.46148
D1,Cacaulândia/RO,-10.3380043,-62.9007231,8,127.61206
1,Cacequi/RS,-29.8838059,-54.8273443,153,1231.58657
D1,Cacequi/RS,-29.8838059,-54.8273443,4,32.19834
1,Cachoeira Alta/GO,-18.7618269,-50.9432431,1042,8226.74878
D1,Cachoeira Alta/GO,-18.7618269,-50.9432431,14,110.53213
1,Cachoeira Dourada/GO,-18.4934204,-49.481062,361,4495.08156
D1,Cachoeira Dourada/GO,-18.4934204,-49.481062,8,99.61400
1,Cachoeira Dourada/MG,-18.517136,-49.5002062,123,4545.45455
D1,Cachoeira Dourada/MG,-18.517136,-49.5002062,2,73.90983
1,Cachoeira Grande/MA,-2.9290492,-44.0573223,207,2184.00506
D1,Cachoeira Grande/MA,-2.9290492,-44.0573223,5,52.75375
1,Cachoeira Paulista/SP,-22.666498,-45.015384,1560,4645.48405
D1,Cachoeira Paulista/SP,-22.666498,-45.015384,27,80.40261
1,Cachoeira da Prata/MG,-19.524723,-44.453056,193,5374.54748
D1,Cachoeira da Prata/MG,-19.524723,-44.453056,3,83.54219
1,Cachoeira de Goiás/GO,-16.6688414,-50.6435997,48,3576.75112
1,Cachoeira de Minas/MG,-22.3554043,-45.7796324,473,4084.98143
D1,Cachoeira de Minas/MG,-22.3554043,-45.7796324,6,51.81795
1,Cachoeira de Pajeú/MG,-15.965833,-41.496666,293,3103.15611
D1,Cachoeira de Pajeú/MG,-15.965833,-41.496666,7,74.13684
1,Cachoeira do Arari/PA,-1.0143572,-48.9621089,350,1454.45479
D1,Cachoeira do Arari/PA,-1.0143572,-48.9621089,15,62.33378
1,Cachoeira do Piriá/PA,-1.7599443,-46.5446954,674,1947.47031
D1,Cachoeira do Piriá/PA,-1.7599443,-46.5446954,3,8.66827
1,Cachoeira do Sul/RS,-30.0474778,-52.8905413,5347,6531.16564
D1,Cachoeira do Sul/RS,-30.0474778,-52.8905413,82,100.16001
1,Cachoeira dos Índios/PB,-6.9259193,-38.6742159,506,4910.23775
D1,Cachoeira dos Índios/PB,-6.9259193,-38.6742159,13,126.15235
1,Cachoeira/BA,-12.5998256,-38.9665918,1106,3294.90273
D1,Cachoeira/BA,-12.5998256,-38.9665918,17,50.64498
1,Cachoeiras de Macacu/RJ,-22.4626861,-42.6534414,2191,3694.58543
D1,Cachoeiras de Macacu/RJ,-22.4626861,-42.6534414,70,118.03787
1,Cachoeirinha/PE,-8.4906364,-36.2338963,360,1756.01190
D1,Cachoeirinha/PE,-8.4906364,-36.2338963,22,107.31184
1,Cachoeirinha/RS,-29.9493353,-51.0898927,9886,7532.76440
D1,Cachoeirinha/RS,-29.9493353,-51.0898927,307,233.92258
1,Cachoeirinha/TO,-6.118647,-47.9208885,116,5078.80911
D1,Cachoeirinha/TO,-6.118647,-47.9208885,2,87.56567
1,Cachoeiro de Itapemirim/ES,-20.848084,-41.11129,20702,9830.52296
D1,Cachoeiro de Itapemirim/ES,-20.848084,-41.11129,398,188.99373
1,Cacimba de Areia/PB,-7.1288513,-37.1575194,27,730.71719
D1,Cacimba de Areia/PB,-7.1288513,-37.1575194,1,27.06360
1,Cacimba de Dentro/PB,-6.6425101,-35.7929304,821,4779.36896
D1,Cacimba de Dentro/PB,-6.6425101,-35.7929304,21,122.24939
1,Cacimbas/PB,-7.2125451,-37.0593398,190,2639.25545
D1,Cacimbas/PB,-7.2125451,-37.0593398,6,83.34491
1,Cacimbinhas/AL,-9.401212,-36.991082,455,4178.52879
D1,Cacimbinhas/AL,-9.401212,-36.991082,6,55.10148
1,Cacique Doble/RS,-27.7700117,-51.6616409,300,5912.49507
D1,Cacique Doble/RS,-27.7700117,-51.6616409,5,98.54158
1,Cacoal/RO,-11.4333,-61.4420502,10035,11683.14065
D1,Cacoal/RO,-11.4333,-61.4420502,166,193.26371
1,Caconde/SP,-21.527995,-46.643659,863,4539.95476
D1,Caconde/SP,-21.527995,-46.643659,9,47.34599
1,Caculé/BA,-14.4990734,-42.2233006,1136,4877.42046
D1,Caculé/BA,-14.4990734,-42.2233006,11,47.22854
1,Caetanos/BA,-14.3387456,-40.9085971,488,3340.63527
D1,Caetanos/BA,-14.3387456,-40.9085971,7,47.91895
1,Caetanópolis/MG,-19.2947496,-44.4138386,690,5872.84024
D1,Caetanópolis/MG,-19.2947496,-44.4138386,6,51.06818
1,Caetité/BA,-14.0691776,-42.4852428,1702,3331.96296
D1,Caetité/BA,-14.0691776,-42.4852428,13,25.44978
1,Caeté/MG,-19.897777,-43.670278,1244,2761.56015
D1,Caeté/MG,-19.897777,-43.670278,36,79.91653
1,Caetés/PE,-8.7728788,-36.6255835,999,3456.26903
D1,Caetés/PE,-8.7728788,-36.6255835,11,38.05702
1,Cafarnaum/BA,-11.691399,-41.468823,732,3953.97829
D1,Cafarnaum/BA,-11.691399,-41.468823,15,81.02415
1,Cafeara/PR,-22.78905,-51.714195,210,7109.00474
D1,Cafeara/PR,-22.78905,-51.714195,5,169.26202
1,Cafelândia/PR,-24.6176963,-53.3218057,1284,6957.08713
D1,Cafelândia/PR,-24.6176963,-53.3218057,9,48.76463
1,Cafelândia/SP,-21.8054355,-49.6030627,626,3508.37864
D1,Cafelândia/SP,-21.8054355,-49.6030627,27,151.31985
1,Cafezal do Sul/PR,-23.900508,-53.512418,185,4614.61711
D1,Cafezal do Sul/PR,-23.900508,-53.512418,2,49.88775
1,Caiabu/SP,-22.0143038,-51.2356597,63,1502.50417
D1,Caiabu/SP,-22.0143038,-51.2356597,4,95.39709
1,Caiana/MG,-20.695555,-41.924723,109,1967.15394
D1,Caiana/MG,-20.695555,-41.924723,2,36.09457
1,Caiapônia/GO,-16.9538779,-51.8090761,818,4281.15350
D1,Caiapônia/GO,-16.9538779,-51.8090761,26,136.07578
1,Caibaté/RS,-28.290475,-54.645407,113,2342.94008
D1,Caibaté/RS,-28.290475,-54.645407,7,145.13788
1,Caibi/SC,-27.0751925,-53.2502133,496,8091.35400
D1,Caibi/SC,-27.0751925,-53.2502133,9,146.81892
1,Caicó/RN,-6.4594544,-37.0971911,8452,12367.03101
D1,Caicó/RN,-6.4594544,-37.0971911,100,146.32076
1,Caieiras/SP,-23.3644621,-46.7484765,5527,5377.76697
D1,Caieiras/SP,-23.3644621,-46.7484765,179,174.16687
1,Cairu/BA,-13.4860505,-39.0455744,988,5361.69751
D1,Cairu/BA,-13.4860505,-39.0455744,9,48.84137
1,Caiuá/SP,-21.8319357,-51.9887179,216,3632.69425
D1,Caiuá/SP,-21.8319357,-51.9887179,4,67.27212
1,Caiçara do Norte/RN,-5.0645017,-36.0561226,245,3734.18686
D1,Caiçara do Norte/RN,-5.0645017,-36.0561226,6,91.44947
1,Caiçara do Rio do Vento/RN,-5.757968,-36.00089,179,4818.30417
D1,Caiçara do Rio do Vento/RN,-5.757968,-36.00089,6,161.50740
1,Caiçara/PB,-6.6146866,-35.4681434,578,8037.82506
D1,Caiçara/PB,-6.6146866,-35.4681434,13,180.78153
1,Caiçara/RS,-27.2750478,-53.4310053,391,8319.14894
D1,Caiçara/RS,-27.2750478,-53.4310053,7,148.93617
1,Cajamar/SP,-23.3561111,-46.8769444,3108,3987.98984
D1,Cajamar/SP,-23.3561111,-46.8769444,118,151.41017
1,Cajapió/MA,-2.8778715,-44.6746871,68,606.27675
D1,Cajapió/MA,-2.8778715,-44.6746871,3,26.74750
1,Cajari/MA,-3.3213076,-45.0118757,140,719.75734
D1,Cajari/MA,-3.3213076,-45.0118757,4,20.56450
1,Cajati/SP,-24.7272376,-48.1077914,2751,9654.66414
D1,Cajati/SP,-24.7272376,-48.1077914,64,224.60869
1,Cajazeiras do Piauí/PI,-6.794271,-42.3935024,31,867.61825
D1,Cajazeiras do Piauí/PI,-6.794271,-42.3935024,1,27.98769
1,Cajazeiras/PB,-6.8897849,-38.5570389,5992,9619.67603
D1,Cajazeiras/PB,-6.8897849,-38.5570389,107,171.77993
1,Cajazeirinhas/PB,-6.961442,-37.7993733,106,3307.33229
1,Cajobi/SP,-20.8776238,-48.8106972,594,5605.88901
D1,Cajobi/SP,-20.8776238,-48.8106972,21,198.18800
1,Cajueiro da Praia/PI,-2.931114,-41.340801,463,6033.35940
D1,Cajueiro da Praia/PI,-2.931114,-41.340801,12,156.37217
1,Cajueiro/AL,-9.399589,-36.1524309,467,2189.30195
D1,Cajueiro/AL,-9.399589,-36.1524309,18,84.38423
1,Cajuri/MG,-20.7901414,-42.7954489,236,5938.60091
D1,Cajuri/MG,-20.7901414,-42.7954489,1,25.16356
1,Cajuru/SP,-21.2759978,-47.3046035,580,2197.55238
D1,Cajuru/SP,-21.2759978,-47.3046035,19,71.98878
1,Caldas Brandão/PB,-7.1027959,-35.3254676,429,7095.60040
D1,Caldas Brandão/PB,-7.1027959,-35.3254676,6,99.23917
1,Caldas Novas/GO,-17.745,-48.625,6496,6970.25623
D1,Caldas Novas/GO,-17.745,-48.625,143,153.44006
1,Caldas/MG,-21.923611,-46.386111,528,3631.11203
D1,Caldas/MG,-21.923611,-46.386111,14,96.27949
1,Caldazinha/GO,-16.7116649,-49.0012601,194,5041.58004
D1,Caldazinha/GO,-16.7116649,-49.0012601,2,51.97505
1,Caldeirão Grande do Piauí/PI,-7.3310393,-40.6374433,251,4341.80938
D1,Caldeirão Grande do Piauí/PI,-7.3310393,-40.6374433,2,34.59609
1,Caldeirão Grande/BA,-11.0208483,-40.3041387,533,3980.28527
D1,Caldeirão Grande/BA,-11.0208483,-40.3041387,6,44.80621
1,Califórnia/PR,-23.6672543,-51.3554556,696,8087.38090
D1,Califórnia/PR,-23.6672543,-51.3554556,13,151.05740
1,Calmon/SC,-26.6023644,-51.0992893,22,659.67016
D1,Calmon/SC,-26.6023644,-51.0992893,3,89.95502
1,Calumbi/PE,-7.9389746,-38.1516871,379,6594.74508
D1,Calumbi/PE,-7.9389746,-38.1516871,2,34.80077
1,Calçado/PE,-8.7413446,-36.3351787,303,2750.04538
D1,Calçado/PE,-8.7413446,-36.3351787,2,18.15211
1,Calçoene/AP,2.4981757,-50.9539503,1583,14001.41518
D1,Calçoene/AP,2.4981757,-50.9539503,9,79.60375
1,Camacan/BA,-15.4166631,-39.4930088,2244,7011.18540
D1,Camacan/BA,-15.4166631,-39.4930088,50,156.22071
1,Camacho/MG,-20.625556,-45.156667,49,1707.91216
D1,Camacho/MG,-20.625556,-45.156667,1,34.85535
1,Camalaú/PB,-7.885031,-36.824191,315,5223.01443
D1,Camalaú/PB,-7.885031,-36.824191,5,82.90499
1,Camamu/BA,-13.9438142,-39.1060917,1853,5237.12622
D1,Camamu/BA,-13.9438142,-39.1060917,36,101.74665
1,Camanducaia/MG,-22.755278,-46.144444,2130,9770.19403
D1,Camanducaia/MG,-22.755278,-46.144444,39,178.89088
1,Camapuã/MS,-19.5291747,-54.0434641,509,3717.22778
D1,Camapuã/MS,-19.5291747,-54.0434641,16,116.84802
1,Camaquã/RS,-30.8524752,-51.8075619,4949,7444.56813
D1,Camaquã/RS,-30.8524752,-51.8075619,94,141.40016
1,Camaragibe/PE,-8.0213832,-34.9810768,4068,2560.11680
D1,Camaragibe/PE,-8.0213832,-34.9810768,269,169.28993
1,Camargo/RS,-28.5865661,-52.2031474,269,9810.35740
D1,Camargo/RS,-28.5865661,-52.2031474,4,145.87892
1,Camaçari/BA,-12.6998188,-38.3260762,19023,6251.35556
D1,Camaçari/BA,-12.6998188,-38.3260762,456,149.85113
1,Cambará do Sul/RS,-29.0489517,-50.145412,287,4480.17484
D1,Cambará do Sul/RS,-29.0489517,-50.145412,6,93.66219
1,Cambará/PR,-23.042273,-50.075281,1643,6451.73957
D1,Cambará/PR,-23.042273,-50.075281,27,106.02372
1,Cambira/PR,-23.600265,-51.581045,539,6808.13439
D1,Cambira/PR,-23.600265,-51.581045,13,164.20361
1,Camboriú/SC,-27.0273601,-48.6535657,10471,12303.62493
D1,Camboriú/SC,-27.0273601,-48.6535657,123,144.52735
1,Cambuci/RJ,-21.5749919,-41.9107833,627,4041.51089
D1,Cambuci/RJ,-21.5749919,-41.9107833,17,109.57845
1,Cambuquira/MG,-21.853056,-45.2953619,337,2630.34655
D1,Cambuquira/MG,-21.853056,-45.2953619,10,78.05183
1,Cambuí/MG,-22.6122501,-46.0572137,2017,6765.27806
D1,Cambuí/MG,-22.6122501,-46.0572137,30,100.62387
1,Cambé/PR,-23.2782035,-51.2779583,8375,7802.23773
D1,Cambé/PR,-23.2782035,-51.2779583,151,140.67318
1,Cametá/PA,-2.242949,-49.497885,6608,4741.54014
D1,Cametá/PA,-2.242949,-49.497885,159,114.08972
1,Camocim de São Félix/PE,-8.3616757,-35.7638903,372,1968.25397
D1,Camocim de São Félix/PE,-8.3616757,-35.7638903,12,63.49206
1,Camocim/CE,-2.9009918,-40.8427389,3760,5883.54953
D1,Camocim/CE,-2.9009918,-40.8427389,116,181.51376
1,Campanha/MG,-21.8361108,-45.401986,969,5780.93306
D1,Campanha/MG,-21.8361108,-45.401986,21,125.28338
1,Campanário/MG,-18.2398144,-41.7271768,154,4128.68633
D1,Campanário/MG,-18.2398144,-41.7271768,1,26.80965
1,Campestre da Serra/RS,-28.7966535,-51.0958149,133,3917.52577
1,Campestre de Goiás/GO,-16.7624179,-49.69497,368,10084.95478
D1,Campestre de Goiás/GO,-16.7624179,-49.69497,9,246.64292
1,Campestre do Maranhão/MA,-6.1729113,-47.3640512,818,5659.72462
D1,Campestre do Maranhão/MA,-6.1729113,-47.3640512,34,235.24528
1,Campestre/AL,-8.8481634,-35.5660033,220,3163.64682
D1,Campestre/AL,-8.8481634,-35.5660033,6,86.28128
1,Campestre/MG,-19.6142116,-43.219378,733,3481.52370
D1,Campestre/MG,-19.6142116,-43.219378,13,61.74599
1,Campina Grande do Sul/PR,-25.3046032,-49.0545355,3905,8938.99508
D1,Campina Grande do Sul/PR,-25.3046032,-49.0545355,68,155.65984
1,Campina Grande/PB,-7.2246743,-35.8771292,24750,6010.09696
D1,Campina Grande/PB,-7.2246743,-35.8771292,701,170.22537
1,Campina Verde/MG,-19.535277,-49.486389,676,3422.43823
D1,Campina Verde/MG,-19.535277,-49.486389,22,111.38113
1,Campina da Lagoa/PR,-24.5937926,-52.8038965,663,4721.21342
D1,Campina da Lagoa/PR,-24.5937926,-52.8038965,13,92.57281
1,Campina das Missões/RS,-27.9883295,-54.8411665,356,6595.03520
D1,Campina das Missões/RS,-27.9883295,-54.8411665,7,129.67766
1,Campina do Monte Alegre/SP,-23.5935653,-48.4801876,319,5266.63365
D1,Campina do Monte Alegre/SP,-23.5935653,-48.4801876,4,66.03929
1,Campina do Simão/PR,-25.1086375,-51.8076658,207,5364.08396
D1,Campina do Simão/PR,-25.1086375,-51.8076658,6,155.48069
1,Campinas do Piauí/PI,-7.6593687,-41.8814875,138,2455.51601
D1,Campinas do Piauí/PI,-7.6593687,-41.8814875,1,17.79359
