type,name,lat,lon,total,total_per_100k_inhabitants
1,Abadia de Goiás/GO,-16.7572644,-49.4412205,728,8126.81402
D1,Abadia de Goiás/GO,-16.7572644,-49.4412205,7,78.14244
1,Abadia dos Dourados/MG,-18.4911191,-47.4063589,108,1541.53583
D1,Abadia dos Dourados/MG,-18.4911191,-47.4063589,1,14.27348
1,Abadiânia/GO,-16.1940946,-48.7067767,183,894.38444
D1,Abadiânia/GO,-16.1940946,-48.7067767,12,58.64816
1,Abaetetuba/PA,-1.721828,-48.878843,3608,2268.04124
D1,Abaetetuba/PA,-1.721828,-48.878843,119,74.80513
1,Abaeté/MG,-19.1566833,-45.4481213,132,567.74194
D1,Abaeté/MG,-19.1566833,-45.4481213,3,12.90323
1,Abaiara/CE,-7.3607808,-39.0487878,122,1029.27529
D1,Abaiara/CE,-7.3607808,-39.0487878,3,25.31005
1,Abaré/BA,-8.7239913,-39.1139689,138,678.23266
1,Abatiá/PR,-23.3052967,-50.3102532,94,1268.89849
D1,Abatiá/PR,-23.3052967,-50.3102532,1,13.49892
1,Abaíra/BA,-13.2503296,-41.6640342,137,1572.90471
D1,Abaíra/BA,-13.2503296,-41.6640342,1,11.48106
1,Abdon Batista/SC,-27.612419,-51.022992,148,5808.47724
1,Abel Figueiredo/PA,-4.953001,-48.3958485,412,5503.60673
D1,Abel Figueiredo/PA,-4.953001,-48.3958485,2,26.71654
1,Abelardo Luz/SC,-26.5705893,-52.3280339,563,3134.74388
D1,Abelardo Luz/SC,-26.5705893,-52.3280339,9,50.11136
1,Abre Campo/MG,-20.2976097,-42.4764741,145,1078.54805
D1,Abre Campo/MG,-20.2976097,-42.4764741,1,7.43826
1,Abreu e Lima/PE,-7.900719,-34.898389,1003,999.54159
D1,Abreu e Lima/PE,-7.900719,-34.898389,127,126.56210
1,Abreulândia/TO,-9.6221526,-49.1558343,94,3623.74711
D1,Abreulândia/TO,-9.6221526,-49.1558343,4,154.20200
1,Acaiaca/MG,-20.3621646,-43.1444162,70,1752.62894
D1,Acaiaca/MG,-20.3621646,-43.1444162,3,75.11267
1,Acajutiba/BA,-11.6609659,-38.0186381,208,1369.59241
D1,Acajutiba/BA,-11.6609659,-38.0186381,6,39.50747
1,Acarape/CE,-4.2237866,-38.7071663,1930,12835.86060
D1,Acarape/CE,-4.2237866,-38.7071663,15,99.76057
1,Acaraú/CE,-2.8869514,-40.1194713,2741,4343.62323
D1,Acaraú/CE,-2.8869514,-40.1194713,58,91.91176
1,Acari/RN,-6.4364689,-36.6394777,200,1798.39942
D1,Acari/RN,-6.4364689,-36.6394777,7,62.94398
1,Acará/PA,-1.961388,-48.1987043,866,1555.62342
D1,Acará/PA,-1.961388,-48.1987043,16,28.74131
1,Acauã/PI,-8.219542,-41.083059,67,943.39623
1,Aceguá/RS,-31.8695131,-54.1615593,28,566.57224
1,Acopiara/CE,-6.0936464,-39.4543204,1326,2433.87603
D1,Acopiara/CE,-6.0936464,-39.4543204,51,93.61062
1,Acorizal/MT,-15.2001544,-56.3668953,199,3730.78365
D1,Acorizal/MT,-15.2001544,-56.3668953,7,131.23360
1,Acrelândia/AC,-10.0759167,-67.0526898,516,3331.18141
D1,Acrelândia/AC,-10.0759167,-67.0526898,11,71.01356
1,Acreúna/GO,-17.3959899,-50.3749031,1032,4577.30861
D1,Acreúna/GO,-17.3959899,-50.3749031,25,110.88441
1,Adamantina/SP,-21.6866517,-51.0762975,537,1529.43522
D1,Adamantina/SP,-21.6866517,-51.0762975,14,39.87354
1,Adelândia/GO,-16.4155077,-50.1665834,87,3457.86963
D1,Adelândia/GO,-16.4155077,-50.1665834,2,79.49126
1,Adolfo/SP,-21.2356597,-49.6441918,135,3798.53686
D1,Adolfo/SP,-21.2356597,-49.6441918,5,140.68655
1,Adrianópolis/PR,-24.6557863,-48.9912769,200,3414.71743
D1,Adrianópolis/PR,-24.6557863,-48.9912769,4,68.29435
1,Adustina/BA,-10.5358875,-38.114479,125,729.88439
D1,Adustina/BA,-10.5358875,-38.114479,3,17.51723
1,Afogados da Ingazeira/PE,-7.750429,-37.6356375,1481,3959.46958
D1,Afogados da Ingazeira/PE,-7.750429,-37.6356375,21,56.14373
1,Afonso Bezerra/RN,-5.4745,-36.57625071327935,183,1659.26195
D1,Afonso Bezerra/RN,-5.4745,-36.57625071327935,11,99.73706
1,Afonso Cláudio/ES,-20.077841,-41.12606,1249,4101.13282
D1,Afonso Cláudio/ES,-20.077841,-41.12606,21,68.95419
1,Afonso Cunha/MA,-4.1326105,-43.3230026,152,2310.73275
D1,Afonso Cunha/MA,-4.1326105,-43.3230026,2,30.40438
1,Afrânio/PE,-8.5198919,-41.0070197,278,1403.33165
D1,Afrânio/PE,-8.5198919,-41.0070197,2,10.09591
1,Afuá/PA,-0.1535664,-50.3879223,2354,5949.40228
D1,Afuá/PA,-0.1535664,-50.3879223,11,27.80095
1,Agrestina/PE,-8.4558021,-35.9442663,619,2469.57909
D1,Agrestina/PE,-8.4558021,-35.9442663,33,131.65769
1,Agricolândia/PI,-5.7967843,-42.6605131,65,1266.80959
1,Agrolândia/SC,-27.4122212,-49.8295774,294,2669.57232
D1,Agrolândia/SC,-27.4122212,-49.8295774,6,54.48107
1,Agronômica/SC,-27.2660744,-49.7104753,157,2849.88201
D1,Agronômica/SC,-27.2660744,-49.7104753,5,90.76057
1,Aguanil/MG,-20.9424533,-45.3927152,97,2145.06855
D1,Aguanil/MG,-20.9424533,-45.3927152,3,66.34233
1,Aguaí/SP,-22.0592036,-46.979384,392,1069.63545
D1,Aguaí/SP,-22.0592036,-46.979384,8,21.82929
1,Agudo/RS,-29.6423259,-53.2494005,121,737.75989
D1,Agudo/RS,-29.6423259,-53.2494005,1,6.09719
1,Agudos do Sul/PR,-25.9890808,-49.3328175,123,1298.83844
D1,Agudos do Sul/PR,-25.9890808,-49.3328175,1,10.55966
1,Agudos/SP,-22.471162,-48.987822,883,2360.89944
D1,Agudos/SP,-22.471162,-48.987822,17,45.45333
1,Aguiar/PB,-7.0928404,-38.1727215,48,852.57549
1,Aguiarnópolis/TO,-6.5600452,-47.4721189,447,6485.78062
D1,Aguiarnópolis/TO,-6.5600452,-47.4721189,9,130.58619
1,Aimorés/MG,-19.4917754,-41.0615603,534,2124.02052
D1,Aimorés/MG,-19.4917754,-41.0615603,8,31.82053
1,Aiquara/BA,-14.126918,-39.8887574,313,7087.86232
D1,Aiquara/BA,-14.126918,-39.8887574,5,113.22464
1,Aiuaba/CE,-6.5710836,-40.1212278,70,400.16006
D1,Aiuaba/CE,-6.5710836,-40.1212278,1,5.71657
1,Aiuruoca/MG,-21.9759554,-44.6036637,23,384.87282
D1,Aiuruoca/MG,-21.9759554,-44.6036637,4,66.93440
1,Ajuricaba/RS,-28.239654,-53.7693013,331,4737.36940
D1,Ajuricaba/RS,-28.239654,-53.7693013,2,28.62459
1,Alagoa Grande/PB,-7.0415212,-35.6285322,1696,5963.64148
D1,Alagoa Grande/PB,-7.0415212,-35.6285322,29,101.97264
1,Alagoa Nova/PB,-7.0653703,-35.76695977336711,419,2002.77233
D1,Alagoa Nova/PB,-7.0653703,-35.76695977336711,10,47.79886
1,Alagoa/MG,-22.1697202,-44.6400042,38,1425.89118
1,Alagoinha do Piauí/PI,-7.0090952,-40.939675,150,1956.94716
D1,Alagoinha do Piauí/PI,-7.0090952,-40.939675,5,65.23157
1,Alagoinha/PB,-6.97063215,-35.51490901897793,1092,7500.00000
D1,Alagoinha/PB,-6.97063215,-35.51490901897793,12,82.41758
1,Alagoinha/PE,-8.50355635,-36.77701174370496,237,1610.27313
D1,Alagoinha/PE,-8.50355635,-36.77701174370496,10,67.94401
1,Alagoinhas/BA,-12.133526,-38.420772,6087,3996.00859
D1,Alagoinhas/BA,-12.133526,-38.420772,91,59.73990
1,Alambari/SP,-23.550338,-47.897971,91,1484.74466
D1,Alambari/SP,-23.550338,-47.897971,4,65.26350
1,Albertina/MG,-20.66164,-43.784039,51,1693.78944
D1,Albertina/MG,-20.66164,-43.784039,5,166.05779
1,Alcantil/PB,-7.7425491,-36.0609604,84,1524.77764
1,Alcinópolis/MS,-18.3264121,-53.7094463,31,572.27248
D1,Alcinópolis/MS,-18.3264121,-53.7094463,2,36.92080
1,Alcobaça/BA,-17.5215875,-39.1965474,800,3557.13651
D1,Alcobaça/BA,-17.5215875,-39.1965474,13,57.80347
1,Alcântara/MA,-2.4038956,-44.4154241,202,913.53111
D1,Alcântara/MA,-2.4038956,-44.4154241,8,36.17945
1,Alcântaras/CE,-3.586247,-40.5457641,554,4702.48706
D1,Alcântaras/CE,-3.586247,-40.5457641,4,33.95298
1,Aldeias Altas/MA,-4.6291957,-43.4708622,947,3539.26075
D1,Aldeias Altas/MA,-4.6291957,-43.4708622,11,41.11074
1,Alecrim/RS,-27.6566142,-54.7653195,29,497.68320
D1,Alecrim/RS,-27.6566142,-54.7653195,1,17.16149
1,Alegre/ES,-20.7625787,-41.5318886,591,1971.64304
D1,Alegre/ES,-20.7625787,-41.5318886,21,70.05838
1,Alegrete do Piauí/PI,-7.2440138,-40.8602296,347,7055.71370
D1,Alegrete do Piauí/PI,-7.2440138,-40.8602296,3,61.00041
1,Alegrete/RS,-29.790166,-55.794862,1686,2308.70351
D1,Alegrete/RS,-29.790166,-55.794862,23,31.49477
1,Alegria/RS,-27.8332103,-54.0574959,122,3615.88619
1,Alenquer/PA,-1.946229,-54.738355,1566,2742.94122
D1,Alenquer/PA,-1.946229,-54.738355,30,52.54677
1,Alexandria/RN,-6.414779,-38.0135516,252,1859.36693
D1,Alexandria/RN,-6.414779,-38.0135516,5,36.89220
1,Alexânia/GO,-16.0834049,-48.5077803,1350,4819.70725
D1,Alexânia/GO,-16.0834049,-48.5077803,22,78.54338
1,Alfenas/MG,-21.4297405,-45.9479419,2271,2821.32830
D1,Alfenas/MG,-21.4297405,-45.9479419,61,75.78205
1,Alfredo Chaves/ES,-20.624970400000002,-40.75006690147988,865,5910.08472
D1,Alfredo Chaves/ES,-20.624970400000002,-40.75006690147988,8,54.65974
1,Alfredo Marcondes/SP,-21.9527,-51.413956,82,1959.84704
D1,Alfredo Marcondes/SP,-21.9527,-51.413956,3,71.70172
1,Alfredo Vasconcelos/MG,-21.145833,-43.776389,28,401.08867
D1,Alfredo Vasconcelos/MG,-21.145833,-43.776389,1,14.32460
1,Alfredo Wagner/SC,-27.6961513,-49.3326734,265,2627.40432
D1,Alfredo Wagner/SC,-27.6961513,-49.3326734,1,9.91473
1,Algodão de Jandaíra/PB,-6.9040175,-36.0089879,31,1202.94917
1,Alhandra/PB,-7.4304246,-34.9106103,743,3766.41152
D1,Alhandra/PB,-7.4304246,-34.9106103,19,96.31470
1,Aliança do Tocantins/TO,-11.3055927,-48.9409096,191,3572.76468
D1,Aliança do Tocantins/TO,-11.3055927,-48.9409096,3,56.11672
1,Aliança/PE,-7.60398,-35.222696,403,1049.56116
D1,Aliança/PE,-7.60398,-35.222696,30,78.13110
1,Almadina/BA,-14.70466,-39.6381994,375,6988.44577
D1,Almadina/BA,-14.70466,-39.6381994,7,130.45099
1,Almas/TO,-11.5681309,-47.1702803,104,1490.18484
D1,Almas/TO,-11.5681309,-47.1702803,2,28.65740
1,Almeirim/PA,-1.5290377,-52.5788111,269,789.41190
D1,Almeirim/PA,-1.5290377,-52.5788111,18,52.82310
1,Almenara/MG,-16.1740678,-40.6904907,1064,2524.73720
D1,Almenara/MG,-16.1740678,-40.6904907,12,28.47448
1,Almino Afonso/RN,-6.1544208,-37.7649018,71,1507.43100
1,Almirante Tamandaré do Sul/RS,-28.1141129,-52.9134874,43,2206.25962
1,Almirante Tamandaré/PR,-25.3133048,-49.2997838,2832,2359.19394
D1,Almirante Tamandaré/PR,-25.3133048,-49.2997838,66,54.98121
1,Aloândia/GO,-17.7277983,-49.4809338,141,7099.69789
D1,Aloândia/GO,-17.7277983,-49.4809338,5,251.76234
1,Alpercata/MG,-18.9803616,-41.9827637,234,3146.85315
D1,Alpercata/MG,-18.9803616,-41.9827637,7,94.13663
1,Alpestre/RS,-27.2512339,-53.0349646,65,1071.36970
D1,Alpestre/RS,-27.2512339,-53.0349646,2,32.96522
1,Alpinópolis/MG,-20.863611,-46.387777,149,746.56779
D1,Alpinópolis/MG,-20.863611,-46.387777,5,25.05261
1,Alta Floresta D'Oeste/RO,-11.9296917,-61.9961284,1010,4443.85780
D1,Alta Floresta D'Oeste/RO,-11.9296917,-61.9961284,14,61.59803
1,Alta Floresta/MT,-9.8715018,-56.0839881,1679,3231.39398
D1,Alta Floresta/MT,-9.8715018,-56.0839881,26,50.03945
1,Altair/SP,-20.5238955,-49.0606135,51,1218.34687
D1,Altair/SP,-20.5238955,-49.0606135,3,71.66746
1,Altamira do Maranhão/MA,-4.1643006,-45.4674574,274,3345.95189
D1,Altamira do Maranhão/MA,-4.1643006,-45.4674574,6,73.26902
1,Altamira do Paraná/PR,-24.799114,-52.7128633,23,1367.41974
D1,Altamira do Paraná/PR,-24.799114,-52.7128633,2,118.90606
1,Altamira/PA,-3.204065,-52.209961,5216,4497.75371
D1,Altamira/PA,-3.204065,-52.209961,128,110.37432
1,Altaneira/CE,-6.9980933,-39.7385742,192,2509.80392
D1,Altaneira/CE,-6.9980933,-39.7385742,2,26.14379
1,Alterosa/MG,-21.249166,-46.143055,29,199.76579
D1,Alterosa/MG,-21.249166,-46.143055,2,13.77695
1,Altinho/PE,-8.4904095,-36.0607494,557,2423.42499
D1,Altinho/PE,-8.4904095,-36.0607494,11,47.85938
1,Altinópolis/SP,-21.021364,-47.3712,244,1505.89397
D1,Altinópolis/SP,-21.021364,-47.3712,8,49.37357
1,Alto Alegre do Maranhão/MA,-4.2055693,-44.4525287,394,1414.31546
D1,Alto Alegre do Maranhão/MA,-4.2055693,-44.4525287,15,53.84450
1,Alto Alegre do Pindaré/MA,-3.6698186,-45.8462153,1504,4708.38681
D1,Alto Alegre do Pindaré/MA,-3.6698186,-45.8462153,24,75.13383
1,Alto Alegre dos Parecis/RO,-12.1314515,-61.856265,222,1674.83968
D1,Alto Alegre dos Parecis/RO,-12.1314515,-61.856265,9,67.89891
1,Alto Alegre/RR,2.98858,-61.307167,782,5084.52536
D1,Alto Alegre/RR,2.98858,-61.307167,18,117.03511
1,Alto Alegre/RS,-31.780844700000003,-52.81311114489171,18,1115.93304
1,Alto Alegre/SP,-21.5820592,-50.1661976,83,2030.33268
D1,Alto Alegre/SP,-21.5820592,-50.1661976,3,73.38552
1,Alto Araguaia/MT,-17.3156528,-53.2169365,443,2285.27212
D1,Alto Araguaia/MT,-17.3156528,-53.2169365,8,41.26902
1,Alto Bela Vista/SC,-27.4320737,-51.905771,32,1661.47456
D1,Alto Bela Vista/SC,-27.4320737,-51.905771,1,51.92108
1,Alto Boa Vista/MT,-11.6723985,-51.3744431,96,1384.08304
D1,Alto Boa Vista/MT,-11.6723985,-51.3744431,3,43.25260
1,Alto Caparaó/MG,-20.4405661,-41.8683799,110,1866.30472
D1,Alto Caparaó/MG,-20.4405661,-41.8683799,1,16.96641
1,Alto Feliz/RS,-29.3785943,-51.3123751,48,1581.02767
1,Alto Garças/MT,-16.9469683,-53.529427,297,2444.24327
D1,Alto Garças/MT,-16.9469683,-53.529427,14,115.21685
1,Alto Horizonte/GO,-14.1954948,-49.3366993,210,3179.40954
D1,Alto Horizonte/GO,-14.1954948,-49.3366993,2,30.28009
1,Alto Jequitibá/MG,-20.423611,-41.966111,183,2204.55367
D1,Alto Jequitibá/MG,-20.423611,-41.966111,5,60.23371
1,Alto Longá/PI,-5.2549051,-42.2072388,258,1799.28865
D1,Alto Longá/PI,-5.2549051,-42.2072388,6,41.84392
1,Alto Paraguai/MT,-14.513712,-56.4936374,324,2824.02162
D1,Alto Paraguai/MT,-14.513712,-56.4936374,9,78.44504
1,Alto Paraná/PR,-23.131247,-52.318893,199,1339.25567
D1,Alto Paraná/PR,-23.131247,-52.318893,1,6.72993
1,Alto Paraíso de Goiás/GO,-14.1304779,-47.5100161,355,4617.58585
1,Alto Paraíso/PR,-23.508137,-53.728537,17,633.14711
1,Alto Paraíso/RO,-9.7240103,-63.3188123,421,1927.03804
D1,Alto Paraíso/RO,-9.7240103,-63.3188123,8,36.61830
1,Alto Parnaíba/MA,-9.112506,-45.9310154,441,3933.28577
D1,Alto Parnaíba/MA,-9.112506,-45.9310154,4,35.67606
1,Alto Piquiri/PR,-24.0239021,-53.4417448,129,1319.28820
D1,Alto Piquiri/PR,-24.0239021,-53.4417448,4,40.90816
1,Alto Rio Doce/MG,-21.0239537,-43.4133507,94,865.64140
D1,Alto Rio Doce/MG,-21.0239537,-43.4133507,2,18.41790
1,Alto Rio Novo/ES,-19.0577208,-41.0171518,313,3975.10795
D1,Alto Rio Novo/ES,-19.0577208,-41.0171518,13,165.10033
1,Alto Santo/CE,-5.5190371,-38.2719351,499,2901.83764
D1,Alto Santo/CE,-5.5190371,-38.2719351,13,75.59898
1,Alto Taquari/MT,-17.8269099,-53.2831736,458,4113.89563
D1,Alto Taquari/MT,-17.8269099,-53.2831736,6,53.89383
1,Alto do Rodrigues/RN,-5.290868,-36.7616726,584,3965.23628
D1,Alto do Rodrigues/RN,-5.290868,-36.7616726,18,122.21619
1,Altos/PI,-5.0393915,-42.4611694,2007,4942.74104
D1,Altos/PI,-5.0393915,-42.4611694,29,71.41978
1,Altônia/PR,-23.8722004,-53.894037,251,1131.85426
D1,Altônia/PR,-23.8722004,-53.894037,3,13.52814
1,Alumínio/SP,-23.5203479,-47.2575256,327,1742.42021
D1,Alumínio/SP,-23.5203479,-47.2575256,10,53.28502
1,Alvarenga/MG,-19.4175,-41.728334,137,3563.99584
D1,Alvarenga/MG,-19.4175,-41.728334,1,26.01457
1,Alvarães/AM,-3.214786,-64.8143124,1390,8569.66708
D1,Alvarães/AM,-3.214786,-64.8143124,21,129.46979
1,Alvinlândia/SP,-22.4431852,-49.7643596,27,834.10565
1,Alvinópolis/MG,-20.1105199,-43.0601805,87,573.53814
D1,Alvinópolis/MG,-20.1105199,-43.0601805,1,6.59239
1,Alvorada D'Oeste/RO,-11.346271,-62.284697,171,1212.25011
D1,Alvorada D'Oeste/RO,-11.346271,-62.284697,7,49.62427
1,Alvorada de Minas/MG,-18.7318587,-43.3641479,60,1664.35506
D1,Alvorada de Minas/MG,-18.7318587,-43.3641479,1,27.73925
1,Alvorada do Gurguéia/PI,-8.4465288,-43.8655915,84,1542.69972
D1,Alvorada do Gurguéia/PI,-8.4465288,-43.8655915,4,73.46189
1,Alvorada do Norte/GO,-14.483911,-46.4959897,292,3354.39403
D1,Alvorada do Norte/GO,-14.483911,-46.4959897,1,11.48765
1,Alvorada do Sul/PR,-22.7807269,-51.2307721,155,1347.47457
D1,Alvorada do Sul/PR,-22.7807269,-51.2307721,5,43.46692
1,Alvorada/RS,-29.9981184,-51.0772509,6409,3032.38200
D1,Alvorada/RS,-29.9981184,-51.0772509,196,92.73629
1,Alvorada/TO,-12.478465,-49.124926,554,6598.38018
D1,Alvorada/TO,-12.478465,-49.124926,10,119.10434
1,Além Paraíba/MG,-21.8760576,-42.6810473,708,1999.94350
D1,Além Paraíba/MG,-21.8760576,-42.6810473,19,53.67080
1,Amajari/RR,3.6523869,-61.4194315,527,3996.96625
D1,Amajari/RR,3.6523869,-61.4194315,16,121.35002
1,Amambai/MS,-23.1082701,-55.2284854,532,1335.81078
D1,Amambai/MS,-23.1082701,-55.2284854,7,17.57646
1,Amaporã/PR,-23.094272,-52.786597,37,584.33354
1,Amapá do Maranhão/MA,-1.6762114,-46.0109669,5,71.37759
1,Amapá/AP,2.0529997,-50.7930003,878,9556.98269
D1,Amapá/AP,2.0529997,-50.7930003,4,43.53978
1,Amaraji/PE,-8.373925,-35.4536527,350,1530.38916
D1,Amaraji/PE,-8.373925,-35.4536527,24,104.94097
1,Amaral Ferrador/RS,-30.8750633,-52.2542051,75,1058.57445
D1,Amaral Ferrador/RS,-30.8750633,-52.2542051,1,14.11433
1,Amaralina/GO,-13.9236199,-49.2962411,15,390.11704
1,Amarante do Maranhão/MA,-5.56913,-46.747284,1156,2770.25570
D1,Amarante do Maranhão/MA,-5.56913,-46.747284,27,64.70320
1,Amarante/PI,-6.2459374,-42.8476238,568,3226.53942
D1,Amarante/PI,-6.2459374,-42.8476238,10,56.80527
1,Amargosa/BA,-13.03793715,-39.60796443875596,590,1575.81261
D1,Amargosa/BA,-13.03793715,-39.60796443875596,15,40.06303
1,Amaturá/AM,-3.3640509,-68.1994689,1028,8759.37287
D1,Amaturá/AM,-3.3640509,-68.1994689,10,85.20791
1,Americana/SP,-22.7392463,-47.3306032,6257,2585.34489
D1,Americana/SP,-22.7392463,-47.3306032,184,76.02740
1,Americano do Brasil/GO,-16.2515808,-49.9806104,152,2465.93121
D1,Americano do Brasil/GO,-16.2515808,-49.9806104,3,48.66970
1,Ametista do Sul/RS,-27.3617341,-53.1826575,100,1350.80373
1,Amontada/CE,-3.3634586,-39.8284791,919,2096.78523
D1,Amontada/CE,-3.3634586,-39.8284791,20,45.63189
1,Amorinópolis/GO,-16.6211308,-51.0949921,87,2834.79961
D1,Amorinópolis/GO,-16.6211308,-51.0949921,1,32.58390
1,Amparo de São Francisco/SE,-10.1299754,-36.9269099,76,3193.27731
D1,Amparo de São Francisco/SE,-10.1299754,-36.9269099,2,84.03361
1,Amparo do Serra/MG,-20.5070255,-42.8028462,24,513.03976
D1,Amparo do Serra/MG,-20.5070255,-42.8028462,1,21.37666
1,Amparo/PB,-7.56394725,-37.04652873235175,23,1021.76810
1,Amparo/SP,-22.70111,-46.76444,1397,1922.20372
D1,Amparo/SP,-22.70111,-46.76444,35,48.15829
1,Ampére/PR,-25.9168712,-53.4742414,223,1154.78225
D1,Ampére/PR,-25.9168712,-53.4742414,4,20.71358
1,Amélia Rodrigues/BA,-12.4015388,-38.7516971,657,2622.96391
D1,Amélia Rodrigues/BA,-12.4015388,-38.7516971,13,51.90035
1,América Dourada/BA,-11.4515262,-41.4357517,238,1479.17961
D1,América Dourada/BA,-11.4515262,-41.4357517,1,6.21504
1,Américo Brasiliense/SP,-21.7297099,-48.1052092,914,2227.52973
D1,Américo Brasiliense/SP,-21.7297099,-48.1052092,15,36.55683
1,Américo de Campos/SP,-20.298476,-49.735904,346,5784.98579
D1,Américo de Campos/SP,-20.298476,-49.735904,12,200.63535
1,Anadia/AL,-9.6830208,-36.3052699,513,2927.07977
D1,Anadia/AL,-9.6830208,-36.3052699,9,51.35228
1,Anagé/BA,-14.6134669,-41.1376308,187,865.46027
D1,Anagé/BA,-14.6134669,-41.1376308,5,23.14065
1,Anahy/PR,-24.6450861,-53.1337957,43,1542.32425
1,Anajatuba/MA,-3.26441,-44.6179916,361,1337.63154
D1,Anajatuba/MA,-3.26441,-44.6179916,10,37.05351
1,Anajás/PA,-0.9878802,-49.9390114,729,2455.53759
D1,Anajás/PA,-0.9878802,-49.9390114,11,37.05201
1,Analândia/SP,-22.128917,-47.661939,42,830.69620
D1,Analândia/SP,-22.128917,-47.661939,2,39.55696
1,Anamã/AM,-3.5797356,-61.4049996,1025,7344.51132
D1,Anamã/AM,-3.5797356,-61.4049996,1,7.16538
1,Ananindeua/PA,-1.374035,-48.4016623,9918,1851.93830
D1,Ananindeua/PA,-1.374035,-48.4016623,374,69.83514
1,Ananás/TO,-6.3663053,-48.080238,534,5625.79014
D1,Ananás/TO,-6.3663053,-48.080238,12,126.42225
1,Anapu/PA,-3.4668292,-51.2057035,1044,3649.45643
D1,Anapu/PA,-3.4668292,-51.2057035,23,80.39990
1,Anapurus/MA,-3.6751298,-43.1046001,771,4850.88713
D1,Anapurus/MA,-3.6751298,-43.1046001,6,37.75009
1,Anastácio/MS,-20.4832458,-55.8048448,902,3574.11737
D1,Anastácio/MS,-20.4832458,-55.8048448,23,91.13603
1,Anaurilândia/MS,-22.185169,-52.719056,44,484.79506
D1,Anaurilândia/MS,-22.185169,-52.719056,1,11.01807
1,Anchieta/ES,-20.8057672,-40.6454564,1397,4691.22536
D1,Anchieta/ES,-20.8057672,-40.6454564,26,87.30985
1,Anchieta/SC,-26.5350527,-53.3293938,70,1259.67249
D1,Anchieta/SC,-26.5350527,-53.3293938,1,17.99532
1,Andaraí/BA,-12.8059674,-41.3322919,99,753.88364
1,Andirá/PR,-23.0494761,-50.2310027,373,1871.92613
D1,Andirá/PR,-23.0494761,-50.2310027,4,20.07427
1,Andorinha/BA,-10.3445708,-39.8334411,193,1330.75915
D1,Andorinha/BA,-10.3445708,-39.8334411,5,34.47563
1,Andradas/MG,-22.0680484,-46.5688976,592,1430.08986
D1,Andradas/MG,-22.0680484,-46.5688976,19,45.89815
1,Andradina/SP,-20.896505,-51.3742765,1773,3099.54197
D1,Andradina/SP,-20.896505,-51.3742765,61,106.63963
1,Andrelândia/MG,-21.739722,-44.308889,105,860.23267
1,André da Rocha/RS,-28.6309124,-51.5733328,38,2829.48622
1,Angatuba/SP,-23.4938938,-48.4110675,375,1471.80031
D1,Angatuba/SP,-23.4938938,-48.4110675,9,35.32321
1,Angelim/PE,-8.8902038,-36.2872987,82,730.44718
D1,Angelim/PE,-8.8902038,-36.2872987,3,26.72368
1,Angelina/SC,-27.5805287,-48.9838759,159,3352.30867
1,Angelândia/MG,-17.7253,-42.2728,19,222.04043
1,Angical do Piauí/PI,-6.0872666,-42.7366138,192,2830.60593
D1,Angical do Piauí/PI,-6.0872666,-42.7366138,5,73.71370
1,Angical/BA,-12.005623,-44.7000236,264,1894.10245
D1,Angical/BA,-12.005623,-44.7000236,4,28.69852
1,Angico/TO,-6.3893733,-47.8656722,96,2779.38622
D1,Angico/TO,-6.3893733,-47.8656722,1,28.95194
1,Angicos/RN,-5.6666344,-36.6009064,182,1554.89107
D1,Angicos/RN,-5.6666344,-36.6009064,5,42.71679
1,Angra dos Reis/RJ,-23.0063966,-44.316326,7120,3438.88256
D1,Angra dos Reis/RJ,-23.0063966,-44.316326,226,109.15554
1,Anguera/BA,-12.1509425,-39.2452469,116,1026.82128
1,Angélica/MS,-22.1588196,-53.7728504,162,1481.88804
D1,Angélica/MS,-22.1588196,-53.7728504,4,36.58983
1,Anhanguera/GO,-18.3338749,-48.220363,18,1551.72414
D1,Anhanguera/GO,-18.3338749,-48.220363,2,172.41379
1,Anhembi/SP,-22.7891096,-48.1316776,29,425.28230
D1,Anhembi/SP,-22.7891096,-48.1316776,1,14.66491
1,Anhumas/SP,-22.2956478,-51.3873401,112,2702.70270
1,Anicuns/GO,-16.4606451,-49.9572265,849,3862.42664
D1,Anicuns/GO,-16.4606451,-49.9572265,18,81.88890
1,Anita Garibaldi/SC,-27.6855032,-51.1293873,420,6037.08495
D1,Anita Garibaldi/SC,-27.6855032,-51.1293873,2,28.74802
1,Anitápolis/SC,-27.9041185,-49.1287395,97,3004.95663
1,Anori/AM,-3.7435254,-61.6605203,1214,5652.55855
D1,Anori/AM,-3.7435254,-61.6605203,15,69.84216
1,Anta Gorda/RS,-28.9718745,-52.0069187,115,1929.20651
1,Antas/BA,-10.4114649,-38.3308815,475,2438.52354
1,Antonina do Norte/CE,-6.7754187,-39.9879345,66,894.55137
D1,Antonina do Norte/CE,-6.7754187,-39.9879345,1,13.55381
1,Antonina/PR,-25.4298854,-48.7125431,914,4823.47353
D1,Antonina/PR,-25.4298854,-48.7125431,22,116.10111
1,Antônio Almeida/PI,-7.2186016,-44.1950248,244,7697.16088
D1,Antônio Almeida/PI,-7.2186016,-44.1950248,2,63.09148
1,Antônio Cardoso/BA,-12.4363122,-39.1200307,105,899.20356
D1,Antônio Cardoso/BA,-12.4363122,-39.1200307,3,25.69153
1,Antônio Carlos/MG,-21.318334,-43.746666,79,689.41443
D1,Antônio Carlos/MG,-21.318334,-43.746666,2,17.45353
1,Antônio Carlos/SC,-27.5168462,-48.7684715,667,7744.10774
D1,Antônio Carlos/SC,-27.5168462,-48.7684715,13,150.93463
1,Antônio Dias/MG,-19.6525,-42.872778,127,1369.27224
D1,Antônio Dias/MG,-19.6525,-42.872778,3,32.34501
1,Antônio Gonçalves/BA,-10.5715409,-40.2748824,252,2121.56929
D1,Antônio Gonçalves/BA,-10.5715409,-40.2748824,1,8.41893
1,Antônio João/MS,-22.1892837,-55.9508227,96,1064.30155
D1,Antônio João/MS,-22.1892837,-55.9508227,1,11.08647
1,Antônio Martins/RN,-6.2155812,-37.8890129,59,824.71345
D1,Antônio Martins/RN,-6.2155812,-37.8890129,1,13.97819
1,Antônio Olinto/PR,-25.9849006,-50.1974516,111,1494.54692
D1,Antônio Olinto/PR,-25.9849006,-50.1974516,1,13.46439
1,Antônio Prado de Minas/MG,-21.0171988,-42.1101106,13,819.15564
D1,Antônio Prado de Minas/MG,-21.0171988,-42.1101106,1,63.01197
1,Antônio Prado/RS,-28.8567806,-51.2801355,856,6561.90111
D1,Antônio Prado/RS,-28.8567806,-51.2801355,11,84.32350
1,Anápolis/GO,-16.3332828,-48.9525756,15173,3872.91588
D1,Anápolis/GO,-16.3332828,-48.9525756,392,100.05820
1,Anísio de Abreu/PI,-9.185643,-43.04941,176,1770.98008
D1,Anísio de Abreu/PI,-9.185643,-43.04941,1,10.06239
1,Aparecida d'Oeste/SP,-20.4498109,-50.8808706,311,7479.55748
D1,Aparecida d'Oeste/SP,-20.4498109,-50.8808706,8,192.40019
1,Aparecida de Goiânia/GO,-16.8226769,-49.2452546,38743,6564.98561
D1,Aparecida de Goiânia/GO,-16.8226769,-49.2452546,576,97.60297
1,Aparecida do Rio Doce/GO,-18.2980167,-51.1491312,102,4122.87793
D1,Aparecida do Rio Doce/GO,-18.2980167,-51.1491312,2,80.84074
1,Aparecida do Rio Negro/TO,-9.9513491,-47.9773786,88,1815.18152
D1,Aparecida do Rio Negro/TO,-9.9513491,-47.9773786,2,41.25413
1,Aparecida do Taboado/MS,-20.0840304,-51.1013943,1086,4165.86751
D1,Aparecida do Taboado/MS,-20.0840304,-51.1013943,20,76.71948
1,Aparecida/PB,-6.7859598, -38.0831353,432,5133.07985
D1,Aparecida/PB,-6.7859598, -38.0831353,6,71.29278
1,Aparecida/SP,-22.851552,-45.2340924,636,1757.63438
D1,Aparecida/SP,-22.851552,-45.2340924,19,52.50795
1,Aperibé/RJ,-21.6211928,-42.1028167,220,1848.58415
D1,Aperibé/RJ,-21.6211928,-42.1028167,7,58.81859
1,Apiacá/ES,-21.152272,-41.569297,221,2925.60233
D1,Apiacá/ES,-21.152272,-41.569297,5,66.19010
1,Apiacás/MT,-9.5678422,-57.394852,71,690.45998
D1,Apiacás/MT,-9.5678422,-57.394852,1,9.72479
1,Apiaí/SP,-24.5076527,-48.8461582,181,747.13118
D1,Apiaí/SP,-24.5076527,-48.8461582,6,24.76678
1,Apicum-Açu/MA,-1.5279295,-45.082278,199,1142.82433
D1,Apicum-Açu/MA,-1.5279295,-45.082278,3,17.22851
1,Apiúna/SC,-27.0374658,-49.3885037,272,2507.37463
D1,Apiúna/SC,-27.0374658,-49.3885037,6,55.30973
1,Apodi/RN,-5.6631109,-37.796927,2858,7966.77259
D1,Apodi/RN,-5.6631109,-37.796927,40,111.50137
1,Aporá/BA,-11.6599747,-38.0794757,279,1568.47313
D1,Aporá/BA,-11.6599747,-38.0794757,6,33.73060
1,Aporé/GO,-18.9642193,-51.92804,147,3473.53497
D1,Aporé/GO,-18.9642193,-51.92804,3,70.88847
1,Apuarema/BA,-13.8517897,-39.7457126,469,6422.89784
D1,Apuarema/BA,-13.8517897,-39.7457126,7,95.86415
1,Apucarana/PR,-23.5525327,-51.4610764,1438,1055.53680
D1,Apucarana/PR,-23.5525327,-51.4610764,58,42.57381
1,Apuiarés/CE,-3.9460303,-39.4313298,254,1731.18866
D1,Apuiarés/CE,-3.9460303,-39.4313298,11,74.97274
1,Apuí/AM,-7.1940195,-59.8830192,340,1520.64046
D1,Apuí/AM,-7.1940195,-59.8830192,4,17.88989
1,Aquidabã/SE,-10.2837579,-37.0188687,742,3422.35137
D1,Aquidabã/SE,-10.2837579,-37.0188687,17,78.40967
1,Aquidauana/MS,-20.473969,-55.7821375,2271,4728.39326
D1,Aquidauana/MS,-20.473969,-55.7821375,66,137.41698
1,Aquiraz/CE,-3.9063117,-38.387504,1266,1564.21820
D1,Aquiraz/CE,-3.9063117,-38.387504,39,48.18682
1,Arabutã/SC,-27.1587028,-52.1438142,92,2156.08156
D1,Arabutã/SC,-27.1587028,-52.1438142,2,46.87134
1,Aracaju/SE,-10.9162061,-37.0774655,42898,6451.71964
D1,Aracaju/SE,-10.9162061,-37.0774655,853,128.28842
1,Aracati/CE,-4.558259,-37.767894,2044,2726.24208
D1,Aracati/CE,-4.558259,-37.767894,57,76.02534
1,Aracatu/BA,-14.4274236,-41.4604105,243,1862.78268
D1,Aracatu/BA,-14.4274236,-41.4604105,2,15.33154
1,Araci/BA,-11.3356065,-38.9573261,1307,2391.67033
D1,Araci/BA,-11.3356065,-38.9573261,15,27.44840
1,Aracitaba/MG,-21.3425,-43.378611,22,1068.47984
D1,Aracitaba/MG,-21.3425,-43.378611,2,97.13453
1,Aracoiaba/CE,-4.3702577,-38.8084313,851,3207.08498
D1,Aracoiaba/CE,-4.3702577,-38.8084313,16,60.29772
1,Aracruz/ES,-19.8245218,-40.2735025,5451,5287.04862
D1,Aracruz/ES,-19.8245218,-40.2735025,85,82.44343
1,Aragarças/GO,-15.8957166,-52.2514538,849,4187.83604
D1,Aragarças/GO,-15.8957166,-52.2514538,19,93.72071
1,Aragoiânia/GO,-16.9146388,-49.4499148,418,3982.46951
D1,Aragoiânia/GO,-16.9146388,-49.4499148,4,38.10976
1,Aragominas/TO,-7.1654101,-48.525488,248,4327.34252
D1,Aragominas/TO,-7.1654101,-48.525488,3,52.34689
1,Araguacema/TO,-8.8067391,-49.5560969,56,782.66946
D1,Araguacema/TO,-8.8067391,-49.5560969,1,13.97624
1,Araguaiana/MT,-15.729144,-51.834112,60,1929.88099
D1,Araguaiana/MT,-15.729144,-51.834112,2,64.32937
1,Araguainha/MT,-16.857016,-53.031778,5,528.54123
1,Araguanã/MA,-2.9508403,-45.6651986,569,3658.92869
D1,Araguanã/MA,-2.9508403,-45.6651986,4,25.72182
1,Araguanã/TO,-6.5799107,-48.6428482,177,3055.41170
D1,Araguanã/TO,-6.5799107,-48.6428482,9,155.35992
1,Araguapaz/GO,-15.0937927,-50.626417,199,2556.85468
D1,Araguapaz/GO,-15.0937927,-50.626417,6,77.09110
1,Araguari/MG,-18.6511256,-48.1933764,4794,4068.74602
D1,Araguari/MG,-18.6511256,-48.1933764,106,89.96393
1,Araguatins/TO,-5.6522925,-48.1158973,1065,2944.42908
D1,Araguatins/TO,-5.6522925,-48.1158973,30,82.94166
1,Araguaçu/TO,-12.928934,-49.823134,548,6472.18613
D1,Araguaçu/TO,-12.928934,-49.823134,9,106.29503
1,Araguaína/TO,-7.193241,-48.2018597,16741,9129.08098
D1,Araguaína/TO,-7.193241,-48.2018597,235,128.14850
1,Araioses/MA,-2.890914,-41.904993,589,1259.32736
D1,Araioses/MA,-2.890914,-41.904993,10,21.38077
1,Aral Moreira/MS,-22.951141,-55.6268421,158,1281.21959
D1,Aral Moreira/MS,-22.951141,-55.6268421,3,24.32695
1,Aramari/BA,-12.0907897,-38.4985065,195,1701.42221
D1,Aramari/BA,-12.0907897,-38.4985065,4,34.90097
1,Arambaré/RS,-30.9132252,-51.4994625,45,1263.33520
D1,Arambaré/RS,-30.9132252,-51.4994625,1,28.07412
1,Arame/MA,-4.8858769,-46.0102484,954,2911.73239
D1,Arame/MA,-4.8858769,-46.0102484,16,48.83409
1,Aramina/SP,-20.0876144,-47.789201,135,2387.26790
D1,Aramina/SP,-20.0876144,-47.789201,5,88.41733
1,Arandu/SP,-23.1345103,-49.0545651,56,879.81147
D1,Arandu/SP,-23.1345103,-49.0545651,3,47.13276
1,Arantina/MG,-21.911667,-44.255833,23,825.26014
D1,Arantina/MG,-21.911667,-44.255833,2,71.76175
1,Arapeí/SP,-22.6738889,-44.4477778,9,365.85366
D1,Arapeí/SP,-22.6738889,-44.4477778,1,40.65041
1,Arapiraca/AL,-9.754866,-36.661471,13064,5605.73618
D1,Arapiraca/AL,-9.754866,-36.661471,174,74.66305
1,Arapoema/TO,-7.6575001,-49.0641484,141,2131.19710
D1,Arapoema/TO,-7.6575001,-49.0641484,3,45.34462
1,Araponga/MG,-20.666667,-42.520556,22,260.26263
1,Arapongas/PR,-23.415296,-51.42592,3890,3116.73744
D1,Arapongas/PR,-23.415296,-51.42592,118,94.54371
1,Araporã/MG,-18.4318188,-49.188313,1003,14471.21627
D1,Araporã/MG,-18.4318188,-49.188313,9,129.85139
1,Arapoti/PR,-24.1457957,-49.8224605,511,1805.65371
D1,Arapoti/PR,-24.1457957,-49.8224605,2,7.06714
1,Araputanga/MT,-15.4710868,-58.346796,594,3504.21804
D1,Araputanga/MT,-15.4710868,-58.346796,7,41.29550
1,Arapuá/MG,-19.034444,-46.155556,38,1340.38801
1,Arapuã/PR,-24.3079525,-51.7901941,50,1661.68162
D1,Arapuã/PR,-24.3079525,-51.7901941,1,33.23363
1,Araquari/SC,-26.3703324,-48.7210994,1288,3258.77948
D1,Araquari/SC,-26.3703324,-48.7210994,17,43.01184
1,Arara/PB,-6.8271895,-35.7605703,260,1919.95274
D1,Arara/PB,-6.8271895,-35.7605703,7,51.69104
1,Araranguá/SC,-28.9348832,-49.4858389,4423,6422.52458
D1,Araranguá/SC,-28.9348832,-49.4858389,59,85.67238
1,Araraquara/SP,-21.7886713,-48.1773096,6619,2777.13677
D1,Araraquara/SP,-21.7886713,-48.1773096,77,32.30692
1,Araras/SP,-22.3569477,-47.3838889,5530,4081.00010
D1,Araras/SP,-22.3569477,-47.3838889,87,64.20380
1,Ararendá/CE,-4.7504395,-40.8303611,310,2828.72525
D1,Ararendá/CE,-4.7504395,-40.8303611,4,36.49968
1,Arari/MA,-3.4547602,-44.7772723,303,1012.29453
D1,Arari/MA,-3.4547602,-44.7772723,10,33.40906
1,Araricá/RS,-29.6168543,-50.929121,164,2841.79518
D1,Araricá/RS,-29.6168543,-50.929121,7,121.29614
1,Araripe/CE,-7.212861,-40.1359222,268,1237.64662
D1,Araripe/CE,-7.212861,-40.1359222,4,18.47234
1,Araripina/PE,-7.5768582,-40.5038509,2633,3102.61124
D1,Araripina/PE,-7.5768582,-40.5038509,44,51.84766
1,Araruama/RJ,-22.8733203,-42.3428897,1996,1486.30234
D1,Araruama/RJ,-22.8733203,-42.3428897,85,63.29444
1,Araruna/PB,-6.5321155,-35.7397595,368,1798.36779
D1,Araruna/PB,-6.5321155,-35.7397595,8,39.09495
1,Araruna/PR,-23.9320308,-52.4976047,270,1928.57143
D1,Araruna/PR,-23.9320308,-52.4976047,9,64.28571
1,Arataca/BA,-15.2617424,-39.4122943,272,2481.52541
D1,Arataca/BA,-15.2617424,-39.4122943,9,82.10930
1,Aratiba/RS,-27.3955734,-52.3024325,149,2407.49717
D1,Aratiba/RS,-27.3955734,-52.3024325,4,64.63080
1,Aratuba/CE,-4.4195958,-39.0463737,262,2219.96272
D1,Aratuba/CE,-4.4195958,-39.0463737,2,16.94628
1,Aratuípe/BA,-13.077137,-39.0010786,174,1968.99400
D1,Aratuípe/BA,-13.077137,-39.0010786,6,67.89634
1,Araucária/PR,-25.5861107,-49.4051209,7684,5255.31071
D1,Araucária/PR,-25.5861107,-49.4051209,94,64.28933
1,Arauá/SE,-11.2644014,-37.6181058,343,3448.27586
D1,Arauá/SE,-11.2644014,-37.6181058,9,90.47954
1,Araxá/MG,-19.5928536,-46.940241,2980,2776.30267
D1,Araxá/MG,-19.5928536,-46.940241,41,38.19745
1,Araçagi/PB,-6.8519969,-35.3835602,566,3344.95597
D1,Araçagi/PB,-6.8519969,-35.3835602,6,35.45890
1,Araçariguama/SP,-23.438611,-47.061389,459,2007.87402
D1,Araçariguama/SP,-23.438611,-47.061389,10,43.74453
1,Araçatuba/SP,-21.207992,-50.4390225,8454,4266.91701
D1,Araçatuba/SP,-21.207992,-50.4390225,193,97.41128
1,Araçaí/MG,-19.200833,-44.2475,5,212.40442
1,Araçoiaba da Serra/SP,-23.5045367,-47.6168158,736,2116.40212
D1,Araçoiaba da Serra/SP,-23.5045367,-47.6168158,15,43.13320
1,Araçoiaba/PE,-7.7856903,-35.0898881,178,858.53470
D1,Araçoiaba/PE,-7.7856903,-35.0898881,20,96.46457
1,Araçu/GO,-16.3561579,-49.6815269,130,3729.20252
D1,Araçu/GO,-16.3561579,-49.6815269,3,86.05852
1,Araçuaí/MG,-16.8484451,-42.0661868,157,427.65308
D1,Araçuaí/MG,-16.8484451,-42.0661868,3,8.17171
1,Araçás/BA,-12.2139176,-38.2026159,340,2785.05898
D1,Araçás/BA,-12.2139176,-38.2026159,5,40.95675
1,Araújos/MG,-19.948055,-45.165556,103,1095.62812
D1,Araújos/MG,-19.948055,-45.165556,1,10.63717
1,Arceburgo/MG,-21.364444,-46.939722,142,1304.78728
D1,Arceburgo/MG,-21.364444,-46.939722,3,27.56593
1,Arco-Íris/SP,-21.7741308,-50.4668814,13,733.22053
1,Arcos/MG,-20.282223,-45.539444,687,1701.33730
D1,Arcos/MG,-20.282223,-45.539444,15,37.14710
1,Arcoverde/PE,-8.415192,-37.057748,2584,3453.52971
D1,Arcoverde/PE,-8.415192,-37.057748,60,80.19032
1,Areado/MG,-21.3582771,-46.1476688,28,184.44108
D1,Areado/MG,-21.3582771,-46.1476688,3,19.76154
1,Areal/RJ,-22.2314922,-43.1056264,298,2352.19828
D1,Areal/RJ,-22.2314922,-43.1056264,9,71.03955
1,Arealva/SP,-22.0301906,-48.9111936,169,1962.15024
D1,Arealva/SP,-22.0301906,-48.9111936,2,23.22071
1,Areia Branca/RN,-4.9506652,-37.1263312,914,3268.13745
D1,Areia Branca/RN,-4.9506652,-37.1263312,53,189.50906
1,Areia Branca/SE,-10.7591455,-37.3148072,819,4382.96051
D1,Areia Branca/SE,-10.7591455,-37.3148072,19,101.68040
1,Areia de Baraúnas/PB,-7.1233949,-36.9446216,13,614.36673
1,Areia/PB,-6.9680243,-35.6994783,547,2414.37147
D1,Areia/PB,-6.9680243,-35.6994783,5,22.06921
1,Areial/PB,-7.0501306,-35.9245244,101,1437.31322
D1,Areial/PB,-7.0501306,-35.9245244,2,28.46165
1,Areias/SP,-22.5800929,-44.6975127,57,1463.03901
1,Areiópolis/SP,-22.6758064,-48.6673653,155,1389.13784
D1,Areiópolis/SP,-22.6758064,-48.6673653,4,35.84872
1,Arenápolis/MT,-14.4610369,-56.8432806,448,4714.79688
D1,Arenápolis/MT,-14.4610369,-56.8432806,6,63.14460
1,Arenópolis/GO,-16.3859286,-51.55937,32,1261.82965
1,Argirita/MG,-21.612761,-42.8371922,93,3439.34911
D1,Argirita/MG,-21.612761,-42.8371922,3,110.94675
1,Aricanduva/MG,-17.8678,-42.5569,5,94.89467
1,Arinos/MG,-15.917223,-46.106111,148,828.57463
D1,Arinos/MG,-15.917223,-46.106111,3,16.79543
1,Aripuanã/MT,-10.175806,-59.4439663,847,3728.97772
D1,Aripuanã/MT,-10.175806,-59.4439663,15,66.03857
1,Ariquemes/RO,-9.9076522,-63.033069,6510,5943.95698
D1,Ariquemes/RO,-9.9076522,-63.033069,111,101.34858
1,Ariranha do Ivaí/PR,-24.3834527,-51.5876772,28,1355.27590
D1,Ariranha do Ivaí/PR,-24.3834527,-51.5876772,1,48.40271
1,Ariranha/SP,-21.18716,-48.790418,190,1946.52187
D1,Ariranha/SP,-21.18716,-48.790418,7,71.71396
1,Armazém/SC,-28.2624996,-49.0190126,525,5993.83491
D1,Armazém/SC,-28.2624996,-49.0190126,6,68.50097
1,Armação dos Búzios/RJ,-22.7597805,-41.8875267,646,1873.71291
D1,Armação dos Búzios/RJ,-22.7597805,-41.8875267,18,52.20872
1,Arneiroz/CE,-6.3235099,-40.1603859,64,815.91025
D1,Arneiroz/CE,-6.3235099,-40.1603859,4,50.99439
1,Aroazes/PI,-6.1108814,-41.7886137,142,2436.93153
D1,Aroazes/PI,-6.1108814,-41.7886137,4,68.64596
1,Aroeiras do Itaim/PI,-7.2797031,-41.5629681,91,3567.22854
D1,Aroeiras do Itaim/PI,-7.2797031,-41.5629681,1,39.20031
1,Aroeiras/PB,-7.5462904,-35.7080002,260,1360.11718
D1,Aroeiras/PB,-7.5462904,-35.7080002,1,5.23122
1,Arraial do Cabo/RJ,-22.9662839,-42.024427,280,915.24205
D1,Arraial do Cabo/RJ,-22.9662839,-42.024427,7,22.88105
1,Arraial/PI,-6.6541632,-42.5335332,73,1546.61017
D1,Arraial/PI,-6.6541632,-42.5335332,1,21.18644
1,Arraias/TO,-12.9287788,-46.9437231,159,1509.39814
1,Arroio Grande/RS,-32.2384246,-53.0866661,247,1354.31517
D1,Arroio Grande/RS,-32.2384246,-53.0866661,3,16.44917
1,Arroio Trinta/SC,-26.9301976,-51.334928,142,4001.12708
1,Arroio do Meio/RS,-29.4020392,-51.9444993,789,3763.05623
D1,Arroio do Meio/RS,-29.4020392,-51.9444993,3,14.30820
1,Arroio do Padre/RS,-31.4428773,-52.4228985,37,1253.81227
1,Arroio do Sal/RS,-29.549852,-49.8874395,248,2412.68606
D1,Arroio do Sal/RS,-29.549852,-49.8874395,7,68.10001
1,Arroio do Tigre/RS,-29.334158,-53.0888935,97,723.17901
D1,Arroio do Tigre/RS,-29.334158,-53.0888935,1,7.45545
1,Arroio dos Ratos/RS,-30.0894524,-51.7265541,250,1763.41962
D1,Arroio dos Ratos/RS,-30.0894524,-51.7265541,15,105.80518
1,Artur Nogueira/SP,-22.572737,-47.172679,1299,2347.30755
D1,Artur Nogueira/SP,-22.572737,-47.172679,31,56.01735
1,Aruanã/GO,-14.9162439,-51.0715692,165,1632.04748
D1,Aruanã/GO,-14.9162439,-51.0715692,1,9.89120
1,Arujá/SP,-23.396266,-46.3175449,2552,2799.56558
D1,Arujá/SP,-23.396266,-46.3175449,103,112.99187
1,Arvoredo/SC,-27.0752908,-52.4571847,76,3401.96956
D1,Arvoredo/SC,-27.0752908,-52.4571847,1,44.76276
1,Arvorezinha/RS,-28.87369,-52.17808,222,2129.90502
D1,Arvorezinha/RS,-28.87369,-52.17808,6,57.56500
1,Arês/RN,-6.1969216,-35.1642968,327,2268.15565
D1,Arês/RN,-6.1969216,-35.1642968,9,62.42630
1,Ascurra/SC,-26.9569975,-49.3767752,302,3785.40988
D1,Ascurra/SC,-26.9569975,-49.3767752,2,25.06894
1,Aspásia/SP,-20.160028,-50.728046,49,2695.26953
D1,Aspásia/SP,-20.160028,-50.728046,2,110.01100
1,Assaré/CE,-6.8746791,-39.8741385,670,2853.73541
D1,Assaré/CE,-6.8746791,-39.8741385,12,51.11168
1,Assaí/PR,-23.3736041,-50.8454929,372,2487.62873
D1,Assaí/PR,-23.3736041,-50.8454929,12,80.24609
1,Assis Brasil/AC,-10.9409203,-69.5672108,733,9729.22750
D1,Assis Brasil/AC,-10.9409203,-69.5672108,9,119.45846
1,Assis Chateaubriand/PR,-24.4054826,-53.5120468,694,2081.58368
D1,Assis Chateaubriand/PR,-24.4054826,-53.5120468,8,23.99520
1,Assis/SP,-22.6620892,-50.420623,1838,1749.02700
D1,Assis/SP,-22.6620892,-50.420623,30,28.54777
1,Assunção do Piauí/PI,-5.8610212,-41.0485091,146,1856.79766
D1,Assunção do Piauí/PI,-5.8610212,-41.0485091,2,25.43558
1,Assunção/PB,-7.073396,-36.7274003,47,1166.54257
1,Astolfo Dutra/MG,-21.3132636,-42.8624102,411,2880.16819
D1,Astolfo Dutra/MG,-21.3132636,-42.8624102,5,35.03854
1,Astorga/PR,-23.2350184,-51.6647074,666,2541.11183
D1,Astorga/PR,-23.2350184,-51.6647074,10,38.15483
1,Atalaia do Norte/AM,-4.3658547,-70.1908742,1511,7407.58898
D1,Atalaia do Norte/AM,-4.3658547,-70.1908742,4,19.60977
1,Atalaia/AL,-9.5029595,-36.0219316,643,1357.54249
D1,Atalaia/AL,-9.5029595,-36.0219316,23,48.55906
1,Atalaia/PR,-23.1513833,-52.0529697,109,2808.55450
D1,Atalaia/PR,-23.1513833,-52.0529697,3,77.29967
1,Atalanta/SC,-27.421916,-49.778863,61,1909.23318
1,Ataléia/MG,-18.04432,-41.1110524,204,1609.08661
D1,Ataléia/MG,-18.04432,-41.1110524,4,31.55072
1,Atibaia/SP,-23.1177393,-46.5547861,2732,1896.06352
D1,Atibaia/SP,-23.1177393,-46.5547861,67,46.49936
1,Atilio Vivacqua/ES,-20.9139369,-41.1947519,467,3857.90995
D1,Atilio Vivacqua/ES,-20.9139369,-41.1947519,10,82.61049
1,Augustinópolis/TO,-5.4662267,-47.8897519,738,3958.59036
D1,Augustinópolis/TO,-5.4662267,-47.8897519,10,53.63944
1,Augusto Corrêa/PA,-1.0229335,-46.6404029,1430,3077.18792
D1,Augusto Corrêa/PA,-1.0229335,-46.6404029,21,45.18947
1,Augusto Pestana/RS,-28.5148413,-53.9906433,61,923.96244
D1,Augusto Pestana/RS,-28.5148413,-53.9906433,2,30.29385
1,Augusto de Lima/MG,-18.1092963,-44.2651945,55,1133.78685
1,Aurelino Leal/BA,-14.3167137,-39.3256107,531,4699.53093
D1,Aurelino Leal/BA,-14.3167137,-39.3256107,11,97.35375
1,Auriflama/SP,-20.6840418,-50.5554616,570,3736.96978
D1,Auriflama/SP,-20.6840418,-50.5554616,14,91.78522
1,Aurilândia/GO,-16.6772599,-50.4641231,65,2125.57227
D1,Aurilândia/GO,-16.6772599,-50.4641231,1,32.70111
1,Aurora do Pará/PA,-2.1323199,-47.558436,686,2159.06587
D1,Aurora do Pará/PA,-2.1323199,-47.558436,8,25.17861
1,Aurora do Tocantins/TO,-12.71045,-46.407604,58,1533.17473
1,Aurora/CE,-6.9426019,-38.9693765,707,2872.81593
D1,Aurora/CE,-6.9426019,-38.9693765,22,89.39456
1,Aurora/SC,-27.3166417,-49.6368502,152,2674.64367
D1,Aurora/SC,-27.3166417,-49.6368502,1,17.59634
1,Autazes/AM,-3.5833283,-59.1301518,1526,3787.54033
D1,Autazes/AM,-3.5833283,-59.1301518,38,94.31621
1,Avanhandava/SP,-21.4603331,-49.9465156,256,1847.17512
D1,Avanhandava/SP,-21.4603331,-49.9465156,8,57.72422
1,Avaré/SP,-23.1045215,-48.9259103,1049,1149.81585
D1,Avaré/SP,-23.1045215,-48.9259103,20,21.92213
1,Avaí/SP,-22.1564662,-49.3316395,130,2391.46431
D1,Avaí/SP,-22.1564662,-49.3316395,3,55.18764
1,Aveiro/PA,-3.6049239,-55.3310742,448,2731.04121
D1,Aveiro/PA,-3.6049239,-55.3310742,5,30.48037
1,Avelino Lopes/PI,-10.1346855,-43.9489525,128,1130.14303
D1,Avelino Lopes/PI,-10.1346855,-43.9489525,10,88.29242
1,Avelinópolis/GO,-16.4672409,-49.7578661,117,4856.78705
D1,Avelinópolis/GO,-16.4672409,-49.7578661,1,41.51100
1,Axixá do Tocantins/TO,-5.612747,-47.77007,533,5445.99980
D1,Axixá do Tocantins/TO,-5.612747,-47.77007,5,51.08818
1,Axixá/MA,-2.8379465,-44.0561053,142,1165.55857
D1,Axixá/MA,-2.8379465,-44.0561053,3,24.62448
1,Açailândia/MA,-4.9514278,-47.4844564,3620,3200.11315
D1,Açailândia/MA,-4.9514278,-47.4844564,97,85.74889
1,Açu/RN,-5.5836157,-36.9139541,1995,3417.03206
D1,Açu/RN,-5.5836157,-36.9139541,75,128.45985
1,Açucena/MG,-19.073056,-42.546666,136,1451.75064
D1,Açucena/MG,-19.073056,-42.546666,5,53.37319
1,Babaçulândia/TO,-7.2034355,-47.761613,422,3956.49728
D1,Babaçulândia/TO,-7.2034355,-47.761613,4,37.50234
1,Bacabal/MA,-4.2318132,-44.781167,3591,3426.85371
D1,Bacabal/MA,-4.2318132,-44.781167,70,66.80027
1,Bacabeira/MA,-2.9775747,-44.3155943,155,898.44656
D1,Bacabeira/MA,-2.9775747,-44.3155943,3,17.38929
1,Bacuri/MA,-1.728894,-45.1417148,425,2278.33173
D1,Bacuri/MA,-1.728894,-45.1417148,3,16.08234
1,Bacurituba/MA,-2.7082587,-44.7381309,75,1322.75132
1,Bady Bassitt/SP,-20.9178969,-49.4517911,1054,5934.35054
D1,Bady Bassitt/SP,-20.9178969,-49.4517911,22,123.86690
1,Baependi/MG,-21.959162,-44.8899249,174,906.29720
D1,Baependi/MG,-21.959162,-44.8899249,7,36.46023
1,Bagre/PA,-1.8994498,-50.2103844,462,1474.86034
D1,Bagre/PA,-1.8994498,-50.2103844,10,31.92338
1,Bagé/RS,-31.3314264,-54.1062808,2051,1690.36140
D1,Bagé/RS,-31.3314264,-54.1062808,30,24.72494
1,Baianópolis/BA,-12.3067564,-44.5383591,162,1163.04114
D1,Baianópolis/BA,-12.3067564,-44.5383591,2,14.35853
1,Baixa Grande do Ribeiro/PI,-7.862861,-45.2113289,1495,12809.52789
D1,Baixa Grande do Ribeiro/PI,-7.862861,-45.2113289,14,119.95545
1,Baixa Grande/BA,-11.9630941,-40.1657537,204,997.60379
D1,Baixa Grande/BA,-11.9630941,-40.1657537,2,9.78043
1,Baixio/CE,-6.7303544,-38.7170095,117,1856.25892
D1,Baixio/CE,-6.7303544,-38.7170095,3,47.59638
1,Baixo Guandu/ES,-19.5138322,-41.0182089,1202,3860.97906
D1,Baixo Guandu/ES,-19.5138322,-41.0182089,26,83.51535
1,Baião/PA,-2.7903479,-49.6702845,420,866.71207
D1,Baião/PA,-2.7903479,-49.6702845,15,30.95400
1,Balbinos/SP,-21.9006253,-49.3583966,241,4061.34142
D1,Balbinos/SP,-21.9006253,-49.3583966,3,50.55612
1,Baldim/MG,-19.2913568,-43.9558262,160,2050.49340
D1,Baldim/MG,-19.2913568,-43.9558262,5,64.07792
1,Baliza/GO,-16.1978119,-52.542789,42,795.45455
1,Balneário Arroio do Silva/SC,-28.9815269,-49.4189932,726,5405.80789
D1,Balneário Arroio do Silva/SC,-28.9815269,-49.4189932,8,59.56813
1,Balneário Barra do Sul/SC,-26.459842,-48.6061471,589,5337.56230
D1,Balneário Barra do Sul/SC,-26.459842,-48.6061471,8,72.49660
1,Balneário Camboriú/SC,-26.9924395,-48.6339782,12434,8528.35469
D1,Balneário Camboriú/SC,-26.9924395,-48.6339782,117,80.24912
1,Balneário Gaivota/SC,-29.1553098,-49.5808712,577,5124.33393
D1,Balneário Gaivota/SC,-29.1553098,-49.5808712,9,79.92895
1,Balneário Pinhal/RS,-30.2482978,-50.234585,340,2367.19348
D1,Balneário Pinhal/RS,-30.2482978,-50.234585,5,34.81167
1,Balneário Piçarras/SC,-26.7638889,-48.6716667,1486,6251.05166
D1,Balneário Piçarras/SC,-26.7638889,-48.6716667,12,50.47956
1,Balneário Rincão/SC,-28.8235718,-49.2241642,594,4588.28982
D1,Balneário Rincão/SC,-28.8235718,-49.2241642,11,84.96833
1,Balsa Nova/PR,-25.5842234,-49.6312741,328,2505.34678
D1,Balsa Nova/PR,-25.5842234,-49.6312741,8,61.10602
1,Balsas/MA,-7.53214,-46.037163,6743,7029.15698
D1,Balsas/MA,-7.53214,-46.037163,82,85.47989
1,Bambuí/MG,-20.0131996,-45.9777034,86,359.86275
D1,Bambuí/MG,-20.0131996,-45.9777034,1,4.18445
1,Banabuiú/CE,-5.3046404,-38.919766,609,3335.88957
D1,Banabuiú/CE,-5.3046404,-38.919766,4,21.91060
1,Bananal/SP,-22.6828195,-44.3221095,157,1428.18157
D1,Bananal/SP,-22.6828195,-44.3221095,1,9.09670
1,Bananeiras/PB,-6.7537682,-35.6338343,489,2299.12079
D1,Bananeiras/PB,-6.7537682,-35.6338343,2,9.40336
1,Bandeira do Sul/MG,-21.728056,-46.385555,61,1055.72863
D1,Bandeira do Sul/MG,-21.728056,-46.385555,2,34.61405
1,Bandeira/MG,-15.884444,-40.559167,211,4427.19261
D1,Bandeira/MG,-15.884444,-40.559167,1,20.98196
1,Bandeirante/SC,-26.7677402,-53.6397596,21,793.05136
1,Bandeirantes do Tocantins/TO,-7.7635698,-48.579148,91,2533.40757
D1,Bandeirantes do Tocantins/TO,-7.7635698,-48.579148,1,27.83964
1,Bandeirantes/MS,-19.9179623,-54.3646768,124,1706.57859
D1,Bandeirantes/MS,-19.9179623,-54.3646768,1,13.76273
1,Bandeirantes/PR,-23.107788,-50.370407,1202,3851.20631
D1,Bandeirantes/PR,-23.107788,-50.370407,38,121.75195
1,Bannach/PA,-7.3508505,-50.4064531,112,3433.47639
D1,Bannach/PA,-7.3508505,-50.4064531,2,61.31208
1,Banzaê/BA,-10.5827616,-38.6122305,619,4675.22659
D1,Banzaê/BA,-10.5827616,-38.6122305,4,30.21148
1,Baraúna/PB,-6.643394,-36.2531932,144,2900.88638
1,Baraúna/RN,-5.0775002,-37.61752,589,2048.90945
D1,Baraúna/RN,-5.0775002,-37.61752,15,52.17936
1,Barbacena/MG,-21.2254524,-43.7735087,1311,948.59773
D1,Barbacena/MG,-21.2254524,-43.7735087,23,16.64207
1,Barbalha/CE,-7.3121067,-39.3036427,2303,3761.35102
D1,Barbalha/CE,-7.3121067,-39.3036427,57,93.09466
1,Barbosa Ferraz/PR,-24.0287182,-52.00811,208,1820.40959
D1,Barbosa Ferraz/PR,-24.0287182,-52.00811,4,35.00788
1,Barbosa/SP,-21.265661,-49.951816,136,1821.10337
D1,Barbosa/SP,-21.265661,-49.951816,1,13.39047
1,Barcarena/PA,-1.5107945,-48.6190679,4554,3585.06459
D1,Barcarena/PA,-1.5107945,-48.6190679,119,93.68087
1,Barcelona/RN,-5.9514918,-35.9260284,37,926.38958
D1,Barcelona/RN,-5.9514918,-35.9260284,3,75.11267
1,Barcelos/AM,-0.9729214,-62.925635,2841,10279.32557
D1,Barcelos/AM,-0.9729214,-62.925635,28,101.30979
1,Bariri/SP,-22.0746355,-48.7394852,1254,3526.63254
D1,Bariri/SP,-22.0746355,-48.7394852,29,81.55689
1,Barra Bonita/SC,-26.6526364,-53.4419581,9,545.12417
1,Barra Bonita/SP,-22.490859,-48.558349,1114,3083.65166
D1,Barra Bonita/SP,-22.490859,-48.558349,25,69.20224
1,Barra D'Alcântara/PI,-6.5209258,-42.1071089,32,809.71660
D1,Barra D'Alcântara/PI,-6.5209258,-42.1071089,1,25.30364
1,Barra Funda/RS,-27.9230048,-53.0401045,132,5174.44140
D1,Barra Funda/RS,-27.9230048,-53.0401045,3,117.60094
1,Barra Longa/MG,-20.2833541,-43.0423516,94,1874.37687
1,Barra Mansa/RJ,-22.5394843,-44.1735129,4582,2478.99455
D1,Barra Mansa/RJ,-22.5394843,-44.1735129,190,102.79550
1,Barra Velha/SC,-26.6338203,-48.6835001,1341,4490.95780
D1,Barra Velha/SC,-26.6338203,-48.6835001,22,73.67716
1,Barra da Estiva/BA,-13.6269662,-41.3278287,357,1750.68654
D1,Barra da Estiva/BA,-13.6269662,-41.3278287,1,4.90388
1,Barra de Guabiraba/PE,-8.4173522,-35.6626669,198,1364.57615
D1,Barra de Guabiraba/PE,-8.4173522,-35.6626669,11,75.80979
1,Barra de Santa Rosa/PB,-6.7218007,-36.0564638,185,1193.77944
D1,Barra de Santa Rosa/PB,-6.7218007,-36.0564638,2,12.90572
1,Barra de Santana/PB,-7.5230865,-35.9988518,138,1652.89256
D1,Barra de Santana/PB,-7.5230865,-35.9988518,2,23.95496
1,Barra de Santo Antônio/AL,-9.4038098,-35.5117693,138,858.84989
D1,Barra de Santo Antônio/AL,-9.4038098,-35.5117693,14,87.12970
1,Barra de São Francisco/ES,-18.7570902,-40.8916119,1373,3052.53563
D1,Barra de São Francisco/ES,-18.7570902,-40.8916119,43,95.60017
1,Barra de São Miguel/AL,-9.8261357,-35.8837777,170,2029.12390
D1,Barra de São Miguel/AL,-9.8261357,-35.8837777,5,59.68011
1,Barra de São Miguel/PB,-7.7528088,-36.3170996,92,1516.90025
D1,Barra de São Miguel/PB,-7.7528088,-36.3170996,1,16.48805
1,Barra do Bugres/MT,-15.0683712,-57.1853688,1106,3132.52330
D1,Barra do Bugres/MT,-15.0683712,-57.1853688,23,65.14289
1,Barra do Chapéu/SP,-24.472203,-49.023784,51,885.41667
1,Barra do Choça/BA,-14.8638173,-40.5761637,631,2021.85267
D1,Barra do Choça/BA,-14.8638173,-40.5761637,6,19.22522
1,Barra do Corda/MA,-5.496823,-45.248496,4083,4613.97640
D1,Barra do Corda/MA,-5.496823,-45.248496,45,50.85205
1,Barra do Garças/MT,-15.8916033,-52.2615413,2754,4504.78449
D1,Barra do Garças/MT,-15.8916033,-52.2615413,117,191.37973
1,Barra do Guarita/RS,-27.1888016,-53.7147086,62,1903.59226
1,Barra do Jacaré/PR,-23.1151788,-50.1813945,31,1114.70694
1,Barra do Mendes/BA,-11.8053298,-42.057037,264,1908.47972
D1,Barra do Mendes/BA,-11.8053298,-42.057037,1,7.22909
1,Barra do Ouro/TO,-7.7113784,-47.6743925,79,1705.52677
D1,Barra do Ouro/TO,-7.7113784,-47.6743925,5,107.94473
1,Barra do Piraí/RJ,-22.4703403,-43.8263256,1469,1457.86193
D1,Barra do Piraí/RJ,-22.4703403,-43.8263256,69,68.47684
1,Barra do Quaraí/RS,-30.208947,-57.5505128,137,3241.06932
D1,Barra do Quaraí/RS,-30.208947,-57.5505128,1,23.65744
1,Barra do Ribeiro/RS,-30.2930206,-51.301437,202,1490.11508
D1,Barra do Ribeiro/RS,-30.2930206,-51.301437,17,125.40572
1,Barra do Rio Azul/RS,-27.4101581,-52.4117471,19,1148.03625
1,Barra do Rocha/BA,-14.2090974,-39.6004395,138,2459.01639
D1,Barra do Rocha/BA,-14.2090974,-39.6004395,1,17.81896
1,Barra do Turvo/SP,-24.756421,-48.5056942,183,2397.79874
D1,Barra do Turvo/SP,-24.756421,-48.5056942,5,65.51363
1,Barra dos Coqueiros/SE,-10.9075694,-37.0386249,1542,4985.45102
D1,Barra dos Coqueiros/SE,-10.9075694,-37.0386249,28,90.52700
1,Barra/BA,-11.0892702,-43.1420453,520,964.57058
D1,Barra/BA,-11.0892702,-43.1420453,8,14.83955
1,Barracão/PR,-26.252395,-53.6349576,151,1464.31342
D1,Barracão/PR,-26.252395,-53.6349576,3,29.09232
1,Barracão/RS,-27.6728964,-51.4582928,102,1940.63927
D1,Barracão/RS,-27.6728964,-51.4582928,3,57.07763
1,Barras/PI,-4.2446153,-42.2920241,3084,6535.97542
D1,Barras/PI,-4.2446153,-42.2920241,59,125.03974
1,Barreira/CE,-4.2883361,-38.641094,358,1585.96553
D1,Barreira/CE,-4.2883361,-38.641094,21,93.03150
1,Barreiras do Piauí/PI,-9.9224524,-45.4763776,32,954.65394
D1,Barreiras do Piauí/PI,-9.9224524,-45.4763776,1,29.83294
1,Barreiras/BA,-12.1440031,-44.9967406,6492,4135.69040
D1,Barreiras/BA,-12.1440031,-44.9967406,102,64.97850
1,Barreirinha/AM,-2.798863,-57.067897,1409,4337.65354
D1,Barreirinha/AM,-2.798863,-57.067897,27,83.12040
1,Barreirinhas/MA,-2.7541271,-42.8259693,1326,2097.53705
D1,Barreirinhas/MA,-2.7541271,-42.8259693,26,41.12818
1,Barreiros/PE,-8.8159644,-35.1831905,355,830.13750
D1,Barreiros/PE,-8.8159644,-35.1831905,41,95.87504
1,Barretos/SP,-20.5531437,-48.5697509,5610,4567.17657
D1,Barretos/SP,-20.5531437,-48.5697509,153,124.55936
1,Barrinha/SP,-21.1898849,-48.1550642,813,2450.27125
D1,Barrinha/SP,-21.1898849,-48.1550642,33,99.45750
1,Barro Alto/BA,-11.7618025,-41.9094904,204,1355.12156
D1,Barro Alto/BA,-11.7618025,-41.9094904,1,6.64275
1,Barro Alto/GO,-14.9696025,-48.9190985,594,5206.87237
D1,Barro Alto/GO,-14.9696025,-48.9190985,7,61.36045
1,Barro Duro/PI,-5.8180139,-42.5106589,460,6546.17902
D1,Barro Duro/PI,-5.8180139,-42.5106589,7,99.61577
1,Barro Preto/BA,-14.8068289,-39.4727588,282,5176.21145
D1,Barro Preto/BA,-14.8068289,-39.4727588,6,110.13216
1,Barro/CE,-7.1713587,-38.7742136,430,1889.44547
D1,Barro/CE,-7.1713587,-38.7742136,10,43.94059
1,Barrocas/BA,-11.5165,-39.099282894736845,191,1185.96709
1,Barrolândia/TO,-9.837246,-48.7264346,233,4123.16404
D1,Barrolândia/TO,-9.837246,-48.7264346,4,70.78393
1,Barroquinha/CE,-3.0200371,-41.1339229,808,5370.91199
D1,Barroquinha/CE,-3.0200371,-41.1339229,20,132.94337
1,Barros Cassal/RS,-29.094938,-52.5832366,123,1099.98211
D1,Barros Cassal/RS,-29.094938,-52.5832366,1,8.94294
1,Barroso/MG,-21.187222,-43.976111,223,1067.13882
D1,Barroso/MG,-21.187222,-43.976111,2,9.57075
1,Barueri/SP,-23.5112184,-46.8764612,9616,3471.70574
D1,Barueri/SP,-23.5112184,-46.8764612,420,151.63440
1,Barão de Antonina/SP,-23.6295651,-49.5632104,25,714.69411
D1,Barão de Antonina/SP,-23.6295651,-49.5632104,1,28.58776
1,Barão de Cocais/MG,-19.9452437,-43.4870298,913,2777.94681
D1,Barão de Cocais/MG,-19.9452437,-43.4870298,6,18.25595
1,Barão de Cotegipe/RS,-27.6214694,-52.3765316,254,3836.85801
D1,Barão de Cotegipe/RS,-27.6214694,-52.3765316,3,45.31722
1,Barão de Grajaú/MA,-6.7542591,-43.0263477,27,142.67597
D1,Barão de Grajaú/MA,-6.7542591,-43.0263477,1,5.28430
1,Barão de Melgaço/MT,-16.195776,-55.9668049,137,1678.09897
D1,Barão de Melgaço/MT,-16.195776,-55.9668049,6,73.49339
1,Barão de Monte Alto/MG,-21.244722,-42.2375,74,1382.14419
D1,Barão de Monte Alto/MG,-21.244722,-42.2375,3,56.03287
1,Barão do Triunfo/RS,-30.3909877,-51.7375349,145,1928.44793
D1,Barão do Triunfo/RS,-30.3909877,-51.7375349,1,13.29964
1,Barão/RS,-29.372474,-51.494908,132,2128.34569
D1,Barão/RS,-29.372474,-51.494908,2,32.24766
1,Bastos/SP,-21.9222474,-50.7317727,200,954.51725
D1,Bastos/SP,-21.9222474,-50.7317727,6,28.63552
1,Bataguassu/MS,-21.715899,-52.422058,1077,4617.36334
D1,Bataguassu/MS,-21.715899,-52.422058,7,30.01072
1,Batalha/AL,-9.6733809,-37.1265481,622,3391.86389
D1,Batalha/AL,-9.6733809,-37.1265481,11,59.98473
1,Batalha/PI,-4.022391,-42.0780926,452,1679.98513
D1,Batalha/PI,-4.022391,-42.0780926,11,40.88459
1,Batatais/SP,-20.892867,-47.592149,870,1381.39092
D1,Batatais/SP,-20.892867,-47.592149,33,52.39759
1,Batayporã/MS,-22.2976466,-53.2685608,279,2458.36638
D1,Batayporã/MS,-22.2976466,-53.2685608,5,44.05675
1,Baturité/CE,-4.3290203,-38.8821055,655,1822.43121
D1,Baturité/CE,-4.3290203,-38.8821055,32,89.03481
1,Bauru/SP,-22.3218102,-49.0705863,16101,4244.95844
D1,Bauru/SP,-22.3218102,-49.0705863,275,72.50255
1,Bayeux/PB,-7.1301631,-34.936532,2562,2635.72112
D1,Bayeux/PB,-7.1301631,-34.936532,122,125.51053
1,Baía Formosa/RN,-6.3691885,-35.0063741,193,2070.37116
D1,Baía Formosa/RN,-6.3691885,-35.0063741,6,64.36387
1,Baía da Traição/PB,-6.691258,-34.9371244,844,9278.80387
D1,Baía da Traição/PB,-6.691258,-34.9371244,7,76.95690
1,Bebedouro/SP,-20.949077,-48.479083,1582,2039.84269
D1,Bebedouro/SP,-20.949077,-48.479083,34,43.83986
1,Beberibe/CE,-4.1810469,-38.1298101,1035,1918.47856
D1,Beberibe/CE,-4.1810469,-38.1298101,31,57.46168
1,Bela Cruz/CE,-3.0529129,-40.167582,1278,3905.62924
D1,Bela Cruz/CE,-3.0529129,-40.167582,24,73.34515
1,Bela Vista da Caroba/PR,-25.8792818,-53.6672545,40,1157.07261
1,Bela Vista de Goiás/GO,-16.9692949,-48.9513071,1043,3420.56933
D1,Bela Vista de Goiás/GO,-16.9692949,-48.9513071,18,59.03188
1,Bela Vista de Minas/MG,-19.8289721,-43.0973688,134,1305.78835
D1,Bela Vista de Minas/MG,-19.8289721,-43.0973688,1,9.74469
1,Bela Vista do Maranhão/MA,-3.7416367,-45.2514192,137,1214.64669
D1,Bela Vista do Maranhão/MA,-3.7416367,-45.2514192,8,70.92827
1,Bela Vista do Paraíso/PR,-22.9948493,-51.1907996,233,1513.08527
D1,Bela Vista do Paraíso/PR,-22.9948493,-51.1907996,5,32.46964
1,Bela Vista do Piauí/PI,-7.9716353,-41.8715061,73,1811.41439
D1,Bela Vista do Piauí/PI,-7.9716353,-41.8715061,2,49.62779
1,Bela Vista do Toldo/SC,-26.274625,-50.466354,15,235.77491
D1,Bela Vista do Toldo/SC,-26.274625,-50.466354,1,15.71833
1,Bela Vista/MS,-22.107327,-56.5317344,99,400.24257
D1,Bela Vista/MS,-22.107327,-56.5317344,4,16.17142
1,Belford Roxo/RJ,-22.7667284,-43.4033603,11617,2264.00165
D1,Belford Roxo/RJ,-22.7667284,-43.4033603,354,68.98998
1,Belmiro Braga/MG,-21.9486291,-43.413564,36,1051.09489
D1,Belmiro Braga/MG,-21.9486291,-43.413564,3,87.59124
1,Belmonte/BA,-15.8630837,-38.8792845,540,2304.04915
D1,Belmonte/BA,-15.8630837,-38.8792845,4,17.06703
1,Belmonte/SC,-26.8448262,-53.578916,15,553.70986
1,Belo Campo/BA,-15.0338286,-41.2585109,154,900.11105
D1,Belo Campo/BA,-15.0338286,-41.2585109,2,11.68975
1,Belo Horizonte/MG,-19.9227318,-43.9450948,55378,2196.17666
D1,Belo Horizonte/MG,-19.9227318,-43.9450948,1674,66.38737
1,Belo Jardim/PE,-8.3338293,-36.4176419,1359,1772.13869
D1,Belo Jardim/PE,-8.3338293,-36.4176419,41,53.46408
1,Belo Monte/AL,-9.8269944,-37.2787165,182,2712.36960
D1,Belo Monte/AL,-9.8269944,-37.2787165,4,59.61252
1,Belo Oriente/MG,-19.2232523,-42.4807033,904,3348.89235
D1,Belo Oriente/MG,-19.2232523,-42.4807033,14,51.86338
1,Belo Vale/MG,-20.407778,-44.024167,116,1502.78533
D1,Belo Vale/MG,-20.407778,-44.024167,3,38.86514
1,Belterra/PA,-2.636091,-54.937392,562,3150.40081
D1,Belterra/PA,-2.636091,-54.937392,14,78.47974
1,Belágua/MA,-3.1604031,-43.5085052,273,3626.46121
D1,Belágua/MA,-3.1604031,-43.5085052,1,13.28374
1,Belém de Maria/PE,-8.6242497,-35.8388934,103,849.69477
D1,Belém de Maria/PE,-8.6242497,-35.8388934,3,24.74839
1,Belém do Brejo do Cruz/PB,-6.1880727,-37.5332267,168,2286.02531
D1,Belém do Brejo do Cruz/PB,-6.1880727,-37.5332267,3,40.82188
1,Belém do Piauí/PI,-7.3767305,-40.9712156,149,4153.88904
D1,Belém do Piauí/PI,-7.3767305,-40.9712156,3,83.63535
1,Belém do São Francisco/PE,-8.7517707,-38.9625715,160,771.82827
1,Belém/AL,-9.5715351,-36.492841,61,1423.90289
D1,Belém/AL,-9.5715351,-36.492841,2,46.68534
1,Belém/PA,-1.45056,-48.4682453,50947,3397.27975
D1,Belém/PA,-1.45056,-48.4682453,2324,154.97042
1,Belém/PB,-6.6967586,-35.5369626,1136,6416.26659
D1,Belém/PB,-6.6967586,-35.5369626,18,101.66620
1,Beneditinos/PI,-5.4565671,-42.3605061,343,3275.08832
D1,Beneditinos/PI,-5.4565671,-42.3605061,10,95.48362
1,Benedito Leite/MA,-7.2173453,-44.5523331,201,3565.09400
D1,Benedito Leite/MA,-7.2173453,-44.5523331,2,35.47357
1,Benedito Novo/SC,-26.7840657,-49.3629511,324,2751.59236
D1,Benedito Novo/SC,-26.7840657,-49.3629511,2,16.98514
1,Benevides/PA,-1.3555577,-48.252235,2127,3335.52879
D1,Benevides/PA,-1.3555577,-48.252235,49,76.84105
1,Benjamin Constant do Sul/RS,-27.5105555,-52.6007689,115,5873.34014
1,Benjamin Constant/AM,-4.3782748,-70.0290603,1729,3935.35905
D1,Benjamin Constant/AM,-4.3782748,-70.0290603,46,104.70013
1,Bento Fernandes/RN,-5.6926846,-35.8207423,37,669.68326
D1,Bento Fernandes/RN,-5.6926846,-35.8207423,2,36.19910
1,Bento Gonçalves/RS,-29.1654014,-51.5197627,5486,4503.99415
D1,Bento Gonçalves/RS,-29.1654014,-51.5197627,125,102.62473
1,Bento de Abreu/SP,-21.2707225,-50.8120444,44,1464.22629
1,Bequimão/MA,-2.4495376,-44.7884889,237,1112.72830
D1,Bequimão/MA,-2.4495376,-44.7884889,12,56.34067
1,Berilo/MG,-16.9515764,-42.4643732,8,67.38544
1,Berizal/MG,-15.6118785,-41.7417382,10,209.90764
1,Bernardino Batista/PB,-6.4532173,-38.5495418,136,3846.15385
1,Bernardino de Campos/SP,-23.0140216,-49.4760724,128,1147.15899
D1,Bernardino de Campos/SP,-23.0140216,-49.4760724,3,26.88654
1,Bernardo Sayão/TO,-7.8794244,-48.8968905,82,1843.52518
D1,Bernardo Sayão/TO,-7.8794244,-48.8968905,3,67.44604
1,Bernardo do Mearim/MA,-4.6315929,-44.7617508,140,2305.28569
D1,Bernardo do Mearim/MA,-4.6315929,-44.7617508,3,49.39898
1,Bertioga/SP,-23.848568,-46.139586,2214,3420.73142
D1,Bertioga/SP,-23.848568,-46.139586,49,75.70724
1,Bertolínia/PI,-7.6372159,-43.9540611,530,9624.11476
D1,Bertolínia/PI,-7.6372159,-43.9540611,6,108.95224
1,Bertópolis/MG,-17.063333,-40.573889,143,3103.97222
1,Beruri/AM,-3.9007135,-61.3717319,1058,5265.51535
D1,Beruri/AM,-3.9007135,-61.3717319,12,59.72229
1,Betim/MG,-19.968056,-44.198333,8556,1923.63035
D1,Betim/MG,-19.968056,-44.198333,254,57.10637
1,Betânia do Piauí/PI,-8.1460635,-40.7961387,73,1175.52335
D1,Betânia do Piauí/PI,-8.1460635,-40.7961387,1,16.10306
1,Betânia/PE,-8.2742779,-38.0351767,127,994.90795
D1,Betânia/PE,-8.2742779,-38.0351767,2,15.66784
1,Bezerros/PE,-8.2372132,-35.7558262,1396,2293.03548
D1,Bezerros/PE,-8.2372132,-35.7558262,70,114.98029
1,Bias Fortes/MG,-21.605833,-43.756944,34,1021.32773
D1,Bias Fortes/MG,-21.605833,-43.756944,1,30.03905
1,Bicas/MG,-21.7213723,-43.0604327,114,783.28982
D1,Bicas/MG,-21.7213723,-43.0604327,3,20.61289
1,Biguaçu/SC,-27.4961277,-48.6542432,5040,7253.25965
D1,Biguaçu/SC,-27.4961277,-48.6542432,47,67.63952
1,Bilac/SP,-21.403962,-50.47464,127,1564.61747
D1,Bilac/SP,-21.403962,-50.47464,2,24.63965
1,Biquinhas/MG,-18.783611,-45.502222,28,1120.89672
1,Birigui/SP,-21.2908491,-50.34144,3447,2760.18353
D1,Birigui/SP,-21.2908491,-50.34144,104,83.27795
1,Biritiba Mirim/SP,-23.5697765,-46.0407456,531,1612.21763
D1,Biritiba Mirim/SP,-23.5697765,-46.0407456,32,97.15812
1,Biritinga/BA,-11.6227908,-38.8066738,105,656.90691
D1,Biritinga/BA,-11.6227908,-38.8066738,2,12.51251
1,Bituruna/PR,-26.161281,-51.5533319,70,426.82927
D1,Bituruna/PR,-26.161281,-51.5533319,1,6.09756
1,Blumenau/SC,-26.9195567,-49.0658025,21127,5838.52648
D1,Blumenau/SC,-26.9195567,-49.0658025,208,57.48159
1,Boa Esperança do Iguaçu/PR,-25.6362851,-53.2139114,53,2145.74899
1,Boa Esperança do Sul/SP,-21.9930206,-48.3917372,247,1644.69304
D1,Boa Esperança do Sul/SP,-21.9930206,-48.3917372,6,39.95206
1,Boa Esperança/ES,-18.5395472,-40.2904088,445,2948.58203
D1,Boa Esperança/ES,-18.5395472,-40.2904088,17,112.64246
1,Boa Esperança/MG,-21.0901253,-45.5660195,439,1091.52391
D1,Boa Esperança/MG,-21.0901253,-45.5660195,20,49.72774
1,Boa Esperança/PR,-24.2411024,-52.7860277,50,1235.48307
1,Boa Hora/PI,-4.4094627,-42.1255341,159,2333.08877
1,Boa Nova/BA,-14.365907,-40.2063056,234,1897.96415
D1,Boa Nova/BA,-14.365907,-40.2063056,4,32.44383
1,Boa Ventura de São Roque/PR,-24.88177,-51.5441292,11,172.82011
1,Boa Ventura/PB,-7.4202462,-38.2156782,138,2600.33917
D1,Boa Ventura/PB,-7.4202462,-38.2156782,3,56.52911
1,Boa Viagem/CE,-5.1261877,-39.7300055,1486,2722.75867
D1,Boa Viagem/CE,-5.1261877,-39.7300055,37,67.79413
1,Boa Vista da Aparecida/PR,-25.4357216,-53.4067721,164,2175.06631
D1,Boa Vista da Aparecida/PR,-25.4357216,-53.4067721,5,66.31300
1,Boa Vista das Missões/RS,-27.6677983,-53.3127622,10,478.01147
1,Boa Vista do Buricá/RS,-27.6687782,-54.1111913,208,3098.92729
D1,Boa Vista do Buricá/RS,-27.6687782,-54.1111913,2,29.79738
1,Boa Vista do Cadeado/RS,-28.5783827,-53.8123759,18,729.33549
1,Boa Vista do Gurupi/MA,-1.7981168,-46.3071882,14,167.02458
D1,Boa Vista do Gurupi/MA,-1.7981168,-46.3071882,3,35.79098
1,Boa Vista do Incra/RS,-28.8195551,-53.3866624,29,1108.56269
1,Boa Vista do Ramos/AM,-2.9716927,-57.5869819,531,2705.59462
D1,Boa Vista do Ramos/AM,-2.9716927,-57.5869819,6,30.57169
1,Boa Vista do Sul/RS,-29.3510488,-51.6779679,83,2987.76098
D1,Boa Vista do Sul/RS,-29.3510488,-51.6779679,1,35.99712
1,Boa Vista do Tupim/BA,-12.6605988,-40.6083594,114,615.18537
D1,Boa Vista do Tupim/BA,-12.6605988,-40.6083594,2,10.79273
1,Boa Vista/PB,-7.2620711,-36.2415161,153,2144.05830
D1,Boa Vista/PB,-7.2620711,-36.2415161,1,14.01345
1,Boa Vista/RR,2.8208478,-60.6719582,48112,11464.73745
D1,Boa Vista/RR,2.8208478,-60.6719582,543,129.39293
1,Boca da Mata/AL,-9.6452054,-36.2116658,1259,4602.28104
D1,Boca da Mata/AL,-9.6452054,-36.2116658,25,91.38763
1,Boca do Acre/AM,-8.7553487,-67.3930873,1717,4957.41302
D1,Boca do Acre/AM,-8.7553487,-67.3930873,16,46.19604
1,Bocaina de Minas/MG,-22.167778,-44.394722,20,393.00452
D1,Bocaina de Minas/MG,-22.167778,-44.394722,2,39.30045
1,Bocaina do Sul/SC,-27.745494,-49.942279,226,6479.35780
D1,Bocaina do Sul/SC,-27.745494,-49.942279,2,57.33945
1,Bocaina/PI,-6.9445939,-41.3224599,156,3462.81909
D1,Bocaina/PI,-6.9445939,-41.3224599,2,44.39512
1,Bocaina/SP,-22.1421831,-48.522276,211,1694.50691
D1,Bocaina/SP,-22.1421831,-48.522276,3,24.09252
1,Bocaiúva do Sul/PR,-25.206591,-49.114131,338,2574.45350
D1,Bocaiúva do Sul/PR,-25.206591,-49.114131,3,22.85018
1,Bocaiúva/MG,-17.1160208,-43.8122678,507,1008.83477
D1,Bocaiúva/MG,-17.1160208,-43.8122678,7,13.92869
1,Bodocó/PE,-7.777592,-39.933797,371,966.69967
D1,Bodocó/PE,-7.777592,-39.933797,8,20.84528
1,Bodoquena/MS,-20.5508775,-56.6769653,77,982.39347
D1,Bodoquena/MS,-20.5508775,-56.6769653,1,12.75836
1,Bodó/RN,-5.9866104,-36.4134824,40,1820.66454
1,Bofete/SP,-23.1019554,-48.2610535,174,1459.60909
D1,Bofete/SP,-23.1019554,-48.2610535,4,33.55423
1,Boituva/SP,-23.2838893,-47.6738231,1395,2243.84751
D1,Boituva/SP,-23.2838893,-47.6738231,23,36.99534
1,Bom Conselho/PE,-9.169191,-36.685683,891,1827.05518
D1,Bom Conselho/PE,-9.169191,-36.685683,25,51.26417
1,Bom Despacho/MG,-19.7375242,-45.2517288,890,1744.14047
D1,Bom Despacho/MG,-19.7375242,-45.2517288,20,39.19417
1,Bom Jardim da Serra/SC,-28.3380324,-49.625588,389,8151.71836
D1,Bom Jardim da Serra/SC,-28.3380324,-49.625588,1,20.95557
1,Bom Jardim de Goiás/GO,-16.2062659,-52.172793,179,2018.26587
D1,Bom Jardim de Goiás/GO,-16.2062659,-52.172793,3,33.82568
1,Bom Jardim de Minas/MG,-21.9476466,-44.1906033,18,278.68091
1,Bom Jardim/MA,-3.54129,-45.606004,996,2381.52169
D1,Bom Jardim/MA,-3.54129,-45.606004,29,69.34149
1,Bom Jardim/PE,-7.7961572,-35.5871696,743,1858.28977
D1,Bom Jardim/PE,-7.7961572,-35.5871696,33,82.53508
1,Bom Jardim/RJ,-22.1515328,-42.4186683,271,981.31518
D1,Bom Jardim/RJ,-22.1515328,-42.4186683,5,18.10545
1,Bom Jesus da Lapa/BA,-13.250571,-43.410754,1154,1656.57030
D1,Bom Jesus da Lapa/BA,-13.250571,-43.410754,16,22.96805
1,Bom Jesus da Penha/MG,-21.0165299,-46.5226644,104,2450.51838
D1,Bom Jesus da Penha/MG,-21.0165299,-46.5226644,1,23.56268
1,Bom Jesus da Serra/BA,-14.3724084,-40.5047119,119,1211.44253
1,Bom Jesus das Selvas/MA,-4.4878075,-46.8526639,1889,5464.74962
D1,Bom Jesus das Selvas/MA,-4.4878075,-46.8526639,16,46.28692
1,Bom Jesus de Goiás/GO,-18.2174587,-49.739721,1034,4031.50343
D1,Bom Jesus de Goiás/GO,-18.2174587,-49.739721,29,113.06925
1,Bom Jesus do Amparo/MG,-19.7045132,-43.4752911,51,831.56693
D1,Bom Jesus do Amparo/MG,-19.7045132,-43.4752911,2,32.61047
1,Bom Jesus do Araguaia/MT,-12.1725897,-51.5074425,201,2997.31584
1,Bom Jesus do Galho/MG,-19.8283191,-42.3162256,172,1157.31396
D1,Bom Jesus do Galho/MG,-19.8283191,-42.3162256,6,40.37142
1,Bom Jesus do Itabapoana/RJ,-21.1341025,-41.680095,966,2596.56479
D1,Bom Jesus do Itabapoana/RJ,-21.1341025,-41.680095,23,61.82297
1,Bom Jesus do Norte/ES,-21.1254776,-41.6711646,389,3904.83839
D1,Bom Jesus do Norte/ES,-21.1254776,-41.6711646,8,80.30516
1,Bom Jesus do Oeste/SC,-26.6929713,-53.0967453,30,1402.52454
D1,Bom Jesus do Oeste/SC,-26.6929713,-53.0967453,1,46.75082
1,Bom Jesus do Sul/PR,-26.1922507,-53.6002033,33,941.24358
D1,Bom Jesus do Sul/PR,-26.1922507,-53.6002033,1,28.52253
1,Bom Jesus do Tocantins/PA,-5.0471796,-48.5978362,413,2412.66503
D1,Bom Jesus do Tocantins/PA,-5.0471796,-48.5978362,4,23.36722
1,Bom Jesus do Tocantins/TO,-8.96306,-48.165043,101,2016.77316
1,Bom Jesus dos Perdões/SP,-23.1353864,-46.4648052,416,1600.92361
D1,Bom Jesus dos Perdões/SP,-23.1353864,-46.4648052,3,11.54512
1,Bom Jesus/PB,-6.8156725,-38.6551841,64,2485.43689
D1,Bom Jesus/PB,-6.8156725,-38.6551841,1,38.83495
1,Bom Jesus/PI,-9.0711644,-44.3583926,1871,7369.91374
D1,Bom Jesus/PI,-9.0711644,-44.3583926,24,94.53657
1,Bom Jesus/RN,-5.9887544,-35.5821149,216,2103.82780
D1,Bom Jesus/RN,-5.9887544,-35.5821149,5,48.69972
1,Bom Jesus/RS,-28.6692723,-50.4346894,244,2157.57361
D1,Bom Jesus/RS,-28.6692723,-50.4346894,4,35.37006
1,Bom Jesus/SC,-26.7350604,-52.3916519,103,3369.31632
D1,Bom Jesus/SC,-26.7350604,-52.3916519,3,98.13543
1,Bom Lugar/MA,-4.3728019,-45.0366054,305,1855.45687
D1,Bom Lugar/MA,-4.3728019,-45.0366054,4,24.33386
1,Bom Princípio do Piauí/PI,-3.1912777,-41.6430185,43,760.92727
D1,Bom Princípio do Piauí/PI,-3.1912777,-41.6430185,3,53.08795
1,Bom Princípio/RS,-29.489788,-51.3566782,487,3416.34514
D1,Bom Princípio/RS,-29.489788,-51.3566782,5,35.07541
1,Bom Progresso/RS,-27.5490948,-53.8655601,14,737.23012
1,Bom Repouso/MG,-22.4657069,-46.1485376,140,1328.65142
D1,Bom Repouso/MG,-22.4657069,-46.1485376,5,47.45184
1,Bom Retiro do Sul/RS,-29.6000007,-51.9359243,313,2526.23083
D1,Bom Retiro do Sul/RS,-29.6000007,-51.9359243,5,40.35513
1,Bom Retiro/SC,-27.798993,-49.486994,148,1471.17296
D1,Bom Retiro/SC,-27.798993,-49.486994,5,49.70179
1,Bom Sucesso de Itararé/SP,-24.3190016,-49.1446207,9,225.90361
D1,Bom Sucesso de Itararé/SP,-24.3190016,-49.1446207,1,25.10040
1,Bom Sucesso do Sul/PR,-26.0749256,-52.8348629,52,1598.03319
1,Bom Sucesso/MG,-21.0323516,-44.7598082,66,374.85091
D1,Bom Sucesso/MG,-21.0323516,-44.7598082,1,5.67956
1,Bom Sucesso/PB,-6.4458948,-37.9297662,42,847.45763
1,Bom Sucesso/PR,-23.7088019,-51.7651297,148,2093.94454
D1,Bom Sucesso/PR,-23.7088019,-51.7651297,2,28.29655
1,Bombinhas/SC,-27.1519159,-48.4875691,1709,8404.22916
D1,Bombinhas/SC,-27.1519159,-48.4875691,11,54.09393
1,Bonfim do Piauí/PI,-9.1648678,-42.8734415,127,2233.94899
D1,Bonfim do Piauí/PI,-9.1648678,-42.8734415,2,35.18030
1,Bonfim/MG,-20.3266626, -44.2386157,92,1341.10787
D1,Bonfim/MG,-20.3266626, -44.2386157,2,29.15452
1,Bonfim/RR,3.3613818,-59.8427241,1277,10169.62650
D1,Bonfim/RR,3.3613818,-59.8427241,14,111.49160
1,Bonfinópolis de Minas/MG,-16.5660011,-45.98645,172,3159.44159
D1,Bonfinópolis de Minas/MG,-16.5660011,-45.98645,9,165.31962
1,Bonfinópolis/GO,-16.6172709,-48.9615701,377,3800.78637
D1,Bonfinópolis/GO,-16.6172709,-48.9615701,10,100.81661
1,Boninal/BA,-12.7095183,-41.8299984,67,463.79621
D1,Boninal/BA,-12.7095183,-41.8299984,1,6.92233
1,Bonito de Minas/MG,-15.3191266,-44.7544,6,52.77509
1,Bonito de Santa Fé/PB,-7.3143332,-38.5146677,271,2254.20063
D1,Bonito de Santa Fé/PB,-7.3143332,-38.5146677,9,74.86275
1,Bonito/BA,-11.9665473,-41.2649896,251,1486.61455
D1,Bonito/BA,-11.9665473,-41.2649896,2,11.84553
1,Bonito/MS,-21.1264766,-56.4902208,777,3501.57729
D1,Bonito/MS,-21.1264766,-56.4902208,10,45.06534
1,Bonito/PA,-1.3605722,-47.3049907,287,1736.23714
D1,Bonito/PA,-1.3605722,-47.3049907,9,54.44646
1,Bonito/PE,-8.4721161,-35.7314591,385,1010.04801
D1,Bonito/PE,-8.4721161,-35.7314591,28,73.45804
1,Bonópolis/GO,-13.649331,-49.8329113,86,1914.08858
D1,Bonópolis/GO,-13.649331,-49.8329113,1,22.25684
1,Boqueirão do Leão/RS,-29.30332,-52.4296817,131,1700.85692
D1,Boqueirão do Leão/RS,-29.30332,-52.4296817,3,38.95092
1,Boqueirão do Piauí/PI,-4.4850148,-42.1095161,178,2769.99689
D1,Boqueirão do Piauí/PI,-4.4850148,-42.1095161,1,15.56178
1,Boqueirão/PB,-7.487004,-36.130887,784,4387.24119
D1,Boqueirão/PB,-7.487004,-36.130887,9,50.36374
1,Boquim/SE,-11.1450175,-37.6204228,698,2594.89200
D1,Boquim/SE,-11.1450175,-37.6204228,20,74.35221
1,Boquira/BA,-12.8184859,-42.7270883,61,283.76052
D1,Boquira/BA,-12.8184859,-42.7270883,1,4.65181
1,Boracéia/SP,-22.195355,-48.7801925,157,3225.14380
D1,Boracéia/SP,-22.195355,-48.7801925,2,41.08463
1,Borba/AM,-4.3934778,-59.5947721,807,1933.02673
D1,Borba/AM,-4.3934778,-59.5947721,23,55.09246
1,Borborema/PB,-6.8066718,-35.5990191,92,1740.11727
1,Borborema/SP,-21.6212706,-49.074135,319,1973.52141
D1,Borborema/SP,-21.6212706,-49.074135,10,61.86587
1,Borda da Mata/MG,-22.274167,-46.165278,416,2120.93403
D1,Borda da Mata/MG,-22.274167,-46.165278,18,91.77118
1,Borebi/SP,-22.5700178,-48.9714871,50,1863.58554
D1,Borebi/SP,-22.5700178,-48.9714871,2,74.54342
1,Borrazópolis/PR,-23.9393362,-51.5850786,236,3665.16540
D1,Borrazópolis/PR,-23.9393362,-51.5850786,3,46.59109
1,Borá/SP,-22.2701088,-50.544407,6,715.99045
1,Bossoroca/RS,-28.7278885,-54.9120278,99,1595.48751
D1,Bossoroca/RS,-28.7278885,-54.9120278,1,16.11604
1,Botelhos/MG,-21.65,-46.394722,144,963.27514
D1,Botelhos/MG,-21.65,-46.394722,1,6.68941
1,Botucatu/SP,-22.8879628,-48.4410712,3215,2170.39087
D1,Botucatu/SP,-22.8879628,-48.4410712,54,36.45447
1,Botumirim/MG,-16.862778,-43.011111,6,95.41985
1,Botuporã/BA,-13.3744752,-42.5198469,20,197.45286
D1,Botuporã/BA,-13.3744752,-42.5198469,1,9.87264
1,Botuverá/SC,-27.200749,-49.068892,252,4735.06201
1,Bozano/RS,-28.3669953,-53.7705165,40,1894.83657
1,Braga/RS,-27.617348,-53.740514,21,634.24947
1,Braganey/PR,-24.8179919,-53.118506,61,1133.40766
D1,Braganey/PR,-24.8179919,-53.118506,2,37.16091
1,Bragança Paulista/SP,-22.9520235,-46.5418586,4698,2754.89202
D1,Bragança Paulista/SP,-22.9520235,-46.5418586,91,53.36211
1,Bragança/PA,-1.0573967,-46.7635406,2802,2173.54205
D1,Bragança/PA,-1.0573967,-46.7635406,96,74.46825
1,Branquinha/AL,-9.2478057,-36.0152009,273,2609.94264
D1,Branquinha/AL,-9.2478057,-36.0152009,6,57.36138
1,Brasil Novo/PA,-3.3055853,-52.539198,791,5279.31656
D1,Brasil Novo/PA,-3.3055853,-52.539198,16,106.78769
1,Brasileira/PI,-4.131182,-41.7824969,229,2743.50066
D1,Brasileira/PI,-4.131182,-41.7824969,2,23.96070
1,Brasilândia de Minas/MG,-17.0096469,-46.0087183,395,2358.49057
D1,Brasilândia de Minas/MG,-17.0096469,-46.0087183,1,5.97086
1,Brasilândia do Sul/PR,-24.1975793,-53.527551,52,2011.60542
D1,Brasilândia do Sul/PR,-24.1975793,-53.527551,1,38.68472
1,Brasilândia do Tocantins/TO,-8.3886619,-48.4842729,56,2532.79059
D1,Brasilândia do Tocantins/TO,-8.3886619,-48.4842729,1,45.22840
1,Brasilândia/MS,-21.255575,-52.0365617,119,1003.96524
D1,Brasilândia/MS,-21.255575,-52.0365617,4,33.74673
1,Brasiléia/AC,-11.0010413,-68.7487894,1227,4595.16141
D1,Brasiléia/AC,-11.0010413,-68.7487894,20,74.90076
1,Brasnorte/MT,-12.1227151,-58.0050109,338,1678.25223
D1,Brasnorte/MT,-12.1227151,-58.0050109,1,4.96524
1,Brasília de Minas/MG,-16.2075114,-44.430559,264,814.68909
D1,Brasília de Minas/MG,-16.2075114,-44.430559,5,15.42972
1,Brasília/DF,-15.7934036,-47.8823172,233376,7638.77637
D1,Brasília/DF,-15.7934036,-47.8823172,3978,130.20642
1,Brazabrantes/GO,-16.4291635,-49.3858216,177,4725.04004
D1,Brazabrantes/GO,-16.4291635,-49.3858216,2,53.39028
1,Brazópolis/MG,-22.4742842,-45.6165577,283,1963.91395
D1,Brazópolis/MG,-22.4742842,-45.6165577,3,20.81888
1,Braço do Norte/SC,-28.2728633,-49.1622712,3443,10163.53761
D1,Braço do Norte/SC,-28.2728633,-49.1622712,24,70.84662
1,Braço do Trombudo/SC,-27.358578,-49.882145,157,4165.56116
D1,Braço do Trombudo/SC,-27.358578,-49.882145,2,53.06447
1,Braúna/SP,-21.5015319,-50.3175246,117,2037.97248
D1,Braúna/SP,-21.5015319,-50.3175246,7,121.92998
1,Braúnas/MG,-19.055556,-42.716111,17,356.46886
D1,Braúnas/MG,-19.055556,-42.716111,2,41.93751
1,Brejetuba/ES,-20.1465817,-41.2902303,604,4860.38465
D1,Brejetuba/ES,-20.1465817,-41.2902303,1,8.04699
1,Brejinho de Nazaré/TO,-11.0205883,-48.5722906,96,1739.44555
D1,Brejinho de Nazaré/TO,-11.0205883,-48.5722906,4,72.47690
1,Brejinho/PE,-7.3482153,-37.28538,215,2871.26068
D1,Brejinho/PE,-7.3482153,-37.28538,2,26.70940
1,Brejinho/RN,-6.1957907,-35.3583019,302,2361.77368
D1,Brejinho/RN,-6.1957907,-35.3583019,3,23.46133
1,Brejo Alegre/SP,-21.1671191,-50.1850393,103,3565.24749
D1,Brejo Alegre/SP,-21.1671191,-50.1850393,6,207.68432
1,Brejo Grande do Araguaia/PA,-5.7011449,-48.4037308,517,7016.82953
D1,Brejo Grande do Araguaia/PA,-5.7011449,-48.4037308,2,27.14441
1,Brejo Grande/SE,-10.4287358,-36.4667918,178,2130.97091
D1,Brejo Grande/SE,-10.4287358,-36.4667918,7,83.80223
1,Brejo Santo/CE,-7.4909841,-38.9859152,2267,4548.37286
D1,Brejo Santo/CE,-7.4909841,-38.9859152,25,50.15850
1,Brejo da Madre de Deus/PE,-8.1409718,-36.3712527,1081,2110.29771
D1,Brejo da Madre de Deus/PE,-8.1409718,-36.3712527,29,56.61298
1,Brejo de Areia/MA,-4.3316785,-45.5833334,228,2529.39871
D1,Brejo de Areia/MA,-4.3316785,-45.5833334,2,22.18771
1,Brejo do Cruz/PB,-6.32926065,-37.48746163303929,693,4878.22047
D1,Brejo do Cruz/PB,-6.32926065,-37.48746163303929,10,70.39279
1,Brejo do Piauí/PI,-8.207583,-42.8359849,25,649.68815
1,Brejo dos Santos/PB,-6.3769367,-37.8243125,86,1330.44554
1,Brejo/MA,-3.6804397,-42.7529313,701,1912.63540
D1,Brejo/MA,-3.6804397,-42.7529313,18,49.11189
1,Brejolândia/BA,-12.4843845,-43.9611861,47,442.64457
D1,Brejolândia/BA,-12.4843845,-43.9611861,2,18.83594
1,Brejão/PE,-9.029146,-36.566034,43,478.46890
D1,Brejão/PE,-9.029146,-36.566034,2,22.25437
1,Brejões/BA,-13.1033754,-39.7909837,123,864.85726
D1,Brejões/BA,-13.1033754,-39.7909837,1,7.03136
1,Breu Branco/PA,-3.7785073,-49.5684795,351,521.29745
D1,Breu Branco/PA,-3.7785073,-49.5684795,21,31.18874
1,Breves/PA,-1.68036,-50.479085,3215,3106.37023
D1,Breves/PA,-1.68036,-50.479085,88,85.02662
1,Britânia/GO,-15.2427599,-51.1602061,199,3432.81007
D1,Britânia/GO,-15.2427599,-51.1602061,1,17.25030
1,Brochier/RS,-29.556766,-51.5963047,59,1155.95611
1,Brodowski/SP,-20.984532,-47.657217,667,2638.76251
D1,Brodowski/SP,-20.984532,-47.657217,22,87.03565
1,Brotas de Macaúbas/BA,-12.0019007,-42.6257506,7,69.10168
1,Brotas/SP,-22.2840884,-48.1267265,215,872.70661
D1,Brotas/SP,-22.2840884,-48.1267265,5,20.29550
1,Brumadinho/MG,-20.143611,-44.2,1371,3371.36674
D1,Brumadinho/MG,-20.143611,-44.2,16,39.34491
1,Brumado/BA,-14.29507325,-41.659307508575985,3135,4655.82535
D1,Brumado/BA,-14.29507325,-41.659307508575985,36,53.46402
1,Brunópolis/SC,-27.310953,-50.837585,38,1604.72973
1,Brusque/SC,-27.0964628,-48.9136323,10298,7479.17408
D1,Brusque/SC,-27.0964628,-48.9136323,68,49.38666
1,Brás Pires/MG,-20.8483109,-43.2430524,8,186.34987
D1,Brás Pires/MG,-20.8483109,-43.2430524,1,23.29373
1,Bueno Brandão/MG,-22.441976,-46.3517971,86,782.45838
D1,Bueno Brandão/MG,-22.441976,-46.3517971,6,54.59012
1,Buenos Aires/PE,-7.7218931,-35.326587,61,462.47157
D1,Buenos Aires/PE,-7.7218931,-35.326587,9,68.23351
1,Buenópolis/MG,-17.8756607,-44.1749365,94,907.94939
D1,Buenópolis/MG,-17.8756607,-44.1749365,2,19.31807
1,Buerarema/BA,-14.9571177,-39.3008035,596,3255.76314
D1,Buerarema/BA,-14.9571177,-39.3008035,23,125.64187
1,Bugre/MG,-19.4257687,-42.2556,69,1732.36254
D1,Bugre/MG,-19.4257687,-42.2556,1,25.10670
1,Bujari/AC,-9.8309656,-67.9520886,455,4366.60269
D1,Bujari/AC,-9.8309656,-67.9520886,8,76.77543
1,Bujaru/PA,-1.5169239,-48.0410699,693,2354.98012
D1,Bujaru/PA,-1.5169239,-48.0410699,23,78.15951
1,Buri/SP,-23.79849,-48.598924,342,1712.99775
D1,Buri/SP,-23.79849,-48.598924,10,50.08765
1,Buritama/SP,-21.0664017,-50.1448077,576,3333.14044
D1,Buritama/SP,-21.0664017,-50.1448077,15,86.80053
1,Buriti Alegre/GO,-18.1377879,-49.0404411,323,3405.73598
D1,Buriti Alegre/GO,-18.1377879,-49.0404411,8,84.35259
1,Buriti Bravo/MA,-5.8391884,-43.8367876,983,4106.27010
D1,Buriti Bravo/MA,-5.8391884,-43.8367876,3,12.53185
1,Buriti de Goiás/GO,-16.180644,-50.4287479,104,4200.32310
D1,Buriti de Goiás/GO,-16.180644,-50.4287479,1,40.38772
1,Buriti do Tocantins/TO,-5.3187439,-48.2256609,288,2505.00130
1,Buriti dos Lopes/PI,-3.1776723,-41.8707444,807,4074.31716
D1,Buriti dos Lopes/PI,-3.1776723,-41.8707444,12,60.58464
1,Buriti dos Montes/PI,-5.3136171,-41.0971256,259,3134.07551
D1,Buriti dos Montes/PI,-5.3136171,-41.0971256,2,24.20136
1,Buriti/MA,-3.9430944,-42.9244281,689,2392.52726
D1,Buriti/MA,-3.9430944,-42.9244281,2,6.94493
1,Buriticupu/MA,-4.3227472,-46.4516989,2576,3529.58908
D1,Buriticupu/MA,-4.3227472,-46.4516989,7,9.59127
1,Buritinópolis/GO,-14.4589282,-46.4293104,58,1766.67682
1,Buritirama/BA,-10.7148421,-43.6362327,435,2044.55725
D1,Buritirama/BA,-10.7148421,-43.6362327,8,37.60105
1,Buritirana/MA,-5.5897455,-47.0148915,241,1558.15607
D1,Buritirana/MA,-5.5897455,-47.0148915,6,38.79227
1,Buritis/MG,-15.621389,-46.423889,450,1799.06449
D1,Buritis/MG,-15.621389,-46.423889,3,11.99376
1,Buritis/RO,-10.2054937,-63.8281954,854,2116.16612
D1,Buritis/RO,-10.2054937,-63.8281954,11,27.25741
1,Buritizal/SP,-20.1933264,-47.7097165,67,1484.27116
D1,Buritizal/SP,-20.1933264,-47.7097165,3,66.45990
1,Buritizeiro/MG,-17.3667765,-44.9647781,357,1269.51389
D1,Buritizeiro/MG,-17.3667765,-44.9647781,7,24.89243
1,Butiá/RS,-30.1256795,-51.9692224,482,2300.49637
D1,Butiá/RS,-30.1256795,-51.9692224,21,100.22910
1,Buíque/PE,-8.6239732,-37.157296,652,1106.60398
D1,Buíque/PE,-8.6239732,-37.157296,9,15.27521
1,Bálsamo/SP,-20.7343722,-49.5807484,577,6313.60105
D1,Bálsamo/SP,-20.7343722,-49.5807484,26,284.49502
0,CASO SEM LOCALIZAÇÃO DEFINIDA/AC,-9.884083190922777,-67.85119819780795,125,14.17338
D0,CASO SEM LOCALIZAÇÃO DEFINIDA/AC,-9.884083190922777,-67.85119819780795,1,0.11339
0,CASO SEM LOCALIZAÇÃO DEFINIDA/AL,-9.931093434363673,-35.609611600637464,410,12.28517
D0,CASO SEM LOCALIZAÇÃO DEFINIDA/AL,-9.931093434363673,-35.609611600637464,10,0.29964
0,CASO SEM LOCALIZAÇÃO DEFINIDA/AM,-3.07518492149711,-60.16169212873594,706,17.03423
D0,CASO SEM LOCALIZAÇÃO DEFINIDA/AM,-3.07518492149711,-60.16169212873594,10,0.24128
0,CASO SEM LOCALIZAÇÃO DEFINIDA/AP,2.677150600275196,-50.477785111870624,302,35.70875
D0,CASO SEM LOCALIZAÇÃO DEFINIDA/AP,2.677150600275196,-50.477785111870624,3,0.35472
0,CASO SEM LOCALIZAÇÃO DEFINIDA/BA,-13.415069300066518,-38.14174656569957,8397,56.45777
D0,CASO SEM LOCALIZAÇÃO DEFINIDA/BA,-13.415069300066518,-38.14174656569957,87,0.58495
0,CASO SEM LOCALIZAÇÃO DEFINIDA/CE,-3.3445126297392798,-38.624961942434304,4695,51.41218
D0,CASO SEM LOCALIZAÇÃO DEFINIDA/CE,-3.3445126297392798,-38.624961942434304,10,0.10950
0,CASO SEM LOCALIZAÇÃO DEFINIDA/ES,-20.30989267097039,-39.81745156645774,3176,79.03152
D0,CASO SEM LOCALIZAÇÃO DEFINIDA/ES,-20.30989267097039,-39.81745156645774,57,1.41839
0,CASO SEM LOCALIZAÇÃO DEFINIDA/GO,-16.701590966270153,-49.164524059025034,129,1.83804
D0,CASO SEM LOCALIZAÇÃO DEFINIDA/GO,-16.701590966270153,-49.164524059025034,17,0.24222
0,CASO SEM LOCALIZAÇÃO DEFINIDA/MA,-2.171256551718846,-43.98946796681719,220,3.10946
D0,CASO SEM LOCALIZAÇÃO DEFINIDA/MA,-2.171256551718846,-43.98946796681719,5,0.07067
0,CASO SEM LOCALIZAÇÃO DEFINIDA/MG,-19.97049116501593,-43.8852149072783,8063,38.08909
D0,CASO SEM LOCALIZAÇÃO DEFINIDA/MG,-19.97049116501593,-43.8852149072783,143,0.67552
0,CASO SEM LOCALIZAÇÃO DEFINIDA/MS,-20.391549234908513,-54.645156949758444,1294,46.56375
D0,CASO SEM LOCALIZAÇÃO DEFINIDA/MS,-20.391549234908513,-54.645156949758444,9,0.32386
0,CASO SEM LOCALIZAÇÃO DEFINIDA/MT,-15.54791153961863,-56.17143998972475,834,23.93480
D0,CASO SEM LOCALIZAÇÃO DEFINIDA/MT,-15.54791153961863,-56.17143998972475,56,1.60713
0,CASO SEM LOCALIZAÇÃO DEFINIDA/PB,-7.1049355696146606,-34.68696690234351,709,17.64504
D0,CASO SEM LOCALIZAÇÃO DEFINIDA/PB,-7.1049355696146606,-34.68696690234351,7,0.17421
0,CASO SEM LOCALIZAÇÃO DEFINIDA/PE,-8.121628543819208,-34.57313921302556,1518,15.88353
D0,CASO SEM LOCALIZAÇÃO DEFINIDA/PE,-8.121628543819208,-34.57313921302556,21,0.21973
0,CASO SEM LOCALIZAÇÃO DEFINIDA/PR,-25.69415946385943,-48.10141676336737,5591,48.89821
D0,CASO SEM LOCALIZAÇÃO DEFINIDA/PR,-25.69415946385943,-48.10141676336737,117,1.02327
0,CASO SEM LOCALIZAÇÃO DEFINIDA/RJ,-23.210238986465157,-43.12864305824042,2626,15.21001
D0,CASO SEM LOCALIZAÇÃO DEFINIDA/RJ,-23.210238986465157,-43.12864305824042,82,0.47495
0,CASO SEM LOCALIZAÇÃO DEFINIDA/RN,-5.749310788669161,-34.95302586257457,483,13.77303
D0,CASO SEM LOCALIZAÇÃO DEFINIDA/RN,-5.749310788669161,-34.95302586257457,11,0.31367
0,CASO SEM LOCALIZAÇÃO DEFINIDA/RO,-8.681174926655274,-63.9216949899276,344,19.35602
D0,CASO SEM LOCALIZAÇÃO DEFINIDA/RO,-8.681174926655274,-63.9216949899276,4,0.22507
0,CASO SEM LOCALIZAÇÃO DEFINIDA/RR,2.813328208465927,-60.663338675861986,2100,346.67138
D0,CASO SEM LOCALIZAÇÃO DEFINIDA/RR,2.813328208465927,-60.663338675861986,9,1.48573
0,CASO SEM LOCALIZAÇÃO DEFINIDA/RS,-30.50647488532064,-49.906261466443524,4766,41.89066
D0,CASO SEM LOCALIZAÇÃO DEFINIDA/RS,-30.50647488532064,-49.906261466443524,62,0.54495
0,CASO SEM LOCALIZAÇÃO DEFINIDA/SC,-27.675643660562308,-48.18313219398259,12777,178.33047
D0,CASO SEM LOCALIZAÇÃO DEFINIDA/SC,-27.675643660562308,-48.18313219398259,41,0.57224
0,CASO SEM LOCALIZAÇÃO DEFINIDA/SE,-11.03002091978736,-36.89283180376513,61,2.65368
D0,CASO SEM LOCALIZAÇÃO DEFINIDA/SE,-11.03002091978736,-36.89283180376513,5,0.21751
0,CASO SEM LOCALIZAÇÃO DEFINIDA/SP,-24.30968974555485,-46.21366504207253,9143,19.91113
D0,CASO SEM LOCALIZAÇÃO DEFINIDA/SP,-24.30968974555485,-46.21366504207253,181,0.39417
0,CASO SEM LOCALIZAÇÃO DEFINIDA/TO,-10.213012114749148,-48.40023803990334,305,19.39135
D0,CASO SEM LOCALIZAÇÃO DEFINIDA/TO,-10.213012114749148,-48.40023803990334,4,0.25431
1,Caapiranga/AM,-3.3188884,-61.2096404,376,2830.68584
D1,Caapiranga/AM,-3.3188884,-61.2096404,9,67.75578
1,Caaporã/PB,-7.510234,-34.9154114,1032,4700.52380
D1,Caaporã/PB,-7.510234,-34.9154114,18,81.98588
1,Caarapó/MS,-22.6349267,-54.8240903,840,2745.72615
D1,Caarapó/MS,-22.6349267,-54.8240903,4,13.07489
1,Caatiba/BA,-14.9782759,-40.4092325,421,6488.90259
D1,Caatiba/BA,-14.9782759,-40.4092325,3,46.23921
1,Cabaceiras do Paraguaçu/BA,-12.5377868,-39.1901339,126,666.27889
D1,Cabaceiras do Paraguaçu/BA,-12.5377868,-39.1901339,1,5.28793
1,Cabaceiras/PB,-7.4899156,-36.2860501,141,2490.72602
1,Cabeceira Grande/MG,-16.0297,-47.0906,65,930.16600
D1,Cabeceira Grande/MG,-16.0297,-47.0906,2,28.62049
1,Cabeceiras do Piauí/PI,-4.4733665,-42.3098716,239,2248.35372
D1,Cabeceiras do Piauí/PI,-4.4733665,-42.3098716,7,65.85136
1,Cabeceiras/GO,-15.7995459,-46.9264991,88,1093.71116
D1,Cabeceiras/GO,-15.7995459,-46.9264991,3,37.28561
1,Cabedelo/PB,-6.97324,-34.8351609,3697,5376.12518
D1,Cabedelo/PB,-6.97324,-34.8351609,85,123.60580
1,Cabixi/RO,-13.4956065,-60.5424442,141,2717.81033
D1,Cabixi/RO,-13.4956065,-60.5424442,5,96.37625
1,Cabo Frio/RJ,-22.8804369,-42.0189227,3570,1549.62713
D1,Cabo Frio/RJ,-22.8804369,-42.0189227,189,82.03908
1,Cabo Verde/MG,-21.4743338,-46.3964995,79,561.27886
D1,Cabo Verde/MG,-21.4743338,-46.3964995,1,7.10480
1,Cabo de Santo Agostinho/PE,-8.2838945,-35.0320984,2363,1130.92503
D1,Cabo de Santo Agostinho/PE,-8.2838945,-35.0320984,287,137.35738
1,Cabreúva/SP,-23.3075813,-47.1324417,1429,2833.68697
D1,Cabreúva/SP,-23.3075813,-47.1324417,43,85.26840
1,Cabrobó/PE,-8.5083701,-39.3106961,482,1396.97997
D1,Cabrobó/PE,-8.5083701,-39.3106961,5,14.49149
1,Cabrália Paulista/SP,-22.4562909,-49.3385645,104,2451.09592
1,Cacaulândia/RO,-10.3380043,-62.9007231,96,1531.34471
1,Cacequi/RS,-29.8838059,-54.8273443,64,515.17347
D1,Cacequi/RS,-29.8838059,-54.8273443,2,16.09917
1,Cachoeira Alta/GO,-18.7618269,-50.9432431,781,6166.11401
D1,Cachoeira Alta/GO,-18.7618269,-50.9432431,11,86.84668
1,Cachoeira Dourada/GO,-18.4934204,-49.481062,159,1979.82817
D1,Cachoeira Dourada/GO,-18.4934204,-49.481062,2,24.90350
1,Cachoeira Dourada/MG,-18.517136,-49.5002062,19,702.14339
1,Cachoeira Grande/MA,-2.9290492,-44.0573223,186,1962.43933
D1,Cachoeira Grande/MA,-2.9290492,-44.0573223,4,42.20300
1,Cachoeira Paulista/SP,-22.666498,-45.015384,462,1375.77797
D1,Cachoeira Paulista/SP,-22.666498,-45.015384,17,50.62386
1,Cachoeira da Prata/MG,-19.524723,-44.453056,76,2116.40212
D1,Cachoeira da Prata/MG,-19.524723,-44.453056,2,55.69479
1,Cachoeira de Goiás/GO,-16.6688414,-50.6435997,25,1862.89121
1,Cachoeira de Minas/MG,-22.3554043,-45.7796324,231,1994.99093
D1,Cachoeira de Minas/MG,-22.3554043,-45.7796324,3,25.90897
1,Cachoeira de Pajeú/MG,-15.965833,-41.496666,232,2457.10655
D1,Cachoeira de Pajeú/MG,-15.965833,-41.496666,2,21.18195
1,Cachoeira do Arari/PA,-1.0143572,-48.9621089,327,1358.87633
D1,Cachoeira do Arari/PA,-1.0143572,-48.9621089,13,54.02261
1,Cachoeira do Piriá/PA,-1.7599443,-46.5446954,538,1554.50894
D1,Cachoeira do Piriá/PA,-1.7599443,-46.5446954,3,8.66827
1,Cachoeira do Sul/RS,-30.0474778,-52.8905413,1007,1230.01380
D1,Cachoeira do Sul/RS,-30.0474778,-52.8905413,9,10.99317
1,Cachoeira dos Índios/PB,-6.9259193,-38.6742159,286,2775.35177
D1,Cachoeira dos Índios/PB,-6.9259193,-38.6742159,9,87.33624
1,Cachoeira/BA,-12.5998256,-38.9665918,490,1459.76703
D1,Cachoeira/BA,-12.5998256,-38.9665918,12,35.74940
1,Cachoeiras de Macacu/RJ,-22.4626861,-42.6534414,865,1458.61086
D1,Cachoeiras de Macacu/RJ,-22.4626861,-42.6534414,40,67.45021
1,Cachoeirinha/PE,-8.4906364,-36.2338963,293,1429.19858
D1,Cachoeirinha/PE,-8.4906364,-36.2338963,22,107.31184
1,Cachoeirinha/RS,-29.9493353,-51.0898927,4658,3549.22280
D1,Cachoeirinha/RS,-29.9493353,-51.0898927,116,88.38769
1,Cachoeirinha/TO,-6.118647,-47.9208885,40,1751.31349
1,Cachoeiro de Itapemirim/ES,-20.848084,-41.11129,9340,4435.17943
D1,Cachoeiro de Itapemirim/ES,-20.848084,-41.11129,214,101.61974
1,Cacimba de Areia/PB,-7.1288513,-37.1575194,15,405.95399
1,Cacimba de Dentro/PB,-6.6425101,-35.7929304,410,2386.77378
D1,Cacimba de Dentro/PB,-6.6425101,-35.7929304,10,58.21399
1,Cacimbas/PB,-7.2125451,-37.0593398,68,944.57564
D1,Cacimbas/PB,-7.2125451,-37.0593398,2,27.78164
1,Cacimbinhas/AL,-9.401212,-36.991082,302,2773.44109
D1,Cacimbinhas/AL,-9.401212,-36.991082,3,27.55074
1,Cacique Doble/RS,-27.7700117,-51.6616409,140,2759.16437
1,Cacoal/RO,-11.4333,-61.4420502,3078,3583.52834
D1,Cacoal/RO,-11.4333,-61.4420502,43,50.06229
1,Caconde/SP,-21.527995,-46.643659,240,1262.55984
D1,Caconde/SP,-21.527995,-46.643659,1,5.26067
1,Caculé/BA,-14.4990734,-42.2233006,129,553.86201
D1,Caculé/BA,-14.4990734,-42.2233006,2,8.58701
1,Caetanos/BA,-14.3387456,-40.9085971,211,1444.41402
D1,Caetanos/BA,-14.3387456,-40.9085971,1,6.84556
1,Caetanópolis/MG,-19.2947496,-44.4138386,140,1191.59077
D1,Caetanópolis/MG,-19.2947496,-44.4138386,3,25.53409
1,Caetité/BA,-14.0691776,-42.4852428,439,859.41935
D1,Caetité/BA,-14.0691776,-42.4852428,5,9.78838
1,Caeté/MG,-19.897777,-43.670278,574,1274.22470
D1,Caeté/MG,-19.897777,-43.670278,22,48.83788
1,Caetés/PE,-8.7728788,-36.6255835,788,2726.26626
D1,Caetés/PE,-8.7728788,-36.6255835,8,27.67783
1,Cafarnaum/BA,-11.691399,-41.468823,349,1885.16178
D1,Cafarnaum/BA,-11.691399,-41.468823,6,32.40966
1,Cafeara/PR,-22.78905,-51.714195,93,3148.27353
D1,Cafeara/PR,-22.78905,-51.714195,1,33.85240
1,Cafelândia/PR,-24.6176963,-53.3218057,446,2416.55830
D1,Cafelândia/PR,-24.6176963,-53.3218057,3,16.25488
1,Cafelândia/SP,-21.8054355,-49.6030627,441,2471.55747
D1,Cafelândia/SP,-21.8054355,-49.6030627,12,67.25326
1,Cafezal do Sul/PR,-23.900508,-53.512418,39,972.81117
D1,Cafezal do Sul/PR,-23.900508,-53.512418,1,24.94388
1,Caiabu/SP,-22.0143038,-51.2356597,40,953.97090
D1,Caiabu/SP,-22.0143038,-51.2356597,2,47.69855
1,Caiana/MG,-20.695555,-41.924723,24,433.13481
D1,Caiana/MG,-20.695555,-41.924723,2,36.09457
1,Caiapônia/GO,-16.9538779,-51.8090761,255,1334.58942
D1,Caiapônia/GO,-16.9538779,-51.8090761,4,20.93474
1,Caibaté/RS,-28.290475,-54.645407,15,311.00974
D1,Caibaté/RS,-28.290475,-54.645407,2,41.46797
1,Caibi/SC,-27.0751925,-53.2502133,105,1712.88744
D1,Caibi/SC,-27.0751925,-53.2502133,2,32.62643
1,Caicó/RN,-6.4594544,-37.0971911,3795,5552.87301
D1,Caicó/RN,-6.4594544,-37.0971911,42,61.45472
1,Caieiras/SP,-23.3644621,-46.7484765,2896,2817.80589
D1,Caieiras/SP,-23.3644621,-46.7484765,105,102.16492
1,Cairu/BA,-13.4860505,-39.0455744,560,3039.01883
D1,Cairu/BA,-13.4860505,-39.0455744,7,37.98774
1,Caiuá/SP,-21.8319357,-51.9887179,63,1059.53582
D1,Caiuá/SP,-21.8319357,-51.9887179,1,16.81803
1,Caiçara do Norte/RN,-5.0645017,-36.0561226,120,1828.98948
D1,Caiçara do Norte/RN,-5.0645017,-36.0561226,3,45.72474
1,Caiçara do Rio do Vento/RN,-5.757968,-36.00089,102,2745.62584
D1,Caiçara do Rio do Vento/RN,-5.757968,-36.00089,1,26.91790
1,Caiçara/PB,-6.6146866,-35.4681434,459,6382.97872
D1,Caiçara/PB,-6.6146866,-35.4681434,10,139.06272
1,Caiçara/RS,-27.2750478,-53.4310053,136,2893.61702
D1,Caiçara/RS,-27.2750478,-53.4310053,3,63.82979
1,Cajamar/SP,-23.3561111,-46.8769444,1725,2213.41135
D1,Cajamar/SP,-23.3561111,-46.8769444,78,100.08469
1,Cajapió/MA,-2.8778715,-44.6746871,50,445.79173
D1,Cajapió/MA,-2.8778715,-44.6746871,2,17.83167
1,Cajari/MA,-3.3213076,-45.0118757,132,678.62835
D1,Cajari/MA,-3.3213076,-45.0118757,4,20.56450
1,Cajati/SP,-24.7272376,-48.1077914,1952,6850.56503
D1,Cajati/SP,-24.7272376,-48.1077914,35,122.83288
1,Cajazeiras do Piauí/PI,-6.794271,-42.3935024,21,587.74139
D1,Cajazeiras do Piauí/PI,-6.794271,-42.3935024,1,27.98769
1,Cajazeiras/PB,-6.8897849,-38.5570389,3054,4902.95237
D1,Cajazeiras/PB,-6.8897849,-38.5570389,60,96.32519
1,Cajazeirinhas/PB,-6.961442,-37.7993733,42,1310.45242
1,Cajobi/SP,-20.8776238,-48.8106972,240,2265.00566
D1,Cajobi/SP,-20.8776238,-48.8106972,7,66.06267
1,Cajueiro da Praia/PI,-2.931114,-41.340801,391,5095.12640
D1,Cajueiro da Praia/PI,-2.931114,-41.340801,10,130.31014
1,Cajueiro/AL,-9.399589,-36.1524309,374,1753.31677
D1,Cajueiro/AL,-9.399589,-36.1524309,15,70.32019
1,Cajuri/MG,-20.7901414,-42.7954489,66,1660.79517
1,Cajuru/SP,-21.2759978,-47.3046035,497,1883.07506
D1,Cajuru/SP,-21.2759978,-47.3046035,14,53.04437
1,Caldas Brandão/PB,-7.1027959,-35.3254676,339,5607.01290
D1,Caldas Brandão/PB,-7.1027959,-35.3254676,2,33.07972
1,Caldas Novas/GO,-17.745,-48.625,2488,2669.64247
D1,Caldas Novas/GO,-17.745,-48.625,58,62.23443
1,Caldas/MG,-21.923611,-46.386111,187,1286.01884
D1,Caldas/MG,-21.923611,-46.386111,4,27.50842
1,Caldazinha/GO,-16.7116649,-49.0012601,112,2910.60291
D1,Caldazinha/GO,-16.7116649,-49.0012601,2,51.97505
1,Caldeirão Grande do Piauí/PI,-7.3310393,-40.6374433,136,2352.53416
1,Caldeirão Grande/BA,-11.0208483,-40.3041387,342,2553.95415
D1,Caldeirão Grande/BA,-11.0208483,-40.3041387,2,14.93540
1,Califórnia/PR,-23.6672543,-51.3554556,194,2254.24123
D1,Califórnia/PR,-23.6672543,-51.3554556,4,46.47920
1,Calmon/SC,-26.6023644,-51.0992893,13,389.80510
D1,Calmon/SC,-26.6023644,-51.0992893,2,59.97001
1,Calumbi/PE,-7.9389746,-38.1516871,218,3793.28345
D1,Calumbi/PE,-7.9389746,-38.1516871,2,34.80077
1,Calçado/PE,-8.7413446,-36.3351787,130,1179.88746
D1,Calçado/PE,-8.7413446,-36.3351787,2,18.15211
1,Calçoene/AP,2.4981757,-50.9539503,1319,11666.37184
D1,Calçoene/AP,2.4981757,-50.9539503,5,44.22431
1,Camacan/BA,-15.4166631,-39.4930088,1601,5002.18709
D1,Camacan/BA,-15.4166631,-39.4930088,32,99.98125
1,Camacho/MG,-20.625556,-45.156667,6,209.13210
1,Camalaú/PB,-7.885031,-36.824191,35,580.33494
D1,Camalaú/PB,-7.885031,-36.824191,1,16.58100
1,Camamu/BA,-13.9438142,-39.1060917,886,2504.09813
D1,Camamu/BA,-13.9438142,-39.1060917,25,70.65740
1,Camanducaia/MG,-22.755278,-46.144444,780,3577.81753
D1,Camanducaia/MG,-22.755278,-46.144444,12,55.04335
1,Camapuã/MS,-19.5291747,-54.0434641,119,869.05718
D1,Camapuã/MS,-19.5291747,-54.0434641,4,29.21201
1,Camaquã/RS,-30.8524752,-51.8075619,2061,3100.27377
D1,Camaquã/RS,-30.8524752,-51.8075619,28,42.11920
1,Camaragibe/PE,-8.0213832,-34.9810768,2466,1551.92921
D1,Camaragibe/PE,-8.0213832,-34.9810768,211,132.78875
1,Camargo/RS,-28.5865661,-52.2031474,113,4121.07950
D1,Camargo/RS,-28.5865661,-52.2031474,1,36.46973
1,Camaçari/BA,-12.6998188,-38.3260762,6951,2284.24394
D1,Camaçari/BA,-12.6998188,-38.3260762,137,45.02106
1,Cambará do Sul/RS,-29.0489517,-50.145412,184,2872.30721
D1,Cambará do Sul/RS,-29.0489517,-50.145412,1,15.61037
1,Cambará/PR,-23.042273,-50.075281,359,1409.72277
D1,Cambará/PR,-23.042273,-50.075281,8,31.41443
1,Cambira/PR,-23.600265,-51.581045,133,1679.92927
D1,Cambira/PR,-23.600265,-51.581045,4,50.52419
1,Camboriú/SC,-27.0273601,-48.6535657,5256,6175.90036
D1,Camboriú/SC,-27.0273601,-48.6535657,62,72.85118
1,Cambuci/RJ,-21.5749919,-41.9107833,263,1695.24301
D1,Cambuci/RJ,-21.5749919,-41.9107833,7,45.12054
1,Cambuquira/MG,-21.853056,-45.2953619,66,515.14205
D1,Cambuquira/MG,-21.853056,-45.2953619,3,23.41555
1,Cambuí/MG,-22.6122501,-46.0572137,507,1700.54337
D1,Cambuí/MG,-22.6122501,-46.0572137,9,30.18716
1,Cambé/PR,-23.2782035,-51.2779583,2870,2673.72206
D1,Cambé/PR,-23.2782035,-51.2779583,44,40.99086
1,Cametá/PA,-2.242949,-49.497885,5315,3813.75391
D1,Cametá/PA,-2.242949,-49.497885,100,71.75454
1,Camocim de São Félix/PE,-8.3616757,-35.7638903,274,1449.73545
D1,Camocim de São Félix/PE,-8.3616757,-35.7638903,9,47.61905
1,Camocim/CE,-2.9009918,-40.8427389,2442,3821.17765
D1,Camocim/CE,-2.9009918,-40.8427389,81,126.74668
1,Campanha/MG,-21.8361108,-45.401986,265,1580.95693
D1,Campanha/MG,-21.8361108,-45.401986,7,41.76113
1,Campanário/MG,-18.2398144,-41.7271768,24,643.43164
1,Campestre da Serra/RS,-28.7966535,-51.0958149,60,1767.30486
1,Campestre de Goiás/GO,-16.7624179,-49.69497,187,5124.69170
D1,Campestre de Goiás/GO,-16.7624179,-49.69497,2,54.80954
1,Campestre do Maranhão/MA,-6.1729113,-47.3640512,546,3777.76240
D1,Campestre do Maranhão/MA,-6.1729113,-47.3640512,16,110.70366
1,Campestre/AL,-8.8481634,-35.5660033,96,1380.50043
D1,Campestre/AL,-8.8481634,-35.5660033,3,43.14064
1,Campestre/MG,-19.6142116,-43.219378,322,1529.40059
D1,Campestre/MG,-19.6142116,-43.219378,4,18.99877
1,Campina Grande do Sul/PR,-25.3046032,-49.0545355,1830,4189.08092
D1,Campina Grande do Sul/PR,-25.3046032,-49.0545355,27,61.80611
1,Campina Grande/PB,-7.2246743,-35.8771292,14541,3531.02303
D1,Campina Grande/PB,-7.2246743,-35.8771292,414,100.53253
1,Campina Verde/MG,-19.535277,-49.486389,166,840.42122
D1,Campina Verde/MG,-19.535277,-49.486389,7,35.43945
1,Campina da Lagoa/PR,-24.5937926,-52.8038965,99,704.97757
D1,Campina da Lagoa/PR,-24.5937926,-52.8038965,4,28.48394
1,Campina das Missões/RS,-27.9883295,-54.8411665,75,1389.40348
D1,Campina das Missões/RS,-27.9883295,-54.8411665,4,74.10152
1,Campina do Monte Alegre/SP,-23.5935653,-48.4801876,91,1502.39392
1,Campina do Simão/PR,-25.1086375,-51.8076658,14,362.78829
D1,Campina do Simão/PR,-25.1086375,-51.8076658,1,25.91345
1,Campinas do Piauí/PI,-7.6593687,-41.8814875,50,889.67972
D1,Campinas do Piauí/PI,-7.6593687,-41.8814875,1,17.79359
1,Campinas do Sul/RS,-27.7167968,-52.6257885,141,2592.86502
D1,Campinas do Sul/RS,-27.7167968,-52.6257885,2,36.77823
1,Campinas/SP,-22.90556,-47.06083,38033,3133.40342
D1,Campinas/SP,-22.90556,-47.06083,1394,114.84670
1,Campinaçu/GO,-13.7869969,-48.5703841,119,3276.43172
1,Campinorte/GO,-14.3136699,-49.1510931,426,3337.51175
D1,Campinorte/GO,-14.3136699,-49.1510931,7,54.84174
1,Campinápolis/MT,-14.5403731,-52.7970626,476,2813.40505
D1,Campinápolis/MT,-14.5403731,-52.7970626,15,88.65772
1,Campo Alegre de Goiás/GO,-17.6337896,-47.779291,38,491.08297
D1,Campo Alegre de Goiás/GO,-17.6337896,-47.779291,1,12.92324
1,Campo Alegre de Lourdes/BA,-9.5160326,-43.0101338,166,575.98890
D1,Campo Alegre de Lourdes/BA,-9.5160326,-43.0101338,4,13.87925
1,Campo Alegre do Fidalgo/PI,-8.3753852,-41.8364191,25,493.19392
D1,Campo Alegre do Fidalgo/PI,-8.3753852,-41.8364191,1,19.72776
1,Campo Alegre/AL,-9.7798607,-36.3575793,1526,2652.20641
D1,Campo Alegre/AL,-9.7798607,-36.3575793,28,48.66434
1,Campo Alegre/SC,-26.1941684,-49.2657484,278,2320.34054
D1,Campo Alegre/SC,-26.1941684,-49.2657484,10,83.46549
1,Campo Azul/MG,-16.5078525,-44.8133524,37,967.57322
1,Campo Belo do Sul/SC,-27.8987563,-50.7586887,240,3452.24396
D1,Campo Belo do Sul/SC,-27.8987563,-50.7586887,2,28.76870
1,Campo Belo/MG,-20.8975,-45.277223,1312,2421.28963
D1,Campo Belo/MG,-20.8975,-45.277223,31,57.21035
1,Campo Bom/RS,-29.674694,-51.060601,4075,5866.85479
D1,Campo Bom/RS,-29.674694,-51.060601,60,86.38314
1,Campo Bonito/PR,-25.0328004,-52.992976,58,1541.32341
1,Campo Erê/SC,-26.3947432,-53.0790495,230,2732.24044
D1,Campo Erê/SC,-26.3947432,-53.0790495,1,11.87931
1,Campo Florido/MG,-19.760833,-48.572223,236,2854.03314
1,Campo Formoso/BA,-10.51055,-40.320031,1299,1817.11360
D1,Campo Formoso/BA,-10.51055,-40.320031,14,19.58398
1,Campo Grande do Piauí/PI,-7.1327559,-41.0381164,335,5616.09388
D1,Campo Grande do Piauí/PI,-7.1327559,-41.0381164,4,67.05784
1,Campo Grande/AL,-9.9725,-36.74791447368421,235,2456.36041
D1,Campo Grande/AL,-9.9725,-36.74791447368421,7,73.16818
1,Campo Grande/MS,-20.4640173,-54.6162947,47619,5255.42660
D1,Campo Grande/MS,-20.4640173,-54.6162947,797,87.96016
1,Campo Grande/RN,-5.862063,-37.3134908,145,1499.48294
D1,Campo Grande/RN,-5.862063,-37.3134908,3,31.02378
1,Campo Largo do Piauí/PI,-3.8104731,-42.6288333,229,3132.26645
D1,Campo Largo do Piauí/PI,-3.8104731,-42.6288333,5,68.39010
1,Campo Largo/PR,-25.4597726,-49.5270851,5076,3791.87988
D1,Campo Largo/PR,-25.4597726,-49.5270851,100,74.70213
1,Campo Limpo Paulista/SP,-23.207791,-46.788919,1470,1718.47418
D1,Campo Limpo Paulista/SP,-23.207791,-46.788919,74,86.50822
1,Campo Limpo de Goiás/GO,-16.297101,-49.0894994,116,1460.95718
D1,Campo Limpo de Goiás/GO,-16.297101,-49.0894994,2,25.18892
1,Campo Magro/PR,-25.3691533,-49.4496921,695,2336.91997
D1,Campo Magro/PR,-25.3691533,-49.4496921,21,70.61197
1,Campo Maior/PI,-4.8339574,-42.1739786,2643,5636.23569
D1,Campo Maior/PI,-4.8339574,-42.1739786,54,115.15578
1,Campo Mourão/PR,-24.046329,-52.37802,2272,2379.35657
D1,Campo Mourão/PR,-24.046329,-52.37802,48,50.26810
1,Campo Novo de Rondônia/RO,-10.5704235,-63.6199511,205,1436.98304
D1,Campo Novo de Rondônia/RO,-10.5704235,-63.6199511,6,42.05804
1,Campo Novo do Parecis/MT,-13.658735,-57.890723,3039,8408.26716
D1,Campo Novo do Parecis/MT,-13.658735,-57.890723,30,83.00362
1,Campo Novo/RS,-28.91500235,-52.331375687737626,48,1096.89214
D1,Campo Novo/RS,-28.91500235,-52.331375687737626,1,22.85192
1,Campo Redondo/RN,-6.2420373,-36.1830606,236,2090.16030
D1,Campo Redondo/RN,-6.2420373,-36.1830606,4,35.42645
1,Campo Verde/MT,-15.5430787,-55.1590511,2682,5863.57674
D1,Campo Verde/MT,-15.5430787,-55.1590511,54,118.05859
1,Campo do Brito/SE,-10.7496246,-37.4942276,805,4418.70677
D1,Campo do Brito/SE,-10.7496246,-37.4942276,12,65.86892
1,Campo do Meio/MG,-21.1072006,-45.8301735,165,1416.18745
D1,Campo do Meio/MG,-21.1072006,-45.8301735,2,17.16591
1,Campo do Tenente/PR,-25.9814143,-49.684518,170,2113.11374
D1,Campo do Tenente/PR,-25.9814143,-49.684518,6,74.58048
1,Campos Altos/MG,-19.696389,-46.171389,175,1124.46186
D1,Campos Altos/MG,-19.696389,-46.171389,6,38.55298
