type,name,lat,lon,total,total_per_100k_inhabitants
1,Abadia de Goiás/GO,-16.7572644,-49.4412205,103,1174.05677
1,Abadia dos Dourados/MG,-18.4911191,-47.4063589,6,85.84919
1,Abadiânia/GO,-16.1940946,-48.7067767,68,339.28750
D1,Abadiânia/GO,-16.1940946,-48.7067767,5,24.94761
1,Abaetetuba/PA,-1.721828,-48.878843,2499,1584.67450
D1,Abaetetuba/PA,-1.721828,-48.878843,109,69.11946
1,Abaeté/MG,-19.1566833,-45.4481213,22,94.67659
1,Abaiara/CE,-7.3607808,-39.0487878,37,315.24240
D1,Abaiara/CE,-7.3607808,-39.0487878,1,8.52006
1,Abaré/BA,-8.7239913,-39.1139689,11,54.76451
1,Abatiá/PR,-23.3052967,-50.3102532,54,724.15180
1,Abaíra/BA,-13.2503296,-41.6640342,5,57.21478
1,Abdon Batista/SC,-27.612419,-51.022992,50,1950.83886
1,Abel Figueiredo/PA,-4.953001,-48.3958485,107,1439.33280
D1,Abel Figueiredo/PA,-4.953001,-48.3958485,1,13.45171
1,Abelardo Luz/SC,-26.5705893,-52.3280339,88,491.51028
D1,Abelardo Luz/SC,-26.5705893,-52.3280339,3,16.75603
1,Abre Campo/MG,-20.2976097,-42.4764741,16,118.92374
1,Abreu e Lima/PE,-7.900719,-34.898389,561,561.05611
D1,Abreu e Lima/PE,-7.900719,-34.898389,70,70.00700
1,Abreulândia/TO,-9.6221526,-49.1558343,7,271.42303
D1,Abreulândia/TO,-9.6221526,-49.1558343,2,77.54944
1,Acaiaca/MG,-20.3621646,-43.1444162,12,300.45068
D1,Acaiaca/MG,-20.3621646,-43.1444162,1,25.03756
1,Acajutiba/BA,-11.6609659,-38.0186381,47,310.04684
D1,Acajutiba/BA,-11.6609659,-38.0186381,2,13.19348
1,Acarape/CE,-4.2237866,-38.7071663,806,5398.88807
D1,Acarape/CE,-4.2237866,-38.7071663,14,93.77721
1,Acaraú/CE,-2.8869514,-40.1194713,2073,3309.33414
D1,Acaraú/CE,-2.8869514,-40.1194713,49,78.22353
1,Acari/RN,-6.4364689,-36.6394777,41,368.17529
D1,Acari/RN,-6.4364689,-36.6394777,3,26.93966
1,Acará/PA,-1.961388,-48.1987043,644,1158.46090
D1,Acará/PA,-1.961388,-48.1987043,13,23.38508
1,Acauã/PI,-8.219542,-41.083059,16,225.86110
1,Acopiara/CE,-6.0936464,-39.4543204,394,725.99963
D1,Acopiara/CE,-6.0936464,-39.4543204,20,36.85277
1,Acorizal/MT,-15.2001544,-56.3668953,60,1111.31691
D1,Acorizal/MT,-15.2001544,-56.3668953,1,18.52195
1,Acrelândia/AC,-10.0759167,-67.0526898,237,1553.48715
D1,Acrelândia/AC,-10.0759167,-67.0526898,3,19.66439
1,Acreúna/GO,-17.3959899,-50.3749031,117,523.11544
D1,Acreúna/GO,-17.3959899,-50.3749031,3,13.41322
1,Adamantina/SP,-21.6866517,-51.0762975,92,262.34744
D1,Adamantina/SP,-21.6866517,-51.0762975,5,14.25801
1,Adelândia/GO,-16.4155077,-50.1665834,38,1510.33386
1,Adolfo/SP,-21.2356597,-49.6441918,29,814.14935
D1,Adolfo/SP,-21.2356597,-49.6441918,2,56.14823
1,Adrianópolis/PR,-24.6557863,-48.9912769,80,1351.57966
D1,Adrianópolis/PR,-24.6557863,-48.9912769,2,33.78949
1,Adustina/BA,-10.5358875,-38.114479,55,322.76995
D1,Adustina/BA,-10.5358875,-38.114479,1,5.86854
1,Afogados da Ingazeira/PE,-7.750429,-37.6356375,155,416.00687
D1,Afogados da Ingazeira/PE,-7.750429,-37.6356375,4,10.73566
1,Afonso Bezerra/RN,-5.4745,-36.57625071327935,56,507.47621
D1,Afonso Bezerra/RN,-5.4745,-36.57625071327935,5,45.31038
1,Afonso Cláudio/ES,-20.077841,-41.12606,464,1517.03394
D1,Afonso Cláudio/ES,-20.077841,-41.12606,11,35.96417
1,Afonso Cunha/MA,-4.1326105,-43.3230026,128,1961.98651
D1,Afonso Cunha/MA,-4.1326105,-43.3230026,1,15.32802
1,Afrânio/PE,-8.5198919,-41.0070197,69,351.41329
D1,Afrânio/PE,-8.5198919,-41.0070197,1,5.09295
1,Afuá/PA,-0.1535664,-50.3879223,1114,2840.53241
D1,Afuá/PA,-0.1535664,-50.3879223,9,22.94865
1,Agrestina/PE,-8.4558021,-35.9442663,316,1269.84127
D1,Agrestina/PE,-8.4558021,-35.9442663,22,88.40667
1,Agricolândia/PI,-5.7967843,-42.6605131,14,272.42654
1,Agrolândia/SC,-27.4122212,-49.8295774,39,358.98380
D1,Agrolândia/SC,-27.4122212,-49.8295774,2,18.40943
1,Agronômica/SC,-27.2660744,-49.7104753,26,477.23935
D1,Agronômica/SC,-27.2660744,-49.7104753,2,36.71072
1,Aguanil/MG,-20.9424533,-45.3927152,14,312.08203
1,Aguaí/SP,-22.0592036,-46.979384,100,275.44415
D1,Aguaí/SP,-22.0592036,-46.979384,4,11.01777
1,Agudo/RS,-29.6423259,-53.2494005,3,18.22490
1,Agudos do Sul/PR,-25.9890808,-49.3328175,46,490.87611
1,Agudos/SP,-22.471162,-48.987822,179,481.00177
D1,Agudos/SP,-22.471162,-48.987822,3,8.06148
1,Aguiar/PB,-7.0928404,-38.1727215,20,354.60993
1,Aguiarnópolis/TO,-6.5600452,-47.4721189,222,3297.19293
D1,Aguiarnópolis/TO,-6.5600452,-47.4721189,5,74.26110
1,Aimorés/MG,-19.4917754,-41.0615603,134,532.44328
1,Aiquara/BA,-14.126918,-39.8887574,53,1192.08277
D1,Aiquara/BA,-14.126918,-39.8887574,2,44.98426
1,Aiuaba/CE,-6.5710836,-40.1212278,12,68.96948
D1,Aiuaba/CE,-6.5710836,-40.1212278,1,5.74746
1,Aiuruoca/MG,-21.9759554,-44.6036637,1,16.65834
1,Ajuricaba/RS,-28.239654,-53.7693013,3,42.71071
1,Alagoa Grande/PB,-7.0415212,-35.6285322,633,2221.36440
D1,Alagoa Grande/PB,-7.0415212,-35.6285322,12,42.11117
1,Alagoa Nova/PB,-7.0653703,-35.76695977336711,220,1055.20648
D1,Alagoa Nova/PB,-7.0653703,-35.76695977336711,6,28.77836
1,Alagoinha do Piauí/PI,-7.0090952,-40.939675,29,379.03542
1,Alagoinha/PB,-6.97063215,-35.51490901897793,619,4272.20650
D1,Alagoinha/PB,-6.97063215,-35.51490901897793,3,20.70536
1,Alagoinha/PE,-8.50355635,-36.77701174370496,94,642.25198
D1,Alagoinha/PE,-8.50355635,-36.77701174370496,2,13.66494
1,Alagoinhas/BA,-12.133526,-38.420772,1088,717.69704
D1,Alagoinhas/BA,-12.133526,-38.420772,22,14.51226
1,Alambari/SP,-23.550338,-47.897971,33,547.71784
1,Albertina/MG,-20.66164,-43.784039,2,66.51147
1,Alcantil/PB,-7.7425491,-36.0609604,26,473.41588
1,Alcinópolis/MS,-18.3264121,-53.7094463,2,37.43215
D1,Alcinópolis/MS,-18.3264121,-53.7094463,1,18.71608
1,Alcobaça/BA,-17.5215875,-39.1965474,162,720.96128
D1,Alcobaça/BA,-17.5215875,-39.1965474,2,8.90076
1,Alcântara/MA,-2.4038956,-44.4154241,37,167.44354
D1,Alcântara/MA,-2.4038956,-44.4154241,5,22.62751
1,Alcântaras/CE,-3.586247,-40.5457641,341,2911.04661
D1,Alcântaras/CE,-3.586247,-40.5457641,3,25.61038
1,Aldeias Altas/MA,-4.6291957,-43.4708622,233,878.18483
1,Alecrim/RS,-27.6566142,-54.7653195,2,33.61345
1,Alegre/ES,-20.7625787,-41.5318886,200,664.80521
D1,Alegre/ES,-20.7625787,-41.5318886,11,36.56429
1,Alegrete do Piauí/PI,-7.2440138,-40.8602296,8,162.76704
1,Alegrete/RS,-29.790166,-55.794862,124,168.50344
D1,Alegrete/RS,-29.790166,-55.794862,7,9.51229
1,Alegria/RS,-27.8332103,-54.0574959,11,317.55196
1,Alenquer/PA,-1.946229,-54.738355,747,1315.39559
D1,Alenquer/PA,-1.946229,-54.738355,27,47.54442
1,Alexandria/RN,-6.414779,-38.0135516,25,184.13493
D1,Alexandria/RN,-6.414779,-38.0135516,3,22.09619
1,Alexânia/GO,-16.0834049,-48.5077803,117,423.10057
D1,Alexânia/GO,-16.0834049,-48.5077803,6,21.69747
1,Alfenas/MG,-21.4297405,-45.9479419,120,150.00750
D1,Alfenas/MG,-21.4297405,-45.9479419,4,5.00025
1,Alfredo Chaves/ES,-20.624970400000002,-40.75006690147988,213,1458.80419
D1,Alfredo Chaves/ES,-20.624970400000002,-40.75006690147988,4,27.39538
1,Alfredo Marcondes/SP,-21.9527,-51.413956,7,168.02688
D1,Alfredo Marcondes/SP,-21.9527,-51.413956,1,24.00384
1,Alfredo Vasconcelos/MG,-21.145833,-43.776389,11,159.25872
D1,Alfredo Vasconcelos/MG,-21.145833,-43.776389,1,14.47807
1,Alfredo Wagner/SC,-27.6961513,-49.3326734,22,219.21084
1,Algodão de Jandaíra/PB,-6.9040175,-36.0089879,4,155.82392
1,Alhandra/PB,-7.4304246,-34.9106103,468,2389.21789
D1,Alhandra/PB,-7.4304246,-34.9106103,13,66.36716
1,Aliança do Tocantins/TO,-11.3055927,-48.9409096,13,241.18738
1,Aliança/PE,-7.60398,-35.222696,285,742.45819
D1,Aliança/PE,-7.60398,-35.222696,23,59.91768
1,Almadina/BA,-14.70466,-39.6381994,71,1299.41435
D1,Almadina/BA,-14.70466,-39.6381994,1,18.30161
1,Almas/TO,-11.5681309,-47.1702803,12,170.09213
D1,Almas/TO,-11.5681309,-47.1702803,2,28.34869
1,Almeirim/PA,-1.5290377,-52.5788111,178,521.85640
D1,Almeirim/PA,-1.5290377,-52.5788111,17,49.84022
1,Almenara/MG,-16.1740678,-40.6904907,340,811.53332
D1,Almenara/MG,-16.1740678,-40.6904907,3,7.16059
1,Almino Afonso/RN,-6.1544208,-37.7649018,15,316.78986
1,Almirante Tamandaré/PR,-25.3133048,-49.2997838,483,407.17230
D1,Almirante Tamandaré/PR,-25.3133048,-49.2997838,5,4.21503
1,Aloândia/GO,-17.7277983,-49.4809338,3,150.37594
1,Alpercata/MG,-18.9803616,-41.9827637,91,1225.75431
1,Alpestre/RS,-27.2512339,-53.0349646,17,271.65229
1,Alpinópolis/MG,-20.863611,-46.387777,13,65.48129
D1,Alpinópolis/MG,-20.863611,-46.387777,3,15.11107
1,Alta Floresta D'Oeste/RO,-11.9296917,-61.9961284,183,797.55938
D1,Alta Floresta D'Oeste/RO,-11.9296917,-61.9961284,1,4.35825
1,Alta Floresta/MT,-9.8715018,-56.0839881,227,438.37627
D1,Alta Floresta/MT,-9.8715018,-56.0839881,6,11.58704
1,Altair/SP,-20.5238955,-49.0606135,6,144.23077
D1,Altair/SP,-20.5238955,-49.0606135,1,24.03846
1,Altamira do Maranhão/MA,-4.1643006,-45.4674574,204,2509.84252
D1,Altamira do Maranhão/MA,-4.1643006,-45.4674574,5,61.51575
1,Altamira do Paraná/PR,-24.799114,-52.7128633,1,51.49331
1,Altamira/PA,-3.204065,-52.209961,2708,2363.12547
D1,Altamira/PA,-3.204065,-52.209961,75,65.44845
1,Altaneira/CE,-6.9980933,-39.7385742,4,52.72871
D1,Altaneira/CE,-6.9980933,-39.7385742,1,13.18218
1,Alterosa/MG,-21.249166,-46.143055,12,82.95313
1,Altinho/PE,-8.4904095,-36.0607494,281,1223.22828
D1,Altinho/PE,-8.4904095,-36.0607494,5,21.76563
1,Altinópolis/SP,-21.021364,-47.3712,57,352.19970
D1,Altinópolis/SP,-21.021364,-47.3712,2,12.35788
1,Alto Alegre do Maranhão/MA,-4.2055693,-44.4525287,322,1190.25616
D1,Alto Alegre do Maranhão/MA,-4.2055693,-44.4525287,11,40.66092
1,Alto Alegre do Pindaré/MA,-3.6698186,-45.8462153,1186,3715.65525
D1,Alto Alegre do Pindaré/MA,-3.6698186,-45.8462153,3,9.39879
1,Alto Alegre dos Parecis/RO,-12.1314515,-61.856265,63,475.79488
D1,Alto Alegre dos Parecis/RO,-12.1314515,-61.856265,1,7.55230
1,Alto Alegre/RR,2.98858,-61.307167,345,2224.37137
D1,Alto Alegre/RR,2.98858,-61.307167,7,45.13217
1,Alto Alegre/SP,-21.5820592,-50.1661976,11,268.35814
D1,Alto Alegre/SP,-21.5820592,-50.1661976,1,24.39619
1,Alto Araguaia/MT,-17.3156528,-53.2169365,66,346.56585
D1,Alto Araguaia/MT,-17.3156528,-53.2169365,3,15.75299
1,Alto Bela Vista/SC,-27.4320737,-51.905771,6,309.75736
1,Alto Boa Vista/MT,-11.6723985,-51.3744431,38,557.02140
D1,Alto Boa Vista/MT,-11.6723985,-51.3744431,2,29.31692
1,Alto Caparaó/MG,-20.4405661,-41.8683799,7,119.71951
1,Alto Feliz/RS,-29.3785943,-51.3123751,9,297.22589
1,Alto Garças/MT,-16.9469683,-53.529427,95,789.69244
1,Alto Horizonte/GO,-14.1954948,-49.3366993,32,498.90864
1,Alto Jequitibá/MG,-20.423611,-41.966111,29,348.68342
D1,Alto Jequitibá/MG,-20.423611,-41.966111,1,12.02357
1,Alto Longá/PI,-5.2549051,-42.2072388,52,363.53468
D1,Alto Longá/PI,-5.2549051,-42.2072388,2,13.98210
1,Alto Paraguai/MT,-14.513712,-56.4936374,36,317.01303
1,Alto Paraná/PR,-23.131247,-52.318893,20,135.40961
1,Alto Paraíso de Goiás/GO,-14.1304779,-47.5100161,61,800.10493
1,Alto Paraíso/PR,-23.508137,-53.728537,1,36.48304
1,Alto Paraíso/RO,-9.7240103,-63.3188123,112,522.68060
D1,Alto Paraíso/RO,-9.7240103,-63.3188123,4,18.66716
1,Alto Parnaíba/MA,-9.112506,-45.9310154,95,848.97230
D1,Alto Parnaíba/MA,-9.112506,-45.9310154,1,8.93655
1,Alto Piquiri/PR,-24.0239021,-53.4417448,29,294.83530
D1,Alto Piquiri/PR,-24.0239021,-53.4417448,1,10.16673
1,Alto Rio Doce/MG,-21.0239537,-43.4133507,57,518.18182
D1,Alto Rio Doce/MG,-21.0239537,-43.4133507,1,9.09091
1,Alto Rio Novo/ES,-19.0577208,-41.0171518,95,1212.35324
D1,Alto Rio Novo/ES,-19.0577208,-41.0171518,5,63.80807
1,Alto Santo/CE,-5.5190371,-38.2719351,153,892.33640
D1,Alto Santo/CE,-5.5190371,-38.2719351,4,23.32906
1,Alto Taquari/MT,-17.8269099,-53.2831736,12,110.62967
D1,Alto Taquari/MT,-17.8269099,-53.2831736,1,9.21914
1,Alto do Rodrigues/RN,-5.290868,-36.7616726,220,1514.21295
D1,Alto do Rodrigues/RN,-5.290868,-36.7616726,9,61.94508
1,Altos/PI,-5.0393915,-42.4611694,671,1655.80890
D1,Altos/PI,-5.0393915,-42.4611694,8,19.74139
1,Altônia/PR,-23.8722004,-53.894037,26,117.88176
1,Alumínio/SP,-23.5203479,-47.2575256,76,407.98798
D1,Alumínio/SP,-23.5203479,-47.2575256,4,21.47305
1,Alvarenga/MG,-19.4175,-41.728334,108,2764.26926
D1,Alvarenga/MG,-19.4175,-41.728334,1,25.59509
1,Alvarães/AM,-3.214786,-64.8143124,1084,6757.68344
D1,Alvarães/AM,-3.214786,-64.8143124,13,81.04233
1,Alvinlândia/SP,-22.4431852,-49.7643596,3,93.10987
1,Alvinópolis/MG,-20.1105199,-43.0601805,14,92.08709
1,Alvorada D'Oeste/RO,-11.346271,-62.284697,32,222.05260
D1,Alvorada D'Oeste/RO,-11.346271,-62.284697,1,6.93914
1,Alvorada de Minas/MG,-18.7318587,-43.3641479,29,804.21520
D1,Alvorada de Minas/MG,-18.7318587,-43.3641479,1,27.73156
1,Alvorada do Gurguéia/PI,-8.4465288,-43.8655915,19,350.61820
D1,Alvorada do Gurguéia/PI,-8.4465288,-43.8655915,1,18.45359
1,Alvorada do Norte/GO,-14.483911,-46.4959897,32,369.51501
1,Alvorada do Sul/PR,-22.7807269,-51.2307721,15,131.50973
D1,Alvorada do Sul/PR,-22.7807269,-51.2307721,2,17.53463
1,Alvorada/RS,-29.9981184,-51.0772509,931,442.69038
D1,Alvorada/RS,-29.9981184,-51.0772509,31,14.74050
1,Alvorada/TO,-12.478465,-49.124926,27,320.97004
1,Além Paraíba/MG,-21.8760576,-42.6810473,225,636.27623
D1,Além Paraíba/MG,-21.8760576,-42.6810473,10,28.27894
1,Amajari/RR,3.6523869,-61.4194315,206,1609.87809
D1,Amajari/RR,3.6523869,-61.4194315,3,23.44483
1,Amambai/MS,-23.1082701,-55.2284854,46,116.76312
D1,Amambai/MS,-23.1082701,-55.2284854,2,5.07666
1,Amaporã/PR,-23.094272,-52.786597,23,367.58830
1,Amapá do Maranhão/MA,-1.6762114,-46.0109669,3,43.09107
1,Amapá/AP,2.0529997,-50.7930003,366,4018.00417
D1,Amapá/AP,2.0529997,-50.7930003,4,43.91261
1,Amaraji/PE,-8.373925,-35.4536527,122,534.40799
D1,Amaraji/PE,-8.373925,-35.4536527,19,83.22747
1,Amaralina/GO,-13.9236199,-49.2962411,3,78.69885
1,Amarante do Maranhão/MA,-5.56913,-46.747284,649,1566.30868
D1,Amarante do Maranhão/MA,-5.56913,-46.747284,11,26.54760
1,Amarante/PI,-6.2459374,-42.8476238,41,232.98102
D1,Amarante/PI,-6.2459374,-42.8476238,2,11.36493
1,Amargosa/BA,-13.03793715,-39.60796443875596,119,319.54029
D1,Amargosa/BA,-13.03793715,-39.60796443875596,4,10.74085
1,Amaturá/AM,-3.3640509,-68.1994689,480,4160.88766
D1,Amaturá/AM,-3.3640509,-68.1994689,8,69.34813
1,Americana/SP,-22.7392463,-47.3306032,1255,523.79621
D1,Americana/SP,-22.7392463,-47.3306032,46,19.19890
1,Americano do Brasil/GO,-16.2515808,-49.9806104,62,1014.56390
D1,Americano do Brasil/GO,-16.2515808,-49.9806104,1,16.36393
1,Ametista do Sul/RS,-27.3617341,-53.1826575,24,323.93035
1,Amontada/CE,-3.3634586,-39.8284791,710,1633.98693
D1,Amontada/CE,-3.3634586,-39.8284791,16,36.82224
1,Amorinópolis/GO,-16.6211308,-51.0949921,6,191.93858
1,Amparo de São Francisco/SE,-10.1299754,-36.9269099,27,1137.32098
1,Amparo do Serra/MG,-20.5070255,-42.8028462,3,63.65372
1,Amparo/PB,-7.56394725,-37.04652873235175,13,580.87578
1,Amparo/SP,-22.70111,-46.76444,246,340.74382
D1,Amparo/SP,-22.70111,-46.76444,11,15.23651
1,Ampére/PR,-25.9168712,-53.4742414,11,57.43525
D1,Ampére/PR,-25.9168712,-53.4742414,1,5.22139
1,Amélia Rodrigues/BA,-12.4015388,-38.7516971,163,649.35065
D1,Amélia Rodrigues/BA,-12.4015388,-38.7516971,1,3.98375
1,América Dourada/BA,-11.4515262,-41.4357517,75,466.01218
1,Américo Brasiliense/SP,-21.7297099,-48.1052092,178,439.46277
D1,Américo Brasiliense/SP,-21.7297099,-48.1052092,2,4.93778
1,Américo de Campos/SP,-20.298476,-49.735904,69,1155.97252
1,Anadia/AL,-9.6830208,-36.3052699,327,1863.77885
D1,Anadia/AL,-9.6830208,-36.3052699,4,22.79852
1,Anagé/BA,-14.6134669,-41.1376308,44,199.95456
D1,Anagé/BA,-14.6134669,-41.1376308,1,4.54442
1,Anahy/PR,-24.6450861,-53.1337957,20,714.03070
1,Anajatuba/MA,-3.26441,-44.6179916,271,1011.08085
D1,Anajatuba/MA,-3.26441,-44.6179916,6,22.38555
1,Anajás/PA,-0.9878802,-49.9390114,446,1523.38013
D1,Anajás/PA,-0.9878802,-49.9390114,11,37.57216
1,Analândia/SP,-22.128917,-47.661939,15,300.30030
1,Anamã/AM,-3.5797356,-61.4049996,389,2857.35273
1,Ananindeua/PA,-1.374035,-48.4016623,5331,1004.71543
D1,Ananindeua/PA,-1.374035,-48.4016623,342,64.45558
1,Ananás/TO,-6.3663053,-48.080238,70,733.06105
D1,Ananás/TO,-6.3663053,-48.080238,2,20.94460
1,Anapu/PA,-3.4668292,-51.2057035,566,2029.40122
D1,Anapu/PA,-3.4668292,-51.2057035,9,32.26963
1,Anapurus/MA,-3.6751298,-43.1046001,656,4169.84490
D1,Anapurus/MA,-3.6751298,-43.1046001,6,38.13883
1,Anastácio/MS,-20.4832458,-55.8048448,17,67.63477
D1,Anastácio/MS,-20.4832458,-55.8048448,3,11.93555
1,Anaurilândia/MS,-22.185169,-52.719056,8,88.54455
1,Anchieta/ES,-20.8057672,-40.6454564,445,1520.69166
D1,Anchieta/ES,-20.8057672,-40.6454564,14,47.84198
1,Anchieta/SC,-26.5350527,-53.3293938,12,212.84143
1,Andaraí/BA,-12.8059674,-41.3322919,9,68.47752
1,Andirá/PR,-23.0494761,-50.2310027,64,319.50477
D1,Andirá/PR,-23.0494761,-50.2310027,1,4.99226
1,Andorinha/BA,-10.3445708,-39.8334411,25,171.29154
D1,Andorinha/BA,-10.3445708,-39.8334411,1,6.85166
1,Andradas/MG,-22.0680484,-46.5688976,54,131.46043
D1,Andradas/MG,-22.0680484,-46.5688976,1,2.43445
1,Andradina/SP,-20.896505,-51.3742765,88,153.96189
D1,Andradina/SP,-20.896505,-51.3742765,5,8.74783
1,Andrelândia/MG,-21.739722,-44.308889,20,163.61257
1,André da Rocha/RS,-28.6309124,-51.5733328,5,375.09377
1,Angatuba/SP,-23.4938938,-48.4110675,109,432.05962
D1,Angatuba/SP,-23.4938938,-48.4110675,2,7.92770
1,Angelim/PE,-8.8902038,-36.2872987,28,251.12108
D1,Angelim/PE,-8.8902038,-36.2872987,1,8.96861
1,Angelina/SC,-27.5805287,-48.9838759,31,645.69881
1,Angical do Piauí/PI,-6.0872666,-42.7366138,43,633.47083
D1,Angical do Piauí/PI,-6.0872666,-42.7366138,2,29.46376
1,Angical/BA,-12.005623,-44.7000236,5,35.77306
1,Angico/TO,-6.3893733,-47.8656722,10,291.29042
1,Angicos/RN,-5.6666344,-36.6009064,82,700.01707
D1,Angicos/RN,-5.6666344,-36.6009064,3,25.61038
1,Angra dos Reis/RJ,-23.0063966,-44.316326,2522,1237.57882
D1,Angra dos Reis/RJ,-23.0063966,-44.316326,95,46.61776
1,Anguera/BA,-12.1509425,-39.2452469,40,356.47447
1,Angélica/MS,-22.1588196,-53.7728504,17,157.69944
1,Anhanguera/GO,-18.3338749,-48.220363,4,348.12881
D1,Anhanguera/GO,-18.3338749,-48.220363,1,87.03220
1,Anhembi/SP,-22.7891096,-48.1316776,3,44.61630
1,Anhumas/SP,-22.2956478,-51.3873401,10,243.01337
1,Anicuns/GO,-16.4606451,-49.9572265,187,855.83524
1,Anita Garibaldi/SC,-27.6855032,-51.1293873,52,729.00603
1,Anitápolis/SC,-27.9041185,-49.1287395,10,309.40594
1,Anori/AM,-3.7435254,-61.6605203,709,3374.58353
D1,Anori/AM,-3.7435254,-61.6605203,11,52.35602
1,Anta Gorda/RS,-28.9718745,-52.0069187,13,217.35496
1,Antas/BA,-10.4114649,-38.3308815,34,176.24799
1,Antonina do Norte/CE,-6.7754187,-39.9879345,12,163.19869
1,Antonina/PR,-25.4298854,-48.7125431,74,389.88409
D1,Antonina/PR,-25.4298854,-48.7125431,1,5.26870
1,Antônio Almeida/PI,-7.2186016,-44.1950248,51,1611.88369
1,Antônio Cardoso/BA,-12.4363122,-39.1200307,23,196.86724
1,Antônio Carlos/MG,-21.318334,-43.746666,20,174.74880
1,Antônio Carlos/SC,-27.5168462,-48.7684715,117,1374.36861
D1,Antônio Carlos/SC,-27.5168462,-48.7684715,5,58.73370
1,Antônio Dias/MG,-19.6525,-42.872778,41,440.00859
D1,Antônio Dias/MG,-19.6525,-42.872778,1,10.73192
1,Antônio Gonçalves/BA,-10.5715409,-40.2748824,51,432.27666
1,Antônio João/MS,-22.1892837,-55.9508227,12,133.98839
1,Antônio Martins/RN,-6.2155812,-37.8890129,3,41.98740
D1,Antônio Martins/RN,-6.2155812,-37.8890129,1,13.99580
1,Antônio Olinto/PR,-25.9849006,-50.1974516,9,121.06538
1,Antônio Prado/RS,-28.8567806,-51.2801355,17,130.26820
D1,Antônio Prado/RS,-28.8567806,-51.2801355,1,7.66284
1,Anápolis/GO,-16.3332828,-48.9525756,1574,406.79929
D1,Anápolis/GO,-16.3332828,-48.9525756,39,10.07952
1,Anísio de Abreu/PI,-9.185643,-43.04941,73,738.86640
1,Aparecida d'Oeste/SP,-20.4498109,-50.8808706,12,285.98665
1,Aparecida de Goiânia/GO,-16.8226769,-49.2452546,4509,779.86229
D1,Aparecida de Goiânia/GO,-16.8226769,-49.2452546,111,19.19821
1,Aparecida do Rio Doce/GO,-18.2980167,-51.1491312,26,1050.92967
D1,Aparecida do Rio Doce/GO,-18.2980167,-51.1491312,2,80.84074
1,Aparecida do Rio Negro/TO,-9.9513491,-47.9773786,5,104.27529
1,Aparecida do Taboado/MS,-20.0840304,-51.1013943,65,252.47621
D1,Aparecida do Taboado/MS,-20.0840304,-51.1013943,2,7.76850
1,Aparecida/PB,-6.7859598, -38.0831353,49,587.03726
D1,Aparecida/PB,-6.7859598, -38.0831353,1,11.98035
1,Aparecida/SP,-22.851552,-45.2340924,54,149.34867
1,Aperibé/RJ,-21.6211928,-42.1028167,103,875.92482
D1,Aperibé/RJ,-21.6211928,-42.1028167,3,25.51237
1,Apiacá/ES,-21.152272,-41.569297,76,1004.36104
D1,Apiacá/ES,-21.152272,-41.569297,2,26.43055
1,Apiacás/MT,-9.5678422,-57.394852,4,39.47498
D1,Apiacás/MT,-9.5678422,-57.394852,1,9.86875
1,Apiaí/SP,-24.5076527,-48.8461582,55,225.65028
D1,Apiaí/SP,-24.5076527,-48.8461582,2,8.20546
1,Apicum-Açu/MA,-1.5279295,-45.082278,197,1142.75770
D1,Apicum-Açu/MA,-1.5279295,-45.082278,3,17.40240
1,Apiúna/SC,-27.0374658,-49.3885037,19,176.85935
1,Apodi/RN,-5.6631109,-37.796927,994,2773.05063
D1,Apodi/RN,-5.6631109,-37.796927,17,47.42642
1,Aporá/BA,-11.6599747,-38.0794757,47,265.07247
D1,Aporá/BA,-11.6599747,-38.0794757,2,11.27968
1,Apuarema/BA,-13.8517897,-39.7457126,133,1814.46112
1,Apucarana/PR,-23.5525327,-51.4610764,258,191.11677
D1,Apucarana/PR,-23.5525327,-51.4610764,11,8.14839
1,Apuiarés/CE,-3.9460303,-39.4313298,158,1082.19178
D1,Apuiarés/CE,-3.9460303,-39.4313298,10,68.49315
1,Apuí/AM,-7.1940195,-59.8830192,98,446.00191
1,Aquidabã/SE,-10.2837579,-37.0188687,279,1293.88304
D1,Aquidabã/SE,-10.2837579,-37.0188687,7,32.46302
1,Aquidauana/MS,-20.473969,-55.7821375,20,41.77895
D1,Aquidauana/MS,-20.473969,-55.7821375,2,4.17789
1,Aquiraz/CE,-3.9063117,-38.387504,789,982.92036
D1,Aquiraz/CE,-3.9063117,-38.387504,25,31.14450
1,Arabutã/SC,-27.1587028,-52.1438142,45,1054.60511
1,Aracaju/SE,-10.9162061,-37.0774655,22715,3457.31363
D1,Aracaju/SE,-10.9162061,-37.0774655,449,68.33959
1,Aracati/CE,-4.558259,-37.767894,942,1263.63234
D1,Aracati/CE,-4.558259,-37.767894,41,54.99886
1,Aracatu/BA,-14.4274236,-41.4604105,20,152.26494
1,Araci/BA,-11.3356065,-38.9573261,507,932.34521
D1,Araci/BA,-11.3356065,-38.9573261,4,7.35578
1,Aracoiaba/CE,-4.3702577,-38.8084313,561,2119.46050
D1,Aracoiaba/CE,-4.3702577,-38.8084313,11,41.55805
1,Aracruz/ES,-19.8245218,-40.2735025,1756,1734.83501
D1,Aracruz/ES,-19.8245218,-40.2735025,43,42.48172
1,Aragarças/GO,-15.8957166,-52.2514538,123,611.39278
D1,Aragarças/GO,-15.8957166,-52.2514538,2,9.94135
1,Aragoiânia/GO,-16.9146388,-49.4499148,44,426.85293
D1,Aragoiânia/GO,-16.9146388,-49.4499148,1,9.70120
1,Aragominas/TO,-7.1654101,-48.525488,49,850.98993
D1,Aragominas/TO,-7.1654101,-48.525488,1,17.36714
1,Araguacema/TO,-8.8067391,-49.5560969,2,28.22467
1,Araguaiana/MT,-15.729144,-51.834112,11,354.83871
1,Araguainha/MT,-16.857016,-53.031778,1,106.95187
1,Araguanã/MA,-2.9508403,-45.6651986,426,2761.57137
D1,Araguanã/MA,-2.9508403,-45.6651986,2,12.96512
1,Araguanã/TO,-6.5799107,-48.6428482,40,698.20213
D1,Araguanã/TO,-6.5799107,-48.6428482,2,34.91011
1,Araguapaz/GO,-15.0937927,-50.626417,7,90.09009
D1,Araguapaz/GO,-15.0937927,-50.626417,1,12.87001
1,Araguari/MG,-18.6511256,-48.1933764,1105,942.29408
D1,Araguari/MG,-18.6511256,-48.1933764,22,18.76061
1,Araguatins/TO,-5.6522925,-48.1158973,276,771.79050
D1,Araguatins/TO,-5.6522925,-48.1158973,18,50.33416
1,Araguaçu/TO,-12.928934,-49.823134,142,1667.25373
D1,Araguaçu/TO,-12.928934,-49.823134,1,11.74122
1,Araguaína/TO,-7.193241,-48.2018597,5372,2976.67202
D1,Araguaína/TO,-7.193241,-48.2018597,76,42.11226
1,Araioses/MA,-2.890914,-41.904993,483,1040.05168
D1,Araioses/MA,-2.890914,-41.904993,8,17.22653
1,Aral Moreira/MS,-22.951141,-55.6268421,25,205.77825
1,Aramari/BA,-12.0907897,-38.4985065,37,324.64684
1,Arambaré/RS,-30.9132252,-51.4994625,2,55.85032
D1,Arambaré/RS,-30.9132252,-51.4994625,1,27.92516
1,Arame/MA,-4.8858769,-46.0102484,190,581.02199
D1,Arame/MA,-4.8858769,-46.0102484,4,12.23204
1,Aramina/SP,-20.0876144,-47.789201,17,302.49110
D1,Aramina/SP,-20.0876144,-47.789201,1,17.79359
1,Arandu/SP,-23.1345103,-49.0545651,14,220.22967
D1,Arandu/SP,-23.1345103,-49.0545651,2,31.46138
1,Arantina/MG,-21.911667,-44.255833,4,143.11270
D1,Arantina/MG,-21.911667,-44.255833,1,35.77818
1,Arapeí/SP,-22.6738889,-44.4477778,1,40.50223
D1,Arapeí/SP,-22.6738889,-44.4477778,1,40.50223
1,Arapiraca/AL,-9.754866,-36.661471,4277,1845.54708
D1,Arapiraca/AL,-9.754866,-36.661471,75,32.36288
1,Arapoema/TO,-7.6575001,-49.0641484,24,361.28255
D1,Arapoema/TO,-7.6575001,-49.0641484,2,30.10688
1,Arapongas/PR,-23.415296,-51.42592,515,418.60730
D1,Arapongas/PR,-23.415296,-51.42592,17,13.81810
1,Araporã/MG,-18.4318188,-49.188313,79,1150.09463
D1,Araporã/MG,-18.4318188,-49.188313,2,29.11632
1,Arapoti/PR,-24.1457957,-49.8224605,113,401.92068
D1,Arapoti/PR,-24.1457957,-49.8224605,1,3.55682
1,Araputanga/MT,-15.4710868,-58.346796,53,315.06361
D1,Araputanga/MT,-15.4710868,-58.346796,2,11.88919
1,Arapuá/MG,-19.034444,-46.155556,17,599.85886
1,Arapuã/PR,-24.3079525,-51.7901941,19,619.29596
D1,Arapuã/PR,-24.3079525,-51.7901941,1,32.59452
1,Araquari/SC,-26.3703324,-48.7210994,274,718.61313
D1,Araquari/SC,-26.3703324,-48.7210994,2,5.24535
1,Arara/PB,-6.8271895,-35.7605703,140,1039.34670
D1,Arara/PB,-6.8271895,-35.7605703,3,22.27171
1,Araranguá/SC,-28.9348832,-49.4858389,225,329.77663
D1,Araranguá/SC,-28.9348832,-49.4858389,4,5.86270
1,Araraquara/SP,-21.7886713,-48.1773096,1357,574.82463
D1,Araraquara/SP,-21.7886713,-48.1773096,15,6.35399
1,Araras/SP,-22.3569477,-47.3838889,831,619.05897
D1,Araras/SP,-22.3569477,-47.3838889,26,19.36887
1,Ararendá/CE,-4.7504395,-40.8303611,34,310.92821
D1,Ararendá/CE,-4.7504395,-40.8303611,2,18.28989
1,Arari/MA,-3.4547602,-44.7772723,185,619.80702
D1,Arari/MA,-3.4547602,-44.7772723,6,20.10185
1,Araricá/RS,-29.6168543,-50.929121,21,368.55037
D1,Araricá/RS,-29.6168543,-50.929121,2,35.10004
1,Araripe/CE,-7.212861,-40.1359222,121,560.18519
D1,Araripe/CE,-7.212861,-40.1359222,2,9.25926
1,Araripina/PE,-7.5768582,-40.5038509,359,425.26475
D1,Araripina/PE,-7.5768582,-40.5038509,8,9.47665
1,Araruama/RJ,-22.8733203,-42.3428897,427,322.50755
D1,Araruama/RJ,-22.8733203,-42.3428897,39,29.45619
1,Araruna/PB,-6.5321155,-35.7397595,176,866.48287
D1,Araruna/PB,-6.5321155,-35.7397595,5,24.61599
1,Araruna/PR,-23.9320308,-52.4976047,60,429.49177
D1,Araruna/PR,-23.9320308,-52.4976047,3,21.47459
1,Arataca/BA,-15.2617424,-39.4122943,41,372.08458
1,Aratiba/RS,-27.3955734,-52.3024325,12,192.46191
1,Aratuba/CE,-4.4195958,-39.0463737,134,1131.08804
D1,Aratuba/CE,-4.4195958,-39.0463737,1,8.44096
1,Aratuípe/BA,-13.077137,-39.0010786,8,90.65156
D1,Aratuípe/BA,-13.077137,-39.0010786,1,11.33144
1,Araucária/PR,-25.5861107,-49.4051209,1069,743.17137
D1,Araucária/PR,-25.5861107,-49.4051209,18,12.51364
1,Arauá/SE,-11.2644014,-37.6181058,149,1481.70247
D1,Arauá/SE,-11.2644014,-37.6181058,5,49.72156
1,Araxá/MG,-19.5928536,-46.940241,359,337.94915
D1,Araxá/MG,-19.5928536,-46.940241,6,5.64818
1,Araçagi/PB,-6.8519969,-35.3835602,396,2331.19444
D1,Araçagi/PB,-6.8519969,-35.3835602,2,11.77371
1,Araçariguama/SP,-23.438611,-47.061389,117,523.16223
D1,Araçariguama/SP,-23.438611,-47.061389,2,8.94294
1,Araças/BA,-12.2139176,-38.2026159,17,139.60746
1,Araçatuba/SP,-21.207992,-50.4390225,1971,1000.42636
D1,Araçatuba/SP,-21.207992,-50.4390225,51,25.88622
1,Araçaí/MG,-19.200833,-44.2475,1,42.60758
1,Araçoiaba da Serra/SP,-23.5045367,-47.6168158,153,448.07591
D1,Araçoiaba da Serra/SP,-23.5045367,-47.6168158,5,14.64300
1,Araçoiaba/PE,-7.7856903,-35.0898881,71,345.93646
D1,Araçoiaba/PE,-7.7856903,-35.0898881,11,53.59579
1,Araçu/GO,-16.3561579,-49.6815269,9,255.53663
1,Araçuaí/MG,-16.8484451,-42.0661868,15,40.86303
1,Araújos/MG,-19.948055,-45.165556,12,129.40796
1,Arceburgo/MG,-21.364444,-46.939722,15,139.24991
1,Arcos/MG,-20.282223,-45.539444,93,231.96648
D1,Arcos/MG,-20.282223,-45.539444,1,2.49426
1,Arcoverde/PE,-8.415192,-37.057748,450,605.34316
D1,Arcoverde/PE,-8.415192,-37.057748,25,33.63018
1,Areal/RJ,-22.2314922,-43.1056264,107,851.09768
D1,Areal/RJ,-22.2314922,-43.1056264,2,15.90837
1,Arealva/SP,-22.0301906,-48.9111936,12,140.18692
1,Areia Branca/RN,-4.9506652,-37.1263312,619,2228.70310
D1,Areia Branca/RN,-4.9506652,-37.1263312,47,169.22301
1,Areia Branca/SE,-10.7591455,-37.3148072,406,2189.62356
D1,Areia Branca/SE,-10.7591455,-37.3148072,11,59.32478
1,Areia de Baraúnas/PB,-7.1233949,-36.9446216,7,328.94737
1,Areia/PB,-6.9680243,-35.6994783,219,959.72654
D1,Areia/PB,-6.9680243,-35.6994783,2,8.76463
1,Areial/PB,-7.0501306,-35.9245244,37,528.72249
D1,Areial/PB,-7.0501306,-35.9245244,2,28.57959
1,Areias/SP,-22.5800929,-44.6975127,4,102.93361
1,Areiópolis/SP,-22.6758064,-48.6673653,25,224.63833
D1,Areiópolis/SP,-22.6758064,-48.6673653,3,26.95660
1,Arenápolis/MT,-14.4610369,-56.8432806,70,728.63537
D1,Arenápolis/MT,-14.4610369,-56.8432806,1,10.40908
1,Arenópolis/GO,-16.3859286,-51.55937,1,38.28484
1,Argirita/MG,-21.612761,-42.8371922,2,73.34067
D1,Argirita/MG,-21.612761,-42.8371922,1,36.67033
1,Aricanduva/MG,-17.8678,-42.5569,1,19.11680
1,Arinos/MG,-15.917223,-46.106111,39,218.18182
1,Aripuanã/MT,-10.175806,-59.4439663,89,398.13904
D1,Aripuanã/MT,-10.175806,-59.4439663,2,8.94694
1,Ariquemes/RO,-9.9076522,-63.033069,1817,1684.54428
D1,Ariquemes/RO,-9.9076522,-63.033069,32,29.66726
1,Ariranha/SP,-21.18716,-48.790418,63,651.63426
D1,Ariranha/SP,-21.18716,-48.790418,1,10.34340
1,Armazém/SC,-28.2624996,-49.0190126,63,726.30851
1,Armação dos Búzios/RJ,-22.7597805,-41.8875267,189,558.01594
D1,Armação dos Búzios/RJ,-22.7597805,-41.8875267,8,23.61972
1,Arneiroz/CE,-6.3235099,-40.1603859,37,471.93878
D1,Arneiroz/CE,-6.3235099,-40.1603859,2,25.51020
1,Aroazes/PI,-6.1108814,-41.7886137,19,325.62125
D1,Aroazes/PI,-6.1108814,-41.7886137,1,17.13796
1,Aroeiras do Itaim/PI,-7.2797031,-41.5629681,7,274.40220
1,Aroeiras/PB,-7.5462904,-35.7080002,142,741.39821
1,Arraial do Cabo/RJ,-22.9662839,-42.024427,89,293.25513
D1,Arraial do Cabo/RJ,-22.9662839,-42.024427,5,16.47501
1,Arraias/TO,-12.9287788,-46.9437231,11,104.09766
1,Arroio Grande/RS,-32.2384246,-53.0866661,7,38.26600
1,Arroio Trinta/SC,-26.9301976,-51.334928,32,901.40845
1,Arroio do Meio/RS,-29.4020392,-51.9444993,178,855.56357
1,Arroio do Sal/RS,-29.549852,-49.8874395,19,188.77298
D1,Arroio do Sal/RS,-29.549852,-49.8874395,2,19.87084
1,Arroio do Tigre/RS,-29.334158,-53.0888935,3,22.43326
1,Arroio dos Ratos/RS,-30.0894524,-51.7265541,35,247.33234
D1,Arroio dos Ratos/RS,-30.0894524,-51.7265541,3,21.19992
1,Artur Nogueira/SP,-22.572737,-47.172679,154,283.04661
D1,Artur Nogueira/SP,-22.572737,-47.172679,2,3.67593
1,Aruanã/GO,-14.9162439,-51.0715692,15,151.89873
1,Arujá/SP,-23.396266,-46.3175449,760,846.09904
D1,Arujá/SP,-23.396266,-46.3175449,50,55.66441
1,Arvoredo/SC,-27.0752908,-52.4571847,27,1205.35714
D1,Arvoredo/SC,-27.0752908,-52.4571847,1,44.64286
1,Arvorezinha/RS,-28.87369,-52.17808,15,143.89870
D1,Arvorezinha/RS,-28.87369,-52.17808,1,9.59325
1,Arês/RN,-6.1969216,-35.1642968,146,1020.55082
D1,Arês/RN,-6.1969216,-35.1642968,2,13.98015
1,Ascurra/SC,-26.9569975,-49.3767752,31,390.72347
D1,Ascurra/SC,-26.9569975,-49.3767752,1,12.60398
1,Aspásia/SP,-20.160028,-50.728046,21,1152.57958
1,Assaré/CE,-6.8746791,-39.8741385,157,670.45309
D1,Assaré/CE,-6.8746791,-39.8741385,4,17.08161
1,Assaí/PR,-23.3736041,-50.8454929,39,257.95357
D1,Assaí/PR,-23.3736041,-50.8454929,7,46.29936
1,Assis Brasil/AC,-10.9409203,-69.5672108,233,3141.43185
D1,Assis Brasil/AC,-10.9409203,-69.5672108,5,67.41270
1,Assis Chateaubriand/PR,-24.4054826,-53.5120468,180,539.53600
D1,Assis Chateaubriand/PR,-24.4054826,-53.5120468,3,8.99227
1,Assis/SP,-22.6620892,-50.420623,370,354.45366
D1,Assis/SP,-22.6620892,-50.420623,16,15.32773
1,Assunção do Piauí/PI,-5.8610212,-41.0485091,80,1019.62784
D1,Assunção do Piauí/PI,-5.8610212,-41.0485091,1,12.74535
1,Assunção/PB,-7.073396,-36.7274003,31,776.94236
1,Astolfo Dutra/MG,-21.3132636,-42.8624102,41,289.16003
D1,Astolfo Dutra/MG,-21.3132636,-42.8624102,2,14.10537
1,Astorga/PR,-23.2350184,-51.6647074,90,344.68232
D1,Astorga/PR,-23.2350184,-51.6647074,2,7.65961
1,Atalaia do Norte/AM,-4.3658547,-70.1908742,645,3237.78927
D1,Atalaia do Norte/AM,-4.3658547,-70.1908742,4,20.07931
1,Atalaia/AL,-9.5029595,-36.0219316,457,968.52813
D1,Atalaia/AL,-9.5029595,-36.0219316,13,27.55113
1,Atalaia/PR,-23.1513833,-52.0529697,10,256.93731
1,Atalanta/SC,-27.421916,-49.778863,10,311.52648
1,Ataléia/MG,-18.04432,-41.1110524,49,380.78956
D1,Ataléia/MG,-18.04432,-41.1110524,2,15.54243
1,Atibaia/SP,-23.1177393,-46.5547861,409,286.49281
D1,Atibaia/SP,-23.1177393,-46.5547861,15,10.50707
1,Atilio Vivacqua/ES,-20.9139369,-41.1947519,157,1315.34853
D1,Atilio Vivacqua/ES,-20.9139369,-41.1947519,2,16.75603
1,Augustinópolis/TO,-5.4662267,-47.8897519,338,1835.75929
D1,Augustinópolis/TO,-5.4662267,-47.8897519,4,21.72496
1,Augusto Corrêa/PA,-1.0229335,-46.6404029,925,2010.95700
D1,Augusto Corrêa/PA,-1.0229335,-46.6404029,20,43.48015
1,Augusto de Lima/MG,-18.1092963,-44.2651945,16,328.60957
1,Aurelino Leal/BA,-14.3167137,-39.3256107,222,1925.24499
D1,Aurelino Leal/BA,-14.3167137,-39.3256107,2,17.34455
1,Auriflama/SP,-20.6840418,-50.5554616,98,645.20377
D1,Auriflama/SP,-20.6840418,-50.5554616,4,26.33485
1,Aurilândia/GO,-16.6772599,-50.4641231,15,480.76923
1,Aurora do Pará/PA,-2.1323199,-47.558436,496,1582.74300
D1,Aurora do Pará/PA,-2.1323199,-47.558436,7,22.33710
1,Aurora do Tocantins/TO,-12.71045,-46.407604,14,372.63774
1,Aurora/CE,-6.9426019,-38.9693765,116,470.51188
D1,Aurora/CE,-6.9426019,-38.9693765,6,24.33682
1,Aurora/SC,-27.3166417,-49.6368502,25,440.21835
1,Autazes/AM,-3.5833283,-59.1301518,1123,2838.36724
D1,Autazes/AM,-3.5833283,-59.1301518,32,80.87957
1,Avanhandava/SP,-21.4603331,-49.9465156,16,117.22471
1,Avaré/SP,-23.1045215,-48.9259103,170,187.52413
D1,Avaré/SP,-23.1045215,-48.9259103,10,11.03083
1,Avaí/SP,-22.1564662,-49.3316395,24,444.19767
1,Aveiro/PA,-3.6049239,-55.3310742,241,1470.58824
D1,Aveiro/PA,-3.6049239,-55.3310742,4,24.40810
1,Avelino Lopes/PI,-10.1346855,-43.9489525,8,70.86544
D1,Avelino Lopes/PI,-10.1346855,-43.9489525,1,8.85818
1,Avelinópolis/GO,-16.4672409,-49.7578661,22,910.21928
1,Axixá do Tocantins/TO,-5.612747,-47.77007,110,1127.51128
D1,Axixá do Tocantins/TO,-5.612747,-47.77007,3,30.75031
1,Axixá/MA,-2.8379465,-44.0561053,95,783.18219
D1,Axixá/MA,-2.8379465,-44.0561053,2,16.48805
1,Açailândia/MA,-4.9514278,-47.4844564,2804,2493.66357
D1,Açailândia/MA,-4.9514278,-47.4844564,66,58.69536
1,Açu/RN,-5.5836157,-36.9139541,642,1106.57221
D1,Açu/RN,-5.5836157,-36.9139541,36,62.05078
1,Açucena/MG,-19.073056,-42.546666,30,316.78986
D1,Açucena/MG,-19.073056,-42.546666,1,10.55966
1,Babaçulândia/TO,-7.2034355,-47.761613,39,365.71643
1,Bacabal/MA,-4.2318132,-44.781167,2761,2630.80163
D1,Bacabal/MA,-4.2318132,-44.781167,34,32.39669
1,Bacabeira/MA,-2.9775747,-44.3155943,130,762.23981
D1,Bacabeira/MA,-2.9775747,-44.3155943,1,5.86338
1,Bacuri/MA,-1.728894,-45.1417148,377,2028.84512
D1,Bacuri/MA,-1.728894,-45.1417148,2,10.76310
1,Bacurituba/MA,-2.7082587,-44.7381309,21,372.07654
1,Bady Bassitt/SP,-20.9178969,-49.4517911,203,1159.86744
D1,Bady Bassitt/SP,-20.9178969,-49.4517911,8,45.70906
1,Baependi/MG,-21.959162,-44.8899249,11,57.44725
1,Bagre/PA,-1.8994498,-50.2103844,223,727.02377
D1,Bagre/PA,-1.8994498,-50.2103844,8,26.08157
1,Bagé/RS,-31.3314264,-54.1062808,190,156.83944
D1,Bagé/RS,-31.3314264,-54.1062808,1,0.82547
1,Baianópolis/BA,-12.3067564,-44.5383591,4,28.82467
1,Baixa Grande do Ribeiro/PI,-7.862861,-45.2113289,188,1622.64802
D1,Baixa Grande do Ribeiro/PI,-7.862861,-45.2113289,3,25.89332
1,Baixa Grande/BA,-11.9630941,-40.1657537,3,14.65703
1,Baixio/CE,-6.7303544,-38.7170095,20,318.06616
1,Baixo Guandu/ES,-19.5138322,-41.0182089,321,1035.55068
D1,Baixo Guandu/ES,-19.5138322,-41.0182089,9,29.03413
1,Baião/PA,-2.7903479,-49.6702845,248,522.69949
D1,Baião/PA,-2.7903479,-49.6702845,13,27.39957
1,Balbinos/SP,-21.9006253,-49.3583966,3,52.31037
1,Baldim/MG,-19.2913568,-43.9558262,10,127.77920
1,Baliza/GO,-16.1978119,-52.542789,1,19.46283
1,Balneário Arroio do Silva/SC,-28.9815269,-49.4189932,80,612.04192
D1,Balneário Arroio do Silva/SC,-28.9815269,-49.4189932,3,22.95157
1,Balneário Barra do Sul/SC,-26.459842,-48.6061471,87,805.92867
1,Balneário Camboriú/SC,-26.9924395,-48.6339782,3144,2209.49436
D1,Balneário Camboriú/SC,-26.9924395,-48.6339782,30,21.08296
1,Balneário Gaivota/SC,-29.1553098,-49.5808712,21,191.27425
D1,Balneário Gaivota/SC,-29.1553098,-49.5808712,3,27.32489
1,Balneário Pinhal/RS,-30.2482978,-50.234585,18,127.94996
1,Balneário Piçarras/SC,-26.7638889,-48.6716667,193,833.80136
D1,Balneário Piçarras/SC,-26.7638889,-48.6716667,1,4.32021
1,Balneário Rincão/SC,-28.8235718,-49.2241642,41,321.31661
D1,Balneário Rincão/SC,-28.8235718,-49.2241642,2,15.67398
1,Balsa Nova/PR,-25.5842234,-49.6312741,125,965.92226
D1,Balsa Nova/PR,-25.5842234,-49.6312741,2,15.45476
1,Balsas/MA,-7.53214,-46.037163,1831,1929.66371
D1,Balsas/MA,-7.53214,-46.037163,11,11.59274
1,Bambuí/MG,-20.0131996,-45.9777034,17,71.34164
1,Banabuiú/CE,-5.3046404,-38.919766,325,1786.00868
D1,Banabuiú/CE,-5.3046404,-38.919766,2,10.99082
1,Bananal/SP,-22.6828195,-44.3221095,26,237.55139
1,Bananeiras/PB,-6.7537682,-35.6338343,108,506.61413
D1,Bananeiras/PB,-6.7537682,-35.6338343,1,4.69087
1,Bandeira do Sul/MG,-21.728056,-46.385555,2,34.80682
1,Bandeira/MG,-15.884444,-40.559167,198,4129.30136
D1,Bandeira/MG,-15.884444,-40.559167,1,20.85506
1,Bandeirante/SC,-26.7677402,-53.6397596,1,37.34130
1,Bandeirantes do Tocantins/TO,-7.7635698,-48.579148,16,450.32367
1,Bandeirantes/MS,-19.9179623,-54.3646768,20,294.63760
1,Bandeirantes/PR,-23.107788,-50.370407,125,398.50799
D1,Bandeirantes/PR,-23.107788,-50.370407,4,12.75226
1,Bannach/PA,-7.3508505,-50.4064531,67,2038.95313
D1,Bannach/PA,-7.3508505,-50.4064531,3,91.29641
1,Banzaê/BA,-10.5827616,-38.6122305,52,393.07582
1,Baraúna/PB,-6.643394,-36.2531932,120,2452.98446
1,Baraúna/RN,-5.0775002,-37.61752,248,874.03961
D1,Baraúna/RN,-5.0775002,-37.61752,10,35.24353
1,Barbacena/MG,-21.2254524,-43.7735087,453,329.90321
D1,Barbacena/MG,-21.2254524,-43.7735087,7,5.09784
1,Barbalha/CE,-7.3121067,-39.3036427,707,1163.19245
D1,Barbalha/CE,-7.3121067,-39.3036427,28,46.06703
1,Barbosa Ferraz/PR,-24.0287182,-52.00811,40,345.78147
D1,Barbosa Ferraz/PR,-24.0287182,-52.00811,2,17.28907
1,Barbosa/SP,-21.265661,-49.951816,12,162.11835
1,Barcarena/PA,-1.5107945,-48.6190679,2575,2065.28714
D1,Barcarena/PA,-1.5107945,-48.6190679,103,82.61149
1,Barcelona/RN,-5.9514918,-35.9260284,22,550.27514
1,Barcelos/AM,-0.9729214,-62.925635,1952,7097.66562
D1,Barcelos/AM,-0.9729214,-62.925635,24,87.26638
1,Bariri/SP,-22.0746355,-48.7394852,144,408.34846
D1,Bariri/SP,-22.0746355,-48.7394852,3,8.50726
1,Barra Bonita/SP,-22.490859,-48.558349,217,600.67541
D1,Barra Bonita/SP,-22.490859,-48.558349,5,13.84045
1,Barra D'Alcântara/PI,-6.5209258,-42.1071089,2,50.62010
1,Barra Funda/RS,-27.9230048,-53.0401045,2,78.77117
1,Barra Longa/MG,-20.2833541,-43.0423516,56,1091.40518
1,Barra Mansa/RJ,-22.5394843,-44.1735129,733,397.47956
D1,Barra Mansa/RJ,-22.5394843,-44.1735129,37,20.06377
1,Barra Velha/SC,-26.6338203,-48.6835001,184,630.82830
D1,Barra Velha/SC,-26.6338203,-48.6835001,1,3.42841
1,Barra da Estiva/BA,-13.6269662,-41.3278287,5,24.27420
1,Barra de Guabiraba/PE,-8.4173522,-35.6626669,125,868.96072
D1,Barra de Guabiraba/PE,-8.4173522,-35.6626669,8,55.61349
1,Barra de Santa Rosa/PB,-6.7218007,-36.0564638,32,208.00832
D1,Barra de Santa Rosa/PB,-6.7218007,-36.0564638,1,6.50026
1,Barra de Santana/PB,-7.5230865,-35.9988518,72,861.34705
D1,Barra de Santana/PB,-7.5230865,-35.9988518,2,23.92631
1,Barra de Santo Antônio/AL,-9.4038098,-35.5117693,103,646.49761
D1,Barra de Santo Antônio/AL,-9.4038098,-35.5117693,7,43.93673
1,Barra de São Francisco/ES,-18.7570902,-40.8916119,270,604.70325
D1,Barra de São Francisco/ES,-18.7570902,-40.8916119,9,20.15677
1,Barra de São Miguel/AL,-9.8261357,-35.8837777,111,1333.81399
D1,Barra de São Miguel/AL,-9.8261357,-35.8837777,5,60.08171
1,Barra de São Miguel/PB,-7.7528088,-36.3170996,23,381.04705
D1,Barra de São Miguel/PB,-7.7528088,-36.3170996,1,16.56726
1,Barra do Bugres/MT,-15.0683712,-57.1853688,86,245.95321
D1,Barra do Bugres/MT,-15.0683712,-57.1853688,3,8.57976
1,Barra do Chapéu/SP,-24.472203,-49.023784,17,296.99511
1,Barra do Choça/BA,-14.8638173,-40.5761637,207,655.00111
D1,Barra do Choça/BA,-14.8638173,-40.5761637,2,6.32851
1,Barra do Corda/MA,-5.496823,-45.248496,2191,2483.78905
D1,Barra do Corda/MA,-5.496823,-45.248496,18,20.40539
1,Barra do Garças/MT,-15.8916033,-52.2615413,385,631.02341
D1,Barra do Garças/MT,-15.8916033,-52.2615413,33,54.08772
1,Barra do Guarita/RS,-27.1888016,-53.7147086,10,307.88177
1,Barra do Jacaré/PR,-23.1151788,-50.1813945,1,35.95829
1,Barra do Mendes/BA,-11.8053298,-42.057037,4,28.84962
1,Barra do Ouro/TO,-7.7113784,-47.6743925,11,239.59922
D1,Barra do Ouro/TO,-7.7113784,-47.6743925,3,65.34524
1,Barra do Piraí/RJ,-22.4703403,-43.8263256,513,511.08853
D1,Barra do Piraí/RJ,-22.4703403,-43.8263256,27,26.89940
1,Barra do Ribeiro/RS,-30.2930206,-51.301437,40,296.49396
D1,Barra do Ribeiro/RS,-30.2930206,-51.301437,3,22.23705
1,Barra do Rio Azul/RS,-27.4101581,-52.4117471,2,118.34320
1,Barra do Rocha/BA,-14.2090974,-39.6004395,15,262.51313
1,Barra do Turvo/SP,-24.756421,-48.5056942,25,326.41337
D1,Barra do Turvo/SP,-24.756421,-48.5056942,1,13.05653
1,Barra dos Coqueiros/SE,-10.9075694,-37.0386249,793,2607.95212
D1,Barra dos Coqueiros/SE,-10.9075694,-37.0386249,12,39.46460
1,Barra/BA,-11.0892702,-43.1420453,43,80.25682
1,Barracão/PR,-26.252395,-53.6349576,20,194.64720
1,Barracão/RS,-27.6728964,-51.4582928,19,360.18957
D1,Barracão/RS,-27.6728964,-51.4582928,1,18.95735
1,Barras/PI,-4.2446153,-42.2920241,1042,2213.91238
D1,Barras/PI,-4.2446153,-42.2920241,21,44.61820
1,Barreira/CE,-4.2883361,-38.641094,294,1311.03679
D1,Barreira/CE,-4.2883361,-38.641094,17,75.80825
1,Barreiras do Piauí/PI,-9.9224524,-45.4763776,2,59.73716
1,Barreiras/BA,-12.1440031,-44.9967406,794,510.81132
D1,Barreiras/BA,-12.1440031,-44.9967406,11,7.07673
1,Barreirinha/AM,-2.798863,-57.067897,737,2300.17790
D1,Barreirinha/AM,-2.798863,-57.067897,8,24.96801
1,Barreirinhas/MA,-2.7541271,-42.8259693,389,622.12129
D1,Barreirinhas/MA,-2.7541271,-42.8259693,18,28.78710
1,Barreiros/PE,-8.8159644,-35.1831905,243,569.63361
D1,Barreiros/PE,-8.8159644,-35.1831905,37,86.73434
1,Barretos/SP,-20.5531437,-48.5697509,1549,1268.65305
D1,Barretos/SP,-20.5531437,-48.5697509,62,50.77888
1,Barrinha/SP,-21.1898849,-48.1550642,188,572.96111
D1,Barrinha/SP,-21.1898849,-48.1550642,8,24.38132
1,Barro Alto/BA,-11.7618025,-41.9094904,5,33.48738
1,Barro Alto/GO,-14.9696025,-48.9190985,47,420.88296
1,Barro Duro/PI,-5.8180139,-42.5106589,95,1350.96701
D1,Barro Duro/PI,-5.8180139,-42.5106589,2,28.44141
1,Barro Preto/BA,-14.8068289,-39.4727588,97,1734.93114
D1,Barro Preto/BA,-14.8068289,-39.4727588,3,53.65766
1,Barro/CE,-7.1713587,-38.7742136,50,220.45855
D1,Barro/CE,-7.1713587,-38.7742136,7,30.86420
1,Barrocas/BA,-11.5165,-39.099282894736845,50,312.93028
1,Barrolândia/TO,-9.837246,-48.7264346,40,710.22727
D1,Barrolândia/TO,-9.837246,-48.7264346,1,17.75568
1,Barroquinha/CE,-3.0200371,-41.1339229,641,4268.49570
D1,Barroquinha/CE,-3.0200371,-41.1339229,16,106.54591
1,Barros Cassal/RS,-29.094938,-52.5832366,2,17.85874
D1,Barros Cassal/RS,-29.094938,-52.5832366,1,8.92937
1,Barroso/MG,-21.187222,-43.976111,49,235.46372
1,Barueri/SP,-23.5112184,-46.8764612,2734,997.14788
D1,Barueri/SP,-23.5112184,-46.8764612,253,92.27447
1,Barão de Antonina/SP,-23.6295651,-49.5632104,10,288.26751
1,Barão de Cocais/MG,-19.9452437,-43.4870298,188,578.72864
1,Barão de Cotegipe/RS,-27.6214694,-52.3765316,64,966.32946
D1,Barão de Cotegipe/RS,-27.6214694,-52.3765316,3,45.29669
1,Barão de Grajaú/MA,-6.7542591,-43.0263477,13,69.07545
D1,Barão de Grajaú/MA,-6.7542591,-43.0263477,1,5.31350
1,Barão de Melgaço/MT,-16.195776,-55.9668049,50,583.83933
D1,Barão de Melgaço/MT,-16.195776,-55.9668049,1,11.67679
1,Barão de Monte Alto/MG,-21.244722,-42.2375,19,352.04743
1,Barão do Triunfo/RS,-30.3909877,-51.7375349,11,146.92133
1,Barão/RS,-29.372474,-51.494908,12,194.45795
D1,Barão/RS,-29.372474,-51.494908,1,16.20483
1,Bastos/SP,-21.9222474,-50.7317727,24,114.54207
1,Bataguassu/MS,-21.715899,-52.422058,366,1589.64559
1,Batalha/AL,-9.6733809,-37.1265481,244,1338.30627
D1,Batalha/AL,-9.6733809,-37.1265481,6,32.90917
1,Batalha/PI,-4.022391,-42.0780926,208,774.47220
D1,Batalha/PI,-4.022391,-42.0780926,5,18.61712
1,Batatais/SP,-20.892867,-47.592149,99,158.37973
D1,Batatais/SP,-20.892867,-47.592149,1,1.59980
1,Batayporã/MS,-22.2976466,-53.2685608,49,432.51832
D1,Batayporã/MS,-22.2976466,-53.2685608,3,26.48071
1,Baturité/CE,-4.3290203,-38.8821055,472,1320.27972
D1,Baturité/CE,-4.3290203,-38.8821055,26,72.72727
1,Bauru/SP,-22.3218102,-49.0705863,2216,588.08231
D1,Bauru/SP,-22.3218102,-49.0705863,50,13.26901
1,Bayeux/PB,-7.1301631,-34.936532,1152,1189.09992
D1,Bayeux/PB,-7.1301631,-34.936532,60,61.93229
1,Baía Formosa/RN,-6.3691885,-35.0063741,63,679.53835
D1,Baía Formosa/RN,-6.3691885,-35.0063741,2,21.57265
1,Baía da Traição/PB,-6.691258,-34.9371244,357,3969.75425
D1,Baía da Traição/PB,-6.691258,-34.9371244,4,44.47904
1,Bebedouro/SP,-20.949077,-48.479083,179,230.97966
D1,Bebedouro/SP,-20.949077,-48.479083,11,14.19428
1,Beberibe/CE,-4.1810469,-38.1298101,524,978.10464
D1,Beberibe/CE,-4.1810469,-38.1298101,26,48.53191
1,Bela Cruz/CE,-3.0529129,-40.167582,1035,3175.72336
D1,Bela Cruz/CE,-3.0529129,-40.167582,14,42.95664
1,Bela Vista da Caroba/PR,-25.8792818,-53.6672545,10,284.81914
1,Bela Vista de Goiás/GO,-16.9692949,-48.9513071,158,527.10592
D1,Bela Vista de Goiás/GO,-16.9692949,-48.9513071,3,10.00834
1,Bela Vista de Minas/MG,-19.8289721,-43.0973688,11,107.26475
D1,Bela Vista de Minas/MG,-19.8289721,-43.0973688,1,9.75134
1,Bela Vista do Maranhão/MA,-3.7416367,-45.2514192,112,999.19707
D1,Bela Vista do Maranhão/MA,-3.7416367,-45.2514192,2,17.84280
1,Bela Vista do Paraíso/PR,-22.9948493,-51.1907996,36,233.81178
D1,Bela Vista do Paraíso/PR,-22.9948493,-51.1907996,3,19.48432
1,Bela Vista do Piauí/PI,-7.9716353,-41.8715061,1,24.90660
1,Bela Vista do Toldo/SC,-26.274625,-50.466354,3,47.34101
1,Bela Vista/MS,-22.107327,-56.5317344,12,48.72305
1,Belford Roxo/RJ,-22.7667284,-43.4033603,1638,320.60692
D1,Belford Roxo/RJ,-22.7667284,-43.4033603,193,37.77603
1,Belmiro Braga/MG,-21.9486291,-43.413564,11,320.79323
D1,Belmiro Braga/MG,-21.9486291,-43.413564,2,58.32604
1,Belmonte/BA,-15.8630837,-38.8792845,182,780.17833
D1,Belmonte/BA,-15.8630837,-38.8792845,1,4.28669
1,Belmonte/SC,-26.8448262,-53.578916,1,36.95492
1,Belo Campo/BA,-15.0338286,-41.2585109,1,5.81024
1,Belo Horizonte/MG,-19.9227318,-43.9450948,13700,545.36697
D1,Belo Horizonte/MG,-19.9227318,-43.9450948,342,13.61427
1,Belo Jardim/PE,-8.3338293,-36.4176419,492,643.65049
D1,Belo Jardim/PE,-8.3338293,-36.4176419,18,23.54819
1,Belo Monte/AL,-9.8269944,-37.2787165,20,298.32936
D1,Belo Monte/AL,-9.8269944,-37.2787165,2,29.83294
1,Belo Oriente/MG,-19.2232523,-42.4807033,195,730.33708
D1,Belo Oriente/MG,-19.2232523,-42.4807033,6,22.47191
1,Belo Vale/MG,-20.407778,-44.024167,36,466.62346
D1,Belo Vale/MG,-20.407778,-44.024167,1,12.96176
1,Belterra/PA,-2.636091,-54.937392,114,642.90548
D1,Belterra/PA,-2.636091,-54.937392,7,39.47665
1,Belágua/MA,-3.1604031,-43.5085052,158,2115.41036
D1,Belágua/MA,-3.1604031,-43.5085052,1,13.38867
1,Belém de Maria/PE,-8.6242497,-35.8388934,44,364.44960
1,Belém do Brejo do Cruz/PB,-6.1880727,-37.5332267,16,217.92427
1,Belém do Piauí/PI,-7.3767305,-40.9712156,14,392.59675
D1,Belém do Piauí/PI,-7.3767305,-40.9712156,1,28.04262
1,Belém do São Francisco/PE,-8.7517707,-38.9625715,15,72.36239
1,Belém/AL,-9.5715351,-36.492841,39,897.79006
D1,Belém/AL,-9.5715351,-36.492841,1,23.02026
1,Belém/PA,-1.45056,-48.4682453,23760,1591.69852
D1,Belém/PA,-1.45056,-48.4682453,2034,136.25904
1,Belém/PB,-6.6967586,-35.5369626,548,3100.24893
D1,Belém/PB,-6.6967586,-35.5369626,7,39.60172
1,Beneditinos/PI,-5.4565671,-42.3605061,71,678.32235
D1,Beneditinos/PI,-5.4565671,-42.3605061,3,28.66151
1,Benedito Leite/MA,-7.2173453,-44.5523331,35,621.44886
1,Benedito Novo/SC,-26.7840657,-49.3629511,44,377.61758
1,Benevides/PA,-1.3555577,-48.252235,1374,2190.09516
D1,Benevides/PA,-1.3555577,-48.252235,51,81.29174
1,Benjamin Constant do Sul/RS,-27.5105555,-52.6007689,29,1454.36309
1,Benjamin Constant/AM,-4.3782748,-70.0290603,1493,3473.38545
D1,Benjamin Constant/AM,-4.3782748,-70.0290603,28,65.14052
1,Bento Fernandes/RN,-5.6926846,-35.8207423,18,327.45134
D1,Bento Fernandes/RN,-5.6926846,-35.8207423,1,18.19174
1,Bento Gonçalves/RS,-29.1654014,-51.5197627,1764,1464.45946
D1,Bento Gonçalves/RS,-29.1654014,-51.5197627,51,42.33981
1,Bento de Abreu/SP,-21.2707225,-50.8120444,9,302.01342
1,Bequimão/MA,-2.4495376,-44.7884889,191,897.55639
D1,Bequimão/MA,-2.4495376,-44.7884889,10,46.99248
1,Berilo/MG,-16.9515764,-42.4643732,5,41.90412
1,Bernardino Batista/PB,-6.4532173,-38.5495418,4,114.25307
1,Bernardino de Campos/SP,-23.0140216,-49.4760724,37,331.89810
1,Bernardo Sayão/TO,-7.8794244,-48.8968905,15,336.39830
1,Bernardo do Mearim/MA,-4.6315929,-44.7617508,48,794.30746
D1,Bernardo do Mearim/MA,-4.6315929,-44.7617508,2,33.09614
1,Bertioga/SP,-23.848568,-46.139586,807,1275.90950
D1,Bertioga/SP,-23.848568,-46.139586,23,36.36421
1,Bertolínia/PI,-7.6372159,-43.9540611,34,618.06944
1,Beruri/AM,-3.9007135,-61.3717319,503,2556.02419
D1,Beruri/AM,-3.9007135,-61.3717319,7,35.57091
1,Betim/MG,-19.968056,-44.198333,1648,375.10812
D1,Betim/MG,-19.968056,-44.198333,54,12.29116
1,Betânia do Piauí/PI,-8.1460635,-40.7961387,4,64.46414
1,Betânia/PE,-8.2742779,-38.0351767,22,172.96957
D1,Betânia/PE,-8.2742779,-38.0351767,1,7.86225
1,Bezerros/PE,-8.2372132,-35.7558262,413,679.29866
D1,Bezerros/PE,-8.2372132,-35.7558262,26,42.76456
1,Bias Fortes/MG,-21.605833,-43.756944,8,236.75644
1,Bicas/MG,-21.7213723,-43.0604327,30,206.98220
1,Biguaçu/SC,-27.4961277,-48.6542432,594,867.39388
D1,Biguaçu/SC,-27.4961277,-48.6542432,9,13.14233
1,Bilac/SP,-21.403962,-50.47464,14,174.25940
1,Biquinhas/MG,-18.783611,-45.502222,2,79.52286
1,Birigui/SP,-21.2908491,-50.34144,555,448.89112
D1,Birigui/SP,-21.2908491,-50.34144,21,16.98507
1,Biritiba-Mirim/SP,-23.5697765,-46.0407456,94,288.36125
D1,Biritiba-Mirim/SP,-23.5697765,-46.0407456,8,24.54138
1,Biritinga/BA,-11.6227908,-38.8066738,14,87.61499
1,Bituruna/PR,-26.161281,-51.5533319,30,183.04961
1,Blumenau/SC,-26.9195567,-49.0658025,3366,942.33187
D1,Blumenau/SC,-26.9195567,-49.0658025,25,6.99890
1,Boa Esperança do Iguaçu/PR,-25.6362851,-53.2139114,1,39.95206
1,Boa Esperança do Sul/SP,-21.9930206,-48.3917372,32,214.43410
D1,Boa Esperança do Sul/SP,-21.9930206,-48.3917372,1,6.70107
1,Boa Esperança/ES,-18.5395472,-40.2904088,222,1476.35832
D1,Boa Esperança/ES,-18.5395472,-40.2904088,10,66.50263
1,Boa Esperança/MG,-21.0901253,-45.5660195,64,159.49361
D1,Boa Esperança/MG,-21.0901253,-45.5660195,6,14.95253
1,Boa Esperança/PR,-24.2411024,-52.7860277,20,487.21072
1,Boa Hora/PI,-4.4094627,-42.1255341,56,825.83690
1,Boa Nova/BA,-14.365907,-40.2063056,5,39.57888
1,Boa Ventura/PB,-7.4202462,-38.2156782,3,55.90757
1,Boa Viagem/CE,-5.1261877,-39.7300055,192,352.48761
D1,Boa Viagem/CE,-5.1261877,-39.7300055,13,23.86635
1,Boa Vista da Aparecida/PR,-25.4357216,-53.4067721,59,777.23620
D1,Boa Vista da Aparecida/PR,-25.4357216,-53.4067721,1,13.17349
1,Boa Vista das Missões/RS,-27.6677983,-53.3127622,2,95.32888
1,Boa Vista do Cadeado/RS,-28.5783827,-53.8123759,1,40.48583
1,Boa Vista do Gurupi/MA,-1.7981168,-46.3071882,13,139.98062
D1,Boa Vista do Gurupi/MA,-1.7981168,-46.3071882,2,21.53548
1,Boa Vista do Incra/RS,-28.8195551,-53.3866624,5,192.08605
1,Boa Vista do Ramos/AM,-2.9716927,-57.5869819,267,1390.11819
D1,Boa Vista do Ramos/AM,-2.9716927,-57.5869819,2,10.41287
1,Boa Vista do Sul/RS,-29.3510488,-51.6779679,15,538.98670
D1,Boa Vista do Sul/RS,-29.3510488,-51.6779679,1,35.93245
1,Boa Vista do Tupim/BA,-12.6605988,-40.6083594,13,69.98277
1,Boa Vista/PB,-7.2620711,-36.2415161,61,865.12551
D1,Boa Vista/PB,-7.2620711,-36.2415161,1,14.18239
1,Boa Vista/RR,2.8208478,-60.6719582,18996,4758.36208
D1,Boa Vista/RR,2.8208478,-60.6719582,343,85.91905
1,Boca da Mata/AL,-9.6452054,-36.2116658,779,2855.46717
D1,Boca da Mata/AL,-9.6452054,-36.2116658,14,51.31777
1,Boca do Acre/AM,-8.7553487,-67.3930873,750,2186.07905
D1,Boca do Acre/AM,-8.7553487,-67.3930873,11,32.06249
1,Bocaina de Minas/MG,-22.167778,-44.394722,6,117.87819
1,Bocaina do Sul/SC,-27.745494,-49.942279,2,57.57052
1,Bocaina/PI,-6.9445939,-41.3224599,57,1266.66667
1,Bocaina/SP,-22.1421831,-48.522276,65,527.21226
D1,Bocaina/SP,-22.1421831,-48.522276,3,24.33287
1,Bocaiúva do Sul/PR,-25.206591,-49.114131,70,540.79110
D1,Bocaiúva do Sul/PR,-25.206591,-49.114131,1,7.72559
1,Bocaiúva/MG,-17.1160208,-43.8122678,79,158.06639
D1,Bocaiúva/MG,-17.1160208,-43.8122678,2,4.00168
1,Bodocó/PE,-7.777592,-39.933797,94,246.42164
D1,Bodocó/PE,-7.777592,-39.933797,4,10.48603
1,Bodoquena/MS,-20.5508775,-56.6769653,4,50.79365
1,Bodó/RN,-5.9866104,-36.4134824,3,134.95277
1,Bofete/SP,-23.1019554,-48.2610535,61,520.03410
D1,Bofete/SP,-23.1019554,-48.2610535,3,25.57545
1,Boituva/SP,-23.2838893,-47.6738231,375,614.78433
D1,Boituva/SP,-23.2838893,-47.6738231,12,19.67310
1,Bom Conselho/PE,-9.169191,-36.685683,300,617.86876
D1,Bom Conselho/PE,-9.169191,-36.685683,11,22.65519
1,Bom Despacho/MG,-19.7375242,-45.2517288,122,241.08290
D1,Bom Despacho/MG,-19.7375242,-45.2517288,2,3.95218
1,Bom Jardim da Serra/SC,-28.3380324,-49.625588,1,21.08370
1,Bom Jardim de Goiás/GO,-16.2062659,-52.172793,29,328.01719
1,Bom Jardim de Minas/MG,-21.9476466,-44.1906033,3,46.33920
1,Bom Jardim/MA,-3.54129,-45.606004,625,1501.32116
D1,Bom Jardim/MA,-3.54129,-45.606004,16,38.43382
1,Bom Jardim/PE,-7.7961572,-35.5871696,250,638.01552
D1,Bom Jardim/PE,-7.7961572,-35.5871696,18,45.93712
1,Bom Jardim/RJ,-22.1515328,-42.4186683,63,229.54165
D1,Bom Jardim/RJ,-22.1515328,-42.4186683,2,7.28704
1,Bom Jesus da Lapa/BA,-13.250571,-43.410754,81,117.14005
1,Bom Jesus da Serra/BA,-14.3724084,-40.5047119,56,566.80162
1,Bom Jesus das Selvas/MA,-4.4878075,-46.8526639,988,2903.49124
D1,Bom Jesus das Selvas/MA,-4.4878075,-46.8526639,6,17.63254
1,Bom Jesus de Goiás/GO,-18.2174587,-49.739721,74,293.46447
D1,Bom Jesus de Goiás/GO,-18.2174587,-49.739721,1,3.96574
1,Bom Jesus do Amparo/MG,-19.7045132,-43.4752911,8,131.51406
1,Bom Jesus do Araguaia/MT,-12.1725897,-51.5074425,33,501.51976
1,Bom Jesus do Galho/MG,-19.8283191,-42.3162256,14,93.73954
D1,Bom Jesus do Galho/MG,-19.8283191,-42.3162256,3,20.08704
1,Bom Jesus do Itabapoana/RJ,-21.1341025,-41.680095,210,566.09877
D1,Bom Jesus do Itabapoana/RJ,-21.1341025,-41.680095,3,8.08713
1,Bom Jesus do Norte/ES,-21.1254776,-41.6711646,153,1539.85507
D1,Bom Jesus do Norte/ES,-21.1254776,-41.6711646,3,30.19324
1,Bom Jesus do Sul/PR,-26.1922507,-53.6002033,5,141.20305
D1,Bom Jesus do Sul/PR,-26.1922507,-53.6002033,1,28.24061
1,Bom Jesus do Tocantins/PA,-5.0471796,-48.5978362,155,912.78488
1,Bom Jesus do Tocantins/TO,-8.96306,-48.165043,15,306.49775
1,Bom Jesus dos Perdões/SP,-23.1353864,-46.4648052,56,220.05659
1,Bom Jesus/PB,-6.8156725,-38.6551841,8,312.37798
1,Bom Jesus/PI,-9.0711644,-44.3583926,471,1870.60646
D1,Bom Jesus/PI,-9.0711644,-44.3583926,5,19.85782
1,Bom Jesus/RN,-5.9887544,-35.5821149,83,812.92850
D1,Bom Jesus/RN,-5.9887544,-35.5821149,1,9.79432
1,Bom Jesus/RS,-28.6692723,-50.4346894,62,546.30364
1,Bom Jesus/SC,-26.7350604,-52.3916519,43,1428.57143
1,Bom Lugar/MA,-4.3728019,-45.0366054,161,988.09378
1,Bom Princípio do Piauí/PI,-3.1912777,-41.6430185,19,337.47780
D1,Bom Princípio do Piauí/PI,-3.1912777,-41.6430185,1,17.76199
1,Bom Princípio/RS,-29.489788,-51.3566782,132,939.16756
1,Bom Progresso/RS,-27.5490948,-53.8655601,8,411.94645
1,Bom Repouso/MG,-22.4657069,-46.1485376,10,94.81369
1,Bom Retiro do Sul/RS,-29.6000007,-51.9359243,85,689.48735
D1,Bom Retiro do Sul/RS,-29.6000007,-51.9359243,1,8.11162
1,Bom Retiro/SC,-27.798993,-49.486994,5,50.17058
1,Bom Sucesso de Itararé/SP,-24.3190016,-49.1446207,1,25.29084
1,Bom Sucesso/MG,-21.0323516,-44.7598082,20,113.61700
D1,Bom Sucesso/MG,-21.0323516,-44.7598082,1,5.68085
1,Bom Sucesso/PB,-6.4458948,-37.9297662,7,140.70352
1,Bom Sucesso/PR,-23.7088019,-51.7651297,8,113.76564
D1,Bom Sucesso/PR,-23.7088019,-51.7651297,1,14.22071
1,Bombinhas/SC,-27.1519159,-48.4875691,629,3181.74920
1,Bonfim do Piauí/PI,-9.1648678,-42.8734415,17,299.82363
1,Bonfim/MG,-20.3266626, -44.2386157,16,232.96447
D1,Bonfim/MG,-20.3266626, -44.2386157,1,14.56028
1,Bonfim/RR,3.3613818,-59.8427241,255,2054.96011
D1,Bonfim/RR,3.3613818,-59.8427241,6,48.35200
1,Bonfinópolis de Minas/MG,-16.5660011,-45.98645,45,819.22447
D1,Bonfinópolis de Minas/MG,-16.5660011,-45.98645,2,36.40998
1,Bonfinópolis/GO,-16.6172709,-48.9615701,75,772.71791
D1,Bonfinópolis/GO,-16.6172709,-48.9615701,2,20.60581
1,Boninal/BA,-12.7095183,-41.8299984,6,41.75947
1,Bonito de Minas/MG,-15.3191266,-44.7544,4,35.61888
1,Bonito de Santa Fé/PB,-7.3143332,-38.5146677,11,92.30511
D1,Bonito de Santa Fé/PB,-7.3143332,-38.5146677,1,8.39137
1,Bonito/BA,-11.9665473,-41.2649896,2,11.93033
1,Bonito/MS,-21.1264766,-56.4902208,102,464.14270
1,Bonito/PA,-1.3605722,-47.3049907,204,1252.60960
D1,Bonito/PA,-1.3605722,-47.3049907,7,42.98170
1,Bonito/PE,-8.4721161,-35.7314591,168,440.55174
D1,Bonito/PE,-8.4721161,-35.7314591,19,49.82430
1,Boqueirão do Leão/RS,-29.30332,-52.4296817,3,38.89033
1,Boqueirão do Piauí/PI,-4.4850148,-42.1095161,54,842.82816
D1,Boqueirão do Piauí/PI,-4.4850148,-42.1095161,1,15.60793
1,Boqueirão/PB,-7.487004,-36.130887,236,1325.54482
D1,Boqueirão/PB,-7.487004,-36.130887,4,22.46686
1,Boquim/SE,-11.1450175,-37.6204228,186,693.61575
D1,Boquim/SE,-11.1450175,-37.6204228,8,29.83294
1,Boquira/BA,-12.8184859,-42.7270883,15,69.74149
1,Boracéia/SP,-22.195355,-48.7801925,19,393.94568
1,Borba/AM,-4.3934778,-59.5947721,622,1511.13919
D1,Borba/AM,-4.3934778,-59.5947721,20,48.58968
1,Borborema/PB,-6.8066718,-35.5990191,7,133.00399
1,Borborema/SP,-21.6212706,-49.074135,38,236.81914
1,Borda da Mata/MG,-22.274167,-46.165278,28,144.24068
D1,Borda da Mata/MG,-22.274167,-46.165278,2,10.30291
1,Borebi/SP,-22.5700178,-48.9714871,15,565.39766
D1,Borebi/SP,-22.5700178,-48.9714871,1,37.69318
1,Borrazópolis/PR,-23.9393362,-51.5850786,2,30.33981
1,Borá/SP,-22.2701088,-50.544407,1,119.47431
1,Bossoroca/RS,-28.7278885,-54.9120278,3,47.77831
1,Botelhos/MG,-21.65,-46.394722,21,140.27119
D1,Botelhos/MG,-21.65,-46.394722,1,6.67958
1,Botucatu/SP,-22.8879628,-48.4410712,918,626.63399
D1,Botucatu/SP,-22.8879628,-48.4410712,19,12.96955
1,Botuporã/BA,-13.3744752,-42.5198469,2,19.58672
1,Botuverá/SC,-27.200749,-49.068892,30,571.86428
1,Braga/RS,-27.617348,-53.740514,3,89.47211
1,Braganey/PR,-24.8179919,-53.118506,33,608.07076
D1,Braganey/PR,-24.8179919,-53.118506,1,18.42639
1,Bragança Paulista/SP,-22.9520235,-46.5418586,896,531.22110
D1,Bragança Paulista/SP,-22.9520235,-46.5418586,20,11.85761
1,Bragança/PA,-1.0573967,-46.7635406,1957,1532.66607
D1,Bragança/PA,-1.0573967,-46.7635406,92,72.05175
1,Branquinha/AL,-9.2478057,-36.0152009,101,962.45474
D1,Branquinha/AL,-9.2478057,-36.0152009,4,38.11702
1,Brasil Novo/PA,-3.3055853,-52.539198,409,2711.12290
D1,Brasil Novo/PA,-3.3055853,-52.539198,6,39.77197
1,Brasileira/PI,-4.131182,-41.7824969,47,564.29343
1,Brasilândia de Minas/MG,-17.0096469,-46.0087183,33,199.54045
1,Brasilândia do Sul/PR,-24.1975793,-53.527551,8,301.77292
1,Brasilândia do Tocantins/TO,-8.3886619,-48.4842729,2,90.86779
1,Brasilândia/MS,-21.255575,-52.0365617,48,404.31267
D1,Brasilândia/MS,-21.255575,-52.0365617,2,16.84636
1,Brasiléia/AC,-11.0010413,-68.7487894,596,2268.05693
D1,Brasiléia/AC,-11.0010413,-68.7487894,8,30.44372
1,Brasnorte/MT,-12.1227151,-58.0050109,14,71.08403
1,Brasília de Minas/MG,-16.2075114,-44.430559,19,58.73806
1,Brasília/DF,-15.7934036,-47.8823172,82412,2733.15672
D1,Brasília/DF,-15.7934036,-47.8823172,1085,35.98353
1,Brazabrantes/GO,-16.4291635,-49.3858216,26,702.13341
1,Brazópolis/MG,-22.4742842,-45.6165577,8,55.32886
1,Braço do Norte/SC,-28.2728633,-49.1622712,631,1886.39761
D1,Braço do Norte/SC,-28.2728633,-49.1622712,4,11.95815
1,Braço do Trombudo/SC,-27.358578,-49.882145,14,374.03153
1,Braúna/SP,-21.5015319,-50.3175246,30,527.61168
D1,Braúna/SP,-21.5015319,-50.3175246,4,70.34822
1,Braúnas/MG,-19.055556,-42.716111,9,187.46095
D1,Braúnas/MG,-19.055556,-42.716111,1,20.82899
1,Brejetuba/ES,-20.1465817,-41.2902303,242,1950.98355
1,Brejinho de Nazaré/TO,-11.0205883,-48.5722906,27,491.17701
D1,Brejinho de Nazaré/TO,-11.0205883,-48.5722906,2,36.38348
1,Brejinho/PE,-7.3482153,-37.28538,29,387.33805
1,Brejinho/RN,-6.1957907,-35.3583019,106,834.71139
D1,Brejinho/RN,-6.1957907,-35.3583019,3,23.62391
1,Brejo Alegre/SP,-21.1671191,-50.1850393,8,279.23211
1,Brejo Grande do Araguaia/PA,-5.7011449,-48.4037308,62,840.10840
1,Brejo Grande/SE,-10.4287358,-36.4667918,34,409.19485
D1,Brejo Grande/SE,-10.4287358,-36.4667918,3,36.10543
1,Brejo Santo/CE,-7.4909841,-38.9859152,331,668.99772
D1,Brejo Santo/CE,-7.4909841,-38.9859152,6,12.12685
1,Brejo da Madre de Deus/PE,-8.1409718,-36.3712527,527,1038.58736
D1,Brejo da Madre de Deus/PE,-8.1409718,-36.3712527,13,25.61980
1,Brejo de Areia/MA,-4.3316785,-45.5833334,111,1208.09752
D1,Brejo de Areia/MA,-4.3316785,-45.5833334,1,10.88376
1,Brejo do Cruz/PB,-6.32926065,-37.48746163303929,177,1253.36355
D1,Brejo do Cruz/PB,-6.32926065,-37.48746163303929,2,14.16230
1,Brejo do Piauí/PI,-8.207583,-42.8359849,4,103.22581
1,Brejo dos Santos/PB,-6.3769367,-37.8243125,15,232.59420
1,Brejo/MA,-3.6804397,-42.7529313,547,1502.87112
D1,Brejo/MA,-3.6804397,-42.7529313,15,41.21219
1,Brejão/PE,-9.029146,-36.566034,12,133.43712
1,Brejões/BA,-13.1033754,-39.7909837,17,118.92270
1,Breu Branco/PA,-3.7785073,-49.5684795,244,369.43948
D1,Breu Branco/PA,-3.7785073,-49.5684795,18,27.25373
1,Breves/PA,-1.68036,-50.479085,1468,1429.39212
D1,Breves/PA,-1.68036,-50.479085,76,74.00123
1,Britânia/GO,-15.2427599,-51.1602061,7,121.12822
1,Brochier/RS,-29.556766,-51.5963047,20,394.16634
1,Brodowski/SP,-20.984532,-47.657217,149,597.45780
D1,Brodowski/SP,-20.984532,-47.657217,2,8.01957
1,Brotas/SP,-22.2840884,-48.1267265,28,114.73999
1,Brumadinho/MG,-20.143611,-44.2,402,1002.41877
D1,Brumadinho/MG,-20.143611,-44.2,2,4.98716
1,Brumado/BA,-14.29507325,-41.659307508575985,307,456.87923
D1,Brumado/BA,-14.29507325,-41.659307508575985,3,4.46462
1,Brunópolis/SC,-27.310953,-50.837585,11,454.54545
1,Brusque/SC,-27.0964628,-48.9136323,1232,914.46895
D1,Brusque/SC,-27.0964628,-48.9136323,10,7.42264
1,Brás Pires/MG,-20.8483109,-43.2430524,4,92.31479
1,Bueno Brandão/MG,-22.441976,-46.3517971,13,118.17108
D1,Bueno Brandão/MG,-22.441976,-46.3517971,3,27.27025
1,Buenos Aires/PE,-7.7218931,-35.326587,36,273.66021
D1,Buenos Aires/PE,-7.7218931,-35.326587,3,22.80502
1,Buenópolis/MG,-17.8756607,-44.1749365,78,752.53256
D1,Buenópolis/MG,-17.8756607,-44.1749365,1,9.64785
1,Buerarema/BA,-14.9571177,-39.3008035,188,1024.57900
D1,Buerarema/BA,-14.9571177,-39.3008035,9,49.04899
1,Bugre/MG,-19.4257687,-42.2556,13,326.46911
1,Bujari/AC,-9.8309656,-67.9520886,280,2727.44983
D1,Bujari/AC,-9.8309656,-67.9520886,4,38.96357
1,Bujaru/PA,-1.5169239,-48.0410699,231,792.94247
D1,Bujaru/PA,-1.5169239,-48.0410699,22,75.51833
1,Buri/SP,-23.79849,-48.598924,69,347.11742
D1,Buri/SP,-23.79849,-48.598924,4,20.12275
1,Buritama/SP,-21.0664017,-50.1448077,71,414.13906
D1,Buritama/SP,-21.0664017,-50.1448077,4,23.33178
1,Buriti Alegre/GO,-18.1377879,-49.0404411,136,1437.78412
1,Buriti Bravo/MA,-5.8391884,-43.8367876,83,347.51298
1,Buriti de Goiás/GO,-16.180644,-50.4287479,17,683.27974
1,Buriti do Tocantins/TO,-5.3187439,-48.2256609,127,1119.13994
1,Buriti dos Lopes/PI,-3.1776723,-41.8707444,473,2391.18346
D1,Buriti dos Lopes/PI,-3.1776723,-41.8707444,8,40.44285
1,Buriti dos Montes/PI,-5.3136171,-41.0971256,6,72.78020
D1,Buriti dos Montes/PI,-5.3136171,-41.0971256,1,12.13003
1,Buriti/MA,-3.9430944,-42.9244281,295,1028.66309
1,Buriticupu/MA,-4.3227472,-46.4516989,1645,2273.41828
D1,Buriticupu/MA,-4.3227472,-46.4516989,4,5.52807
1,Buritinópolis/GO,-14.4589282,-46.4293104,4,121.50668
1,Buritirama/BA,-10.7148421,-43.6362327,56,264.47530
1,Buritirana/MA,-5.5897455,-47.0148915,209,1354.50421
D1,Buritirana/MA,-5.5897455,-47.0148915,6,38.88529
1,Buritis/MG,-15.621389,-46.423889,69,277.76660
D1,Buritis/MG,-15.621389,-46.423889,1,4.02560
1,Buritis/RO,-10.2054937,-63.8281954,198,499.31911
D1,Buritis/RO,-10.2054937,-63.8281954,4,10.08725
1,Buritizal/SP,-20.1933264,-47.7097165,25,557.91118
1,Buritizeiro/MG,-17.3667765,-44.9647781,69,245.93670
D1,Buritizeiro/MG,-17.3667765,-44.9647781,3,10.69290
1,Butiá/RS,-30.1256795,-51.9692224,62,296.06991
D1,Butiá/RS,-30.1256795,-51.9692224,2,9.55064
1,Buíque/PE,-8.6239732,-37.157296,130,222.68663
D1,Buíque/PE,-8.6239732,-37.157296,4,6.85190
1,Bálsamo/SP,-20.7343722,-49.5807484,67,738.86193
D1,Bálsamo/SP,-20.7343722,-49.5807484,2,22.05558
0,CASO SEM LOCALIZAÇÃO DEFINIDA/AC,-9.884083190922777,-67.85119819780795,330,37.41772
D0,CASO SEM LOCALIZAÇÃO DEFINIDA/AC,-9.884083190922777,-67.85119819780795,8,0.90710
0,CASO SEM LOCALIZAÇÃO DEFINIDA/AL,-9.931093434363673,-35.609611600637464,129,3.86533
D0,CASO SEM LOCALIZAÇÃO DEFINIDA/AL,-9.931093434363673,-35.609611600637464,7,0.20975
0,CASO SEM LOCALIZAÇÃO DEFINIDA/AM,-3.07518492149711,-60.16169212873594,379,9.14444
D0,CASO SEM LOCALIZAÇÃO DEFINIDA/AM,-3.07518492149711,-60.16169212873594,20,0.48256
0,CASO SEM LOCALIZAÇÃO DEFINIDA/AP,2.677150600275196,-50.477785111870624,120,14.18891
D0,CASO SEM LOCALIZAÇÃO DEFINIDA/AP,2.677150600275196,-50.477785111870624,2,0.23648
0,CASO SEM LOCALIZAÇÃO DEFINIDA/BA,-13.415069300066518,-38.14174656569957,2914,19.59247
D0,CASO SEM LOCALIZAÇÃO DEFINIDA/BA,-13.415069300066518,-38.14174656569957,12,0.08068
0,CASO SEM LOCALIZAÇÃO DEFINIDA/CE,-3.3445126297392798,-38.624961942434304,1766,19.33842
0,CASO SEM LOCALIZAÇÃO DEFINIDA/ES,-20.30989267097039,-39.81745156645774,1130,28.11890
D0,CASO SEM LOCALIZAÇÃO DEFINIDA/ES,-20.30989267097039,-39.81745156645774,29,0.72164
0,CASO SEM LOCALIZAÇÃO DEFINIDA/GO,-16.701590966270153,-49.164524059025034,14,0.19948
D0,CASO SEM LOCALIZAÇÃO DEFINIDA/GO,-16.701590966270153,-49.164524059025034,20,0.28497
0,CASO SEM LOCALIZAÇÃO DEFINIDA/MG,-19.97049116501593,-43.8852149072783,487,2.30056
D0,CASO SEM LOCALIZAÇÃO DEFINIDA/MG,-19.97049116501593,-43.8852149072783,24,0.11337
0,CASO SEM LOCALIZAÇÃO DEFINIDA/MS,-20.391549234908513,-54.645156949758444,397,14.28579
D0,CASO SEM LOCALIZAÇÃO DEFINIDA/MS,-20.391549234908513,-54.645156949758444,6,0.21591
0,CASO SEM LOCALIZAÇÃO DEFINIDA/MT,-15.54791153961863,-56.17143998972475,5946,170.64308
D0,CASO SEM LOCALIZAÇÃO DEFINIDA/MT,-15.54791153961863,-56.17143998972475,288,8.26525
0,CASO SEM LOCALIZAÇÃO DEFINIDA/PB,-7.1049355696146606,-34.68696690234351,411,10.22865
D0,CASO SEM LOCALIZAÇÃO DEFINIDA/PB,-7.1049355696146606,-34.68696690234351,9,0.22398
0,CASO SEM LOCALIZAÇÃO DEFINIDA/PE,-8.121628543819208,-34.57313921302556,1134,11.86556
D0,CASO SEM LOCALIZAÇÃO DEFINIDA/PE,-8.121628543819208,-34.57313921302556,98,1.02542
0,CASO SEM LOCALIZAÇÃO DEFINIDA/PI,-2.683810218391744,-41.470898009352254,310,9.47078
D0,CASO SEM LOCALIZAÇÃO DEFINIDA/PI,-2.683810218391744,-41.470898009352254,18,0.54992
0,CASO SEM LOCALIZAÇÃO DEFINIDA/PR,-25.69415946385943,-48.10141676336737,1665,14.56189
D0,CASO SEM LOCALIZAÇÃO DEFINIDA/PR,-25.69415946385943,-48.10141676336737,38,0.33234
0,CASO SEM LOCALIZAÇÃO DEFINIDA/RJ,-23.210238986465157,-43.12864305824042,3294,19.07912
D0,CASO SEM LOCALIZAÇÃO DEFINIDA/RJ,-23.210238986465157,-43.12864305824042,195,1.12946
0,CASO SEM LOCALIZAÇÃO DEFINIDA/RN,-5.749310788669161,-34.95302586257457,2484,70.83274
D0,CASO SEM LOCALIZAÇÃO DEFINIDA/RN,-5.749310788669161,-34.95302586257457,51,1.45430
0,CASO SEM LOCALIZAÇÃO DEFINIDA/RR,2.813328208465927,-60.663338675861986,534,88.15358
D0,CASO SEM LOCALIZAÇÃO DEFINIDA/RR,2.813328208465927,-60.663338675861986,1,0.16508
0,CASO SEM LOCALIZAÇÃO DEFINIDA/SC,-27.675643660562308,-48.18313219398259,810,11.30529
0,CASO SEM LOCALIZAÇÃO DEFINIDA/SE,-11.03002091978736,-36.89283180376513,2171,94.44485
D0,CASO SEM LOCALIZAÇÃO DEFINIDA/SE,-11.03002091978736,-36.89283180376513,14,0.60904
0,CASO SEM LOCALIZAÇÃO DEFINIDA/SP,-24.30968974555485,-46.21366504207253,7700,16.76864
D0,CASO SEM LOCALIZAÇÃO DEFINIDA/SP,-24.30968974555485,-46.21366504207253,355,0.77310
0,CASO SEM LOCALIZAÇÃO DEFINIDA/TO,-10.213012114749148,-48.40023803990334,819,52.07055
D0,CASO SEM LOCALIZAÇÃO DEFINIDA/TO,-10.213012114749148,-48.40023803990334,11,0.69936
1,Caapiranga/AM,-3.3188884,-61.2096404,181,1383.68626
D1,Caapiranga/AM,-3.3188884,-61.2096404,4,30.57870
1,Caaporã/PB,-7.510234,-34.9154114,847,3880.33718
D1,Caaporã/PB,-7.510234,-34.9154114,10,45.81272
1,Caarapó/MS,-22.6349267,-54.8240903,74,245.24425
1,Caatiba/BA,-14.9782759,-40.4092325,80,1183.78218
1,Cabaceiras do Paraguaçu/BA,-12.5377868,-39.1901339,26,138.24640
D1,Cabaceiras do Paraguaçu/BA,-12.5377868,-39.1901339,1,5.31717
1,Cabaceiras/PB,-7.4899156,-36.2860501,36,641.59686
1,Cabeceira Grande/MG,-16.0297,-47.0906,5,71.95280
1,Cabeceiras do Piauí/PI,-4.4733665,-42.3098716,121,1143.01908
D1,Cabeceiras do Piauí/PI,-4.4733665,-42.3098716,1,9.44644
1,Cabeceiras/GO,-15.7995459,-46.9264991,4,50.04379
D1,Cabeceiras/GO,-15.7995459,-46.9264991,1,12.51095
1,Cabedelo/PB,-6.97324,-34.8351609,2128,3141.60860
D1,Cabedelo/PB,-6.97324,-34.8351609,32,47.24223
1,Cabixi/RO,-13.4956065,-60.5424442,28,527.10843
D1,Cabixi/RO,-13.4956065,-60.5424442,2,37.65060
1,Cabo Frio/RJ,-22.8804369,-42.0189227,1110,490.01214
D1,Cabo Frio/RJ,-22.8804369,-42.0189227,59,26.04569
1,Cabo Verde/MG,-21.4743338,-46.3964995,4,28.41918
1,Cabo de Santo Agostinho/PE,-8.2838945,-35.0320984,1262,609.52050
D1,Cabo de Santo Agostinho/PE,-8.2838945,-35.0320984,191,92.24914
1,Cabreúva/SP,-23.3075813,-47.1324417,465,935.48192
D1,Cabreúva/SP,-23.3075813,-47.1324417,27,54.31831
1,Cabrobó/PE,-8.5083701,-39.3106961,224,654.56883
D1,Cabrobó/PE,-8.5083701,-39.3106961,2,5.84436
1,Cabrália Paulista/SP,-22.4562909,-49.3385645,28,656.66041
1,Cacaulândia/RO,-10.3380043,-62.9007231,17,272.87319
1,Cacequi/RS,-29.8838059,-54.8273443,4,31.84460
1,Cachoeira Alta/GO,-18.7618269,-50.9432431,72,576.73822
D1,Cachoeira Alta/GO,-18.7618269,-50.9432431,2,16.02051
1,Cachoeira Dourada/GO,-18.4934204,-49.481062,14,173.54655
1,Cachoeira Dourada/MG,-18.517136,-49.5002062,3,111.44131
1,Cachoeira Grande/MA,-2.9290492,-44.0573223,128,1357.22617
D1,Cachoeira Grande/MA,-2.9290492,-44.0573223,3,31.80999
1,Cachoeira Paulista/SP,-22.666498,-45.015384,68,204.03877
D1,Cachoeira Paulista/SP,-22.666498,-45.015384,4,12.00228
1,Cachoeira da Prata/MG,-19.524723,-44.453056,6,166.52789
1,Cachoeira de Goiás/GO,-16.6688414,-50.6435997,1,74.01925
1,Cachoeira de Minas/MG,-22.3554043,-45.7796324,21,181.86542
1,Cachoeira de Pajeú/MG,-15.965833,-41.496666,7,74.37314
1,Cachoeira do Arari/PA,-1.0143572,-48.9621089,211,887.78559
D1,Cachoeira do Arari/PA,-1.0143572,-48.9621089,10,42.07515
1,Cachoeira do Piriá/PA,-1.7599443,-46.5446954,367,1082.59587
D1,Cachoeira do Piriá/PA,-1.7599443,-46.5446954,1,2.94985
1,Cachoeira do Sul/RS,-30.0474778,-52.8905413,131,159.36546
D1,Cachoeira do Sul/RS,-30.0474778,-52.8905413,1,1.21653
1,Cachoeira dos Índios/PB,-6.9259193,-38.6742159,54,527.13784
D1,Cachoeira dos Índios/PB,-6.9259193,-38.6742159,3,29.28544
1,Cachoeira/BA,-12.5998256,-38.9665918,208,621.45205
D1,Cachoeira/BA,-12.5998256,-38.9665918,5,14.93875
1,Cachoeiras de Macacu/RJ,-22.4626861,-42.6534414,383,649.84645
D1,Cachoeiras de Macacu/RJ,-22.4626861,-42.6534414,20,33.93454
1,Cachoeirinha/PE,-8.4906364,-36.2338963,212,1040.23553
D1,Cachoeirinha/PE,-8.4906364,-36.2338963,12,58.88126
1,Cachoeirinha/RS,-29.9493353,-51.0898927,784,601.72074
D1,Cachoeirinha/RS,-29.9493353,-51.0898927,11,8.44251
1,Cachoeirinha/TO,-6.118647,-47.9208885,9,395.60440
1,Cachoeiro de Itapemirim/ES,-20.848084,-41.11129,2691,1287.73233
D1,Cachoeiro de Itapemirim/ES,-20.848084,-41.11129,92,44.02504
1,Cacimba de Areia/PB,-7.1288513,-37.1575194,7,190.11407
1,Cacimba de Dentro/PB,-6.6425101,-35.7929304,102,593.47181
D1,Cacimba de Dentro/PB,-6.6425101,-35.7929304,1,5.81835
1,Cacimbas/PB,-7.2125451,-37.0593398,41,571.58790
D1,Cacimbas/PB,-7.2125451,-37.0593398,1,13.94117
1,Cacimbinhas/AL,-9.401212,-36.991082,77,709.15454
D1,Cacimbinhas/AL,-9.401212,-36.991082,2,18.41960
1,Cacique Doble/RS,-27.7700117,-51.6616409,22,434.35341
1,Cacoal/RO,-11.4333,-61.4420502,471,551.78716
D1,Cacoal/RO,-11.4333,-61.4420502,6,7.02914
1,Caconde/SP,-21.527995,-46.643659,21,110.61364
1,Caculé/BA,-14.4990734,-42.2233006,5,21.57963
D1,Caculé/BA,-14.4990734,-42.2233006,1,4.31593
1,Caetanos/BA,-14.3387456,-40.9085971,7,48.13643
1,Caetanópolis/MG,-19.2947496,-44.4138386,18,154.85203
1,Caetité/BA,-14.0691776,-42.4852428,58,113.78127
D1,Caetité/BA,-14.0691776,-42.4852428,1,1.96175
1,Caeté/MG,-19.897777,-43.670278,112,250.45843
D1,Caeté/MG,-19.897777,-43.670278,1,2.23624
1,Caetés/PE,-8.7728788,-36.6255835,182,633.28578
D1,Caetés/PE,-8.7728788,-36.6255835,4,13.91837
1,Cafarnaum/BA,-11.691399,-41.468823,36,195.25953
1,Cafeara/PR,-22.78905,-51.714195,24,817.99591
1,Cafelândia/PR,-24.6176963,-53.3218057,61,336.64459
D1,Cafelândia/PR,-24.6176963,-53.3218057,1,5.51876
1,Cafelândia/SP,-21.8054355,-49.6030627,55,309.56267
D1,Cafelândia/SP,-21.8054355,-49.6030627,2,11.25682
1,Cafezal do Sul/PR,-23.900508,-53.512418,4,98.91197
1,Caiabu/SP,-22.0143038,-51.2356597,17,405.63111
D1,Caiabu/SP,-22.0143038,-51.2356597,2,47.72131
1,Caiana/MG,-20.695555,-41.924723,12,218.34061
D1,Caiana/MG,-20.695555,-41.924723,1,18.19505
1,Caiapônia/GO,-16.9538779,-51.8090761,8,42.29895
1,Caibaté/RS,-28.290475,-54.645407,1,20.63558
1,Caibi/SC,-27.0751925,-53.2502133,23,374.10540
D1,Caibi/SC,-27.0751925,-53.2502133,1,16.26545
1,Caicó/RN,-6.4594544,-37.0971911,580,853.54368
D1,Caicó/RN,-6.4594544,-37.0971911,12,17.65952
1,Caieiras/SP,-23.3644621,-46.7484765,823,811.07717
D1,Caieiras/SP,-23.3644621,-46.7484765,56,55.18873
1,Cairu/BA,-13.4860505,-39.0455744,95,522.66725
D1,Cairu/BA,-13.4860505,-39.0455744,3,16.50528
1,Caiuá/SP,-21.8319357,-51.9887179,7,119.16922
1,Caiçara do Norte/RN,-5.0645017,-36.0561226,61,931.43991
D1,Caiçara do Norte/RN,-5.0645017,-36.0561226,2,30.53901
1,Caiçara do Rio do Vento/RN,-5.757968,-36.00089,57,1547.23127
D1,Caiçara do Rio do Vento/RN,-5.757968,-36.00089,1,27.14441
1,Caiçara/PB,-6.6146866,-35.4681434,317,4402.16637
D1,Caiçara/PB,-6.6146866,-35.4681434,3,41.66088
1,Caiçara/RS,-27.2750478,-53.4310053,10,210.83702
1,Cajamar/SP,-23.3561111,-46.8769444,817,1063.78823
D1,Cajamar/SP,-23.3561111,-46.8769444,48,62.49919
1,Cajapió/MA,-2.8778715,-44.6746871,5,44.73472
D1,Cajapió/MA,-2.8778715,-44.6746871,2,17.89389
1,Cajari/MA,-3.3213076,-45.0118757,120,619.22700
D1,Cajari/MA,-3.3213076,-45.0118757,1,5.16022
1,Cajati/SP,-24.7272376,-48.1077914,234,819.64342
D1,Cajati/SP,-24.7272376,-48.1077914,2,7.00550
1,Cajazeiras do Piauí/PI,-6.794271,-42.3935024,4,112.39112
1,Cajazeiras/PB,-6.8897849,-38.5570389,1004,1619.53769
D1,Cajazeiras/PB,-6.8897849,-38.5570389,23,37.10096
1,Cajazeirinhas/PB,-6.961442,-37.7993733,4,125.27404
1,Cajobi/SP,-20.8776238,-48.8106972,40,379.43464
D1,Cajobi/SP,-20.8776238,-48.8106972,2,18.97173
1,Cajueiro da Praia/PI,-2.931114,-41.340801,148,1936.66579
D1,Cajueiro da Praia/PI,-2.931114,-41.340801,3,39.25674
1,Cajueiro/AL,-9.399589,-36.1524309,156,733.63431
D1,Cajueiro/AL,-9.399589,-36.1524309,10,47.02784
1,Cajuri/MG,-20.7901414,-42.7954489,32,802.60848
1,Cajuru/SP,-21.2759978,-47.3046035,70,267.51252
D1,Cajuru/SP,-21.2759978,-47.3046035,2,7.64321
1,Caldas Brandão/PB,-7.1027959,-35.3254676,129,2144.99501
D1,Caldas Brandão/PB,-7.1027959,-35.3254676,2,33.25574
1,Caldas Novas/GO,-17.745,-48.625,199,218.29271
D1,Caldas Novas/GO,-17.745,-48.625,5,5.48474
1,Caldas/MG,-21.923611,-46.386111,24,165.74586
1,Caldazinha/GO,-16.7116649,-49.0012601,6,157.72871
1,Caldeirão Grande do Piauí/PI,-7.3310393,-40.6374433,26,450.13850
1,Caldeirão Grande/BA,-11.0208483,-40.3041387,59,442.71029
D1,Caldeirão Grande/BA,-11.0208483,-40.3041387,1,7.50356
1,Califórnia/PR,-23.6672543,-51.3554556,28,326.72112
D1,Califórnia/PR,-23.6672543,-51.3554556,2,23.33722
1,Calmon/SC,-26.6023644,-51.0992893,3,89.65929
1,Calumbi/PE,-7.9389746,-38.1516871,44,765.21739
D1,Calumbi/PE,-7.9389746,-38.1516871,1,17.39130
1,Calçado/PE,-8.7413446,-36.3351787,30,271.41952
D1,Calçado/PE,-8.7413446,-36.3351787,1,9.04732
1,Calçoene/AP,2.4981757,-50.9539503,769,6917.33381
D1,Calçoene/AP,2.4981757,-50.9539503,4,35.98093
1,Camacan/BA,-15.4166631,-39.4930088,571,1785.04439
D1,Camacan/BA,-15.4166631,-39.4930088,13,40.64024
1,Camalaú/PB,-7.885031,-36.824191,1,16.63063
1,Camamu/BA,-13.9438142,-39.1060917,492,1393.13626
D1,Camamu/BA,-13.9438142,-39.1060917,7,19.82104
1,Camanducaia/MG,-22.755278,-46.144444,162,744.14332
D1,Camanducaia/MG,-22.755278,-46.144444,2,9.18695
1,Camapuã/MS,-19.5291747,-54.0434641,14,102.10780
D1,Camapuã/MS,-19.5291747,-54.0434641,1,7.29341
1,Camaquã/RS,-30.8524752,-51.8075619,156,235.43261
D1,Camaquã/RS,-30.8524752,-51.8075619,7,10.56428
1,Camaragibe/PE,-8.0213832,-34.9810768,1452,919.98885
D1,Camaragibe/PE,-8.0213832,-34.9810768,132,83.63535
1,Camargo/RS,-28.5865661,-52.2031474,21,768.38639
1,Camaçari/BA,-12.6998188,-38.3260762,2898,968.80307
D1,Camaçari/BA,-12.6998188,-38.3260762,49,16.38073
1,Cambará do Sul/RS,-29.0489517,-50.145412,18,279.89426
1,Cambará/PR,-23.042273,-50.075281,59,232.64984
D1,Cambará/PR,-23.042273,-50.075281,1,3.94322
1,Cambira/PR,-23.600265,-51.581045,5,63.57279
1,Camboriú/SC,-27.0273601,-48.6535657,1016,1224.25864
D1,Camboriú/SC,-27.0273601,-48.6535657,17,20.48464
1,Cambuci/RJ,-21.5749919,-41.9107833,71,457.91680
D1,Cambuci/RJ,-21.5749919,-41.9107833,1,6.44953
1,Cambuquira/MG,-21.853056,-45.2953619,4,31.21586
1,Cambuí/MG,-22.6122501,-46.0572137,74,250.41454
D1,Cambuí/MG,-22.6122501,-46.0572137,2,6.76796
1,Cambé/PR,-23.2782035,-51.2779583,314,294.74435
D1,Cambé/PR,-23.2782035,-51.2779583,12,11.26412
1,Cametá/PA,-2.242949,-49.497885,4101,2974.10980
D1,Cametá/PA,-2.242949,-49.497885,83,60.19291
1,Camocim de São Félix/PE,-8.3616757,-35.7638903,96,511.59073
D1,Camocim de São Félix/PE,-8.3616757,-35.7638903,3,15.98721
1,Camocim/CE,-2.9009918,-40.8427389,2038,3201.33206
D1,Camocim/CE,-2.9009918,-40.8427389,70,109.95743
1,Campanha/MG,-21.8361108,-45.401986,11,66.00660
D1,Campanha/MG,-21.8361108,-45.401986,1,6.00060
1,Campanário/MG,-18.2398144,-41.7271768,2,53.74899
1,Campestre da Serra/RS,-28.7966535,-51.0958149,16,472.25502
1,Campestre de Goiás/GO,-16.7624179,-49.69497,9,247.93388
1,Campestre do Maranhão/MA,-6.1729113,-47.3640512,210,1460.97120
D1,Campestre do Maranhão/MA,-6.1729113,-47.3640512,1,6.95701
1,Campestre/AL,-8.8481634,-35.5660033,49,706.45905
D1,Campestre/AL,-8.8481634,-35.5660033,3,43.25260
1,Campestre/MG,-19.6142116,-43.219378,23,109.23771
1,Campina Grande do Sul/PR,-25.3046032,-49.0545355,288,665.31140
D1,Campina Grande do Sul/PR,-25.3046032,-49.0545355,8,18.48087
1,Campina Grande/PB,-7.2246743,-35.8771292,9050,2208.76624
D1,Campina Grande/PB,-7.2246743,-35.8771292,201,49.05658
1,Campina Verde/MG,-19.535277,-49.486389,47,238.03495
D1,Campina Verde/MG,-19.535277,-49.486389,1,5.06457
1,Campina da Lagoa/PR,-24.5937926,-52.8038965,9,63.37136
D1,Campina da Lagoa/PR,-24.5937926,-52.8038965,1,7.04126
1,Campina das Missões/RS,-27.9883295,-54.8411665,1,18.26818
1,Campina do Monte Alegre/SP,-23.5935653,-48.4801876,48,796.81275
1,Campinas do Piauí/PI,-7.6593687,-41.8814875,11,195.97363
1,Campinas do Sul/RS,-27.7167968,-52.6257885,9,165.01650
1,Campinas/SP,-22.90556,-47.06083,12757,1059.48726
D1,Campinas/SP,-22.90556,-47.06083,526,43.68506
1,Campinorte/GO,-14.3136699,-49.1510931,41,324.72675
1,Campinápolis/MT,-14.5403731,-52.7970626,68,425.53191
D1,Campinápolis/MT,-14.5403731,-52.7970626,6,37.54693
1,Campo Alegre de Goiás/GO,-17.6337896,-47.779291,3,39.53090
1,Campo Alegre de Lourdes/BA,-9.5160326,-43.0101338,52,180.56810
D1,Campo Alegre de Lourdes/BA,-9.5160326,-43.0101338,2,6.94493
1,Campo Alegre do Fidalgo/PI,-8.3753852,-41.8364191,3,59.46482
D1,Campo Alegre do Fidalgo/PI,-8.3753852,-41.8364191,1,19.82161
1,Campo Alegre/AL,-9.7798607,-36.3575793,817,1431.75087
D1,Campo Alegre/AL,-9.7798607,-36.3575793,10,17.52449
1,Campo Alegre/SC,-26.1941684,-49.2657484,9,75.13775
D1,Campo Alegre/SC,-26.1941684,-49.2657484,1,8.34864
1,Campo Belo do Sul/SC,-27.8987563,-50.7586887,3,42.75941
1,Campo Belo/MG,-20.8975,-45.277223,286,529.34535
D1,Campo Belo/MG,-20.8975,-45.277223,7,12.95601
1,Campo Bom/RS,-29.674694,-51.060601,423,634.06883
D1,Campo Bom/RS,-29.674694,-51.060601,18,26.98165
1,Campo Bonito/PR,-25.0328004,-52.992976,35,913.12288
1,Campo Erê/SC,-26.3947432,-53.0790495,41,480.88201
1,Campo Florido/MG,-19.760833,-48.572223,25,306.71083
1,Campo Formoso/BA,-10.51055,-40.320031,364,511.19288
D1,Campo Formoso/BA,-10.51055,-40.320031,2,2.80875
1,Campo Grande do Piauí/PI,-7.1327559,-41.0381164,46,774.01986
D1,Campo Grande do Piauí/PI,-7.1327559,-41.0381164,1,16.82652
1,Campo Grande/AL,-9.9725,-36.74791447368421,134,1401.96694
D1,Campo Grande/AL,-9.9725,-36.74791447368421,1,10.46244
1,Campo Grande/MS,-20.4640173,-54.6162947,5830,650.68271
D1,Campo Grande/MS,-20.4640173,-54.6162947,59,6.58495
1,Campo Largo do Piauí/PI,-3.8104731,-42.6288333,71,975.40871
D1,Campo Largo do Piauí/PI,-3.8104731,-42.6288333,3,41.21445
1,Campo Largo/PR,-25.4597726,-49.5270851,1082,819.68455
D1,Campo Largo/PR,-25.4597726,-49.5270851,18,13.63616
1,Campo Limpo Paulista/SP,-23.207791,-46.788919,361,426.46190
D1,Campo Limpo Paulista/SP,-23.207791,-46.788919,37,43.70939
1,Campo Limpo de Goiás/GO,-16.297101,-49.0894994,11,141.22480
1,Campo Magro/PR,-25.3691533,-49.4496921,118,402.48312
D1,Campo Magro/PR,-25.3691533,-49.4496921,3,10.23262
1,Campo Maior/PI,-4.8339574,-42.1739786,1302,2780.09096
D1,Campo Maior/PI,-4.8339574,-42.1739786,26,55.51641
1,Campo Mourão/PR,-24.046329,-52.37802,406,428.00367
D1,Campo Mourão/PR,-24.046329,-52.37802,9,9.48777
1,Campo Novo de Rondônia/RO,-10.5704235,-63.6199511,71,502.15715
D1,Campo Novo de Rondônia/RO,-10.5704235,-63.6199511,3,21.21791
1,Campo Novo do Parecis/MT,-13.658735,-57.890723,365,1032.23982
D1,Campo Novo do Parecis/MT,-13.658735,-57.890723,8,22.62443
1,Campo Novo/RS,-28.91500235,-52.331375687737626,11,245.31668
1,Campo Redondo/RN,-6.2420373,-36.1830606,85,757.77837
D1,Campo Redondo/RN,-6.2420373,-36.1830606,2,17.83008
1,Campo Verde/MT,-15.5430787,-55.1590511,521,1182.98858
D1,Campo Verde/MT,-15.5430787,-55.1590511,8,18.16489
1,Campo do Brito/SE,-10.7496246,-37.4942276,157,866.97222
D1,Campo do Brito/SE,-10.7496246,-37.4942276,4,22.08846
1,Campo do Meio/MG,-21.1072006,-45.8301735,5,42.90004
1,Campo do Tenente/PR,-25.9814143,-49.684518,33,414.00075
D1,Campo do Tenente/PR,-25.9814143,-49.684518,2,25.09095
1,Campos Altos/MG,-19.696389,-46.171389,41,265.18336
D1,Campos Altos/MG,-19.696389,-46.171389,1,6.46789
1,Campos Belos/GO,-13.0349839,-46.768112,44,221.25006
D1,Campos Belos/GO,-13.0349839,-46.768112,1,5.02841
1,Campos Borges/RS,-28.8852198,-52.999098,1,30.12048
1,Campos Gerais/MG,-21.2333342,-45.7584127,55,191.14478
D1,Campos Gerais/MG,-21.2333342,-45.7584127,2,6.95072
1,Campos Lindos/TO,-7.9740597,-46.8023881,5,49.42665
1,Campos Novos Paulista/SP,-22.601952,-49.998726,3,60.42296
1,Campos Novos/SC,-27.3962904,-51.2224397,213,587.68348
D1,Campos Novos/SC,-27.3962904,-51.2224397,2,5.51815
1,Campos Sales/CE,-7.0742675,-40.3740367,205,747.46591
D1,Campos Sales/CE,-7.0742675,-40.3740367,3,10.93853
1,Campos Verdes/GO,-14.2709062,-49.65746,7,326.95002
1,Campos de Júlio/MT,-13.7223646,-59.2645296,127,1842.98360
D1,Campos de Júlio/MT,-13.7223646,-59.2645296,2,29.02336
1,Campos do Jordão/SP,-22.7395263,-45.5912829,224,430.04147
D1,Campos do Jordão/SP,-22.7395263,-45.5912829,2,3.83966
1,Campos dos Goytacazes/RJ,-21.7558619,-41.3326895,2261,445.47511
D1,Campos dos Goytacazes/RJ,-21.7558619,-41.3326895,151,29.75088
1,Camutanga/PE,-7.4092965,-35.2738166,124,1450.12279
D1,Camutanga/PE,-7.4092965,-35.2738166,3,35.08362
1,Cana Verde/MG,-21.021308,-45.1817881,46,820.98876
D1,Cana Verde/MG,-21.021308,-45.1817881,1,17.84758
1,Canabrava do Norte/MT,-11.0516481,-51.8301897,28,590.34366
D1,Canabrava do Norte/MT,-11.0516481,-51.8301897,1,21.08370
1,Cananéia/SP,-25.0104609,-47.9315628,61,486.44338
D1,Cananéia/SP,-25.0104609,-47.9315628,3,23.92344
1,Canapi/AL,-9.1173572,-37.6011704,16,90.28326
D1,Canapi/AL,-9.1173572,-37.6011704,3,16.92811
1,Canarana/BA,-11.6870151,-41.7683675,53,202.47555
1,Canarana/MT,-13.5564602,-52.2691167,142,658.04718
D1,Canarana/MT,-13.5564602,-52.2691167,3,13.90241
1,Canas/SP,-22.7029347,-45.0526508,5,97.31413
1,Canavieiras/BA,-15.61621745,-39.08485321304444,74,237.94977
D1,Canavieiras/BA,-15.61621745,-39.08485321304444,3,9.64661
1,Canaã dos Carajás/PA,-6.5296837,-49.8516592,2472,6665.76783
D1,Canaã dos Carajás/PA,-6.5296837,-49.8516592,32,86.28826
1,Candeal/BA,-11.8053441,-39.1206515,23,278.51780
1,Candeias do Jamari/RO,-8.7949939,-63.7018851,796,2982.05522
D1,Candeias do Jamari/RO,-8.7949939,-63.7018851,13,48.70191
1,Candeias/BA,-12.6693806,-38.5406462,1200,1378.10648
D1,Candeias/BA,-12.6693806,-38.5406462,30,34.45266
1,Candeias/MG,-20.7676161,-45.2763777,40,268.70885
D1,Candeias/MG,-20.7676161,-45.2763777,2,13.43544
1,Candelária/RS,-29.668391,-52.789495,29,92.45975
1,Candiba/BA,-14.4125032,-42.8714102,15,104.75592
1,Candiota/RS,-31.5451894,-53.719538,8,83.47245
1,Candói/PR,-25.5711951,-52.051107,21,131.42249
1,Canela/RS,-29.3624657,-50.8134204,55,122.22765
D1,Canela/RS,-29.3624657,-50.8134204,1,2.22232
1,Canelinha/SC,-27.2660341,-48.7666708,174,1421.56863
D1,Canelinha/SC,-27.2660341,-48.7666708,2,16.33987
1,Canguaretama/RN,-6.3751942,-35.137463,167,487.22138
D1,Canguaretama/RN,-6.3751942,-35.137463,14,40.84491
1,Canguçu/RS,-31.398276,-52.6773522,52,92.78259
D1,Canguçu/RS,-31.398276,-52.6773522,2,3.56856
1,Canhoba/SE,-10.1373681,-36.9710796,22,548.90220
1,Canhotinho/PE,-8.876519,-36.197935,140,564.42509
D1,Canhotinho/PE,-8.876519,-36.197935,7,28.22125
1,Canindé de São Francisco/SE,-9.6597475,-37.7904456,125,418.06020
D1,Canindé de São Francisco/SE,-9.6597475,-37.7904456,4,13.37793
1,Canindé/CE,-4.3547946,-39.3108516,1482,1924.75031
D1,Canindé/CE,-4.3547946,-39.3108516,54,70.13260
1,Canitar/SP,-23.0066616,-49.7840632,5,95.85890
1,Canoas/RS,-29.9216045,-51.1799525,1175,338.99185
D1,Canoas/RS,-29.9216045,-51.1799525,45,12.98267
1,Canoinhas/SC,-26.176591,-50.395001,189,347.42008
D1,Canoinhas/SC,-26.176591,-50.395001,3,5.51460
1,Cansanção/BA,-10.6671448,-39.498199,89,255.49750
D1,Cansanção/BA,-10.6671448,-39.498199,2,5.74152
1,Cantagalo/PR,-25.3735238,-52.1238114,32,240.29436
D1,Cantagalo/PR,-25.3735238,-52.1238114,1,7.50920
1,Cantagalo/RJ,-21.9811325,-42.3682522,27,133.84890
D1,Cantagalo/RJ,-21.9811325,-42.3682522,1,4.95737
1,Cantanhede/MA,-3.6355005,-44.3778738,380,1727.66538
D1,Cantanhede/MA,-3.6355005,-44.3778738,2,9.09298
1,Canto do Buriti/PI,-8.1112473,-42.944844,185,873.17695
D1,Canto do Buriti/PI,-8.1112473,-42.944844,2,9.43975
1,Cantá/RR,2.60994,-60.605827,572,3119.71639
D1,Cantá/RR,2.60994,-60.605827,7,38.17835
1,Canudos do Vale/RS,-29.3240418,-52.2348494,4,233.10023
1,Canudos/BA,-9.8948692,-39.0266244,28,167.98656
D1,Canudos/BA,-9.8948692,-39.0266244,2,11.99904
1,Canutama/AM,-6.5330019,-64.3834966,166,1062.12810
1,Canápolis/MG,-18.7228793,-49.2016329,34,279.83539
1,Capanema/PA,-1.1933054,-47.1828679,976,1413.93947
D1,Capanema/PA,-1.1933054,-47.1828679,60,86.92251
1,Capanema/PR,-25.6704878,-53.8083036,130,679.77411
1,Caparaó/MG,-20.5232726,-41.9049984,14,257.44759
D1,Caparaó/MG,-20.5232726,-41.9049984,2,36.77823
1,Capela Nova/MG,-20.9236773,-43.6179487,2,42.98302
1,Capela de Santana/RS,-29.6926603,-51.3206659,22,184.25461
1,Capela do Alto Alegre/BA,-11.6703944,-39.8362745,68,584.34304
1,Capela do Alto/SP,-23.4704798,-47.7352309,130,627.83734
D1,Capela do Alto/SP,-23.4704798,-47.7352309,1,4.82952
1,Capela/AL,-9.415041,-36.082583,455,2668.15223
D1,Capela/AL,-9.415041,-36.082583,4,23.45628
1,Capela/SE,-10.50494,-37.0552566,406,1186.68342
D1,Capela/SE,-10.50494,-37.0552566,13,37.99725
1,Capelinha/MG,-17.693889,-42.518611,14,37.05272
1,Capetinga/MG,-20.6193382,-47.0577418,6,86.70520
1,Capim Branco/MG,-19.548333,-44.133056,19,194.79188
1,Capim Grosso/BA,-11.3793228,-40.0112095,265,864.26195
D1,Capim Grosso/BA,-11.3793228,-40.0112095,4,13.04546
1,Capim/PB,-6.9174091,-35.1720326,130,1992.94803
D1,Capim/PB,-6.9174091,-35.1720326,4,61.32148
1,Capinzal do Norte/MA,-4.7304006,-44.3249063,285,2606.54838
1,Capinzal/SC,-27.3440651,-51.6110403,166,726.54062
D1,Capinzal/SC,-27.3440651,-51.6110403,1,4.37675
1,Capinópolis/MG,-18.682778,-49.569723,98,605.94819
1,Capistrano/CE,-4.4644692,-38.8956734,423,2384.71079
D1,Capistrano/CE,-4.4644692,-38.8956734,9,50.73853
1,Capitão Andrade/MG,-19.0675,-41.859722,7,128.01756
1,Capitão Enéas/MG,-16.3236018,-43.7154584,25,164.10660
D1,Capitão Enéas/MG,-16.3236018,-43.7154584,3,19.69279
1,Capitão Gervásio Oliveira/PI,-8.4954657,-41.8169342,10,243.90244
1,Capitão Leônidas Marques/PR,-25.481645,-53.611238,59,373.89100
1,Capitão Poço/PA,-1.7447162,-47.0638495,579,1066.23943
D1,Capitão Poço/PA,-1.7447162,-47.0638495,29,53.40405
1,Capitão de Campos/PI,-4.4584198,-41.9415301,73,639.39739
1,Capitão/RS,-29.2718294,-51.9869716,17,616.61226
1,Capitólio/MG,-20.6142437,-46.0487652,7,81.09361
D1,Capitólio/MG,-20.6142437,-46.0487652,2,23.16960
1,Capivari de Baixo/SC,-28.449773,-48.963144,234,940.85481
D1,Capivari de Baixo/SC,-28.449773,-48.963144,1,4.02075
1,Capivari do Sul/RS,-30.1437605,-50.5129169,1,21.45923
1,Capivari/SP,-22.995144,-47.50715,329,589.94405
D1,Capivari/SP,-22.995144,-47.50715,2,3.58629
1,Capixaba/AC,-10.5741345,-67.6759719,182,1551.18043
D1,Capixaba/AC,-10.5741345,-67.6759719,7,59.66079
1,Capoeiras/PE,-8.7386788,-36.6268109,94,468.87470
D1,Capoeiras/PE,-8.7386788,-36.6268109,3,14.96409
1,Capão Bonito/SP,-24.0048759,-48.3489848,186,394.58611
D1,Capão Bonito/SP,-24.0048759,-48.3489848,13,27.57860
1,Capão da Canoa/RS,-29.7542937,-50.0215684,133,250.71161
D1,Capão da Canoa/RS,-29.7542937,-50.0215684,4,7.54020
1,Capão do Cipó/RS,-28.9317296,-54.5555783,3,82.16927
1,Capão do Leão/RS,-31.766133,-52.5013148,20,78.88302
1,Caracaraí/RR,1.827598,-61.125389,328,1495.94089
D1,Caracaraí/RR,1.827598,-61.125389,6,27.36477
1,Caracol/MS,-22.0169949,-57.0298349,18,294.31001
1,Caracol/PI,-9.2804898,-43.3284924,68,622.93881
1,Caraguatatuba/SP,-23.62028,-45.41306,612,503.57108
D1,Caraguatatuba/SP,-23.62028,-45.41306,43,35.38163
1,Carambeí/PR,-24.9513298,-50.1171293,108,461.24279
D1,Carambeí/PR,-24.9513298,-50.1171293,4,17.08307
1,Caranaíba/MG,-20.8736914,-43.7379458,6,188.50141
D1,Caranaíba/MG,-20.8736914,-43.7379458,1,31.41690
1,Carandaí/MG,-20.9523934,-43.8043903,61,239.20631
D1,Carandaí/MG,-20.9523934,-43.8043903,3,11.76424
1,Carangola/MG,-20.733056,-42.029445,207,627.27273
D1,Carangola/MG,-20.733056,-42.029445,3,9.09091
1,Carapebus/RJ,-22.1869969,-41.6633764,172,1055.14999
D1,Carapebus/RJ,-22.1869969,-41.6633764,4,24.53837
1,Carapicuíba/SP,-23.5234673,-46.8406808,3206,799.64682
D1,Carapicuíba/SP,-23.5234673,-46.8406808,202,50.38324
1,Caratinga/MG,-19.7900887,-42.140533,561,609.37194
D1,Caratinga/MG,-19.7900887,-42.140533,13,14.12092
1,Carauari/AM,-4.8766426,-66.8961433,731,2583.58663
D1,Carauari/AM,-4.8766426,-66.8961433,7,24.74023
1,Caravelas/BA,-17.7296514,-39.2660082,116,526.88953
1,Carazinho/RS,-28.2981634,-52.7942363,193,310.73901
D1,Carazinho/RS,-28.2981634,-52.7942363,7,11.27033
1,Caraá/RS,-29.7900698,-50.4302307,46,556.22733
D1,Caraá/RS,-29.7900698,-50.4302307,1,12.09190
1,Caraí/MG,-17.1884104,-41.6976554,44,185.77159
D1,Caraí/MG,-17.1884104,-41.6976554,1,4.22208
1,Caraíbas/BA,-14.72496,-41.2566163,7,78.20355
1,Caraúbas do Piauí/PI,-3.4757229,-41.8431178,67,1141.78596
D1,Caraúbas do Piauí/PI,-3.4757229,-41.8431178,1,17.04158
1,Caraúbas/PB,-7.7273231,-36.4923357,30,720.80730
1,Caraúbas/RN,-5.7889323,-37.5548751,193,941.78500
D1,Caraúbas/RN,-5.7889323,-37.5548751,3,14.63915
1,Carbonita/MG,-17.5308667,-43.0136207,5,53.16321
1,Cardeal da Silva/BA,-11.9428154,-37.9494462,9,96.82625
D1,Cardeal da Silva/BA,-11.9428154,-37.9494462,1,10.75847
1,Cardoso Moreira/RJ,-21.4894916,-41.6152776,163,1271.15340
1,Cardoso/SP,-20.080447,-49.9139767,37,300.17848
D1,Cardoso/SP,-20.080447,-49.9139767,2,16.22586
1,Careaçu/MG,-22.0440585,-45.6949091,8,118.39574
1,Careiro da Várzea/AM,-3.197024,-59.8259104,119,393.71381
D1,Careiro da Várzea/AM,-3.197024,-59.8259104,4,13.23408
1,Careiro/AM,-3.8185277,-60.3616505,1030,2719.90282
D1,Careiro/AM,-3.8185277,-60.3616505,14,36.96955
1,Cariacica/ES,-20.263202,-40.416549,7838,2055.68013
D1,Cariacica/ES,-20.263202,-40.416549,293,76.84540
1,Caridade do Piauí/PI,-7.7331063,-40.9883665,9,177.61989
1,Caridade/CE,-4.2316487,-39.1946515,287,1272.89662
D1,Caridade/CE,-4.2316487,-39.1946515,14,62.09252
1,Carinhanha/BA,-14.298524,-43.772349,16,55.13819
1,Carira/SE,-10.358303,-37.701473,317,1435.55837
D1,Carira/SE,-10.358303,-37.701473,10,45.28575
1,Cariri do Tocantins/TO,-11.8882727,-49.1604216,67,1528.98220
D1,Cariri do Tocantins/TO,-11.8882727,-49.1604216,1,22.82063
1,Caririaçu/CE,-7.0417053,-39.2835527,262,971.62989
D1,Caririaçu/CE,-7.0417053,-39.2835527,4,14.83404
1,Cariré/CE,-3.948584,-40.476028,527,2856.67823
D1,Cariré/CE,-3.948584,-40.476028,11,59.62706
1,Cariús/CE,-6.5348688,-39.4966658,171,914.48741
D1,Cariús/CE,-6.5348688,-39.4966658,2,10.69576
1,Carlos Barbosa/RS,-29.2978372,-51.5005613,325,1089.39765
D1,Carlos Barbosa/RS,-29.2978372,-51.5005613,7,23.46395
1,Carlos Chagas/MG,-21.744351,-43.3908675,134,711.36593
D1,Carlos Chagas/MG,-21.744351,-43.3908675,2,10.61740
1,Carlópolis/PR,-23.4224762,-49.7194008,63,439.94413
1,Carmo da Cachoeira/MG,-21.460556,-45.223334,5,41.08463
1,Carmo da Mata/MG,-20.558334,-44.8703774,9,78.42454
1,Carmo de Minas/MG,-22.1216655,-45.1323836,8,53.83942
1,Carmo do Cajuru/MG,-20.184444,-44.770834,84,373.69873
D1,Carmo do Cajuru/MG,-20.184444,-44.770834,3,13.34638
1,Carmo do Paranaíba/MG,-18.9992327,-46.306916,104,342.90613
D1,Carmo do Paranaíba/MG,-18.9992327,-46.306916,3,9.89152
1,Carmo do Rio Claro/MG,-20.973315,-46.1186754,24,113.07420
D1,Carmo do Rio Claro/MG,-20.973315,-46.1186754,1,4.71143
1,Carmo do Rio Verde/GO,-15.3549139,-49.707975,12,119.02400
1,Carmo/RJ,-21.9341749,-42.6091737,78,412.80762
D1,Carmo/RJ,-21.9341749,-42.6091737,2,10.58481
1,Carmolândia/TO,-7.033804,-48.3951295,16,620.15504
D1,Carmolândia/TO,-7.033804,-48.3951295,1,38.75969
1,Carmésia/MG,-19.0854535,-43.1392003,5,189.96960
1,Carmópolis de Minas/MG,-20.541224,-44.6350611,134,692.32756
D1,Carmópolis de Minas/MG,-20.541224,-44.6350611,4,20.66649
1,Carmópolis/SE,-10.64835,-36.98493,178,1070.09739
D1,Carmópolis/SE,-10.64835,-36.98493,6,36.07070
1,Carnaubais/RN,-5.3383681,-36.8335566,79,734.26898
D1,Carnaubais/RN,-5.3383681,-36.8335566,4,37.17818
1,Carnaubal/CE,-4.1611842,-40.9412317,220,1249.57401
D1,Carnaubal/CE,-4.1611842,-40.9412317,3,17.03965
1,Carnaubeira da Penha/PE,-8.3192809,-38.7435891,19,146.92236
D1,Carnaubeira da Penha/PE,-8.3192809,-38.7435891,1,7.73276
1,Carnaíba/PE,-7.805964,-37.7947314,65,332.46381
D1,Carnaíba/PE,-7.805964,-37.7947314,6,30.68897
1,Carnaúba dos Dantas/RN,-6.5560588,-36.5930811,28,342.29829
D1,Carnaúba dos Dantas/RN,-6.5560588,-36.5930811,3,36.67482
1,Carneirinho/MG,-19.6975,-50.688055,17,169.54224
1,Carneiros/AL,-9.4832948,-37.3757121,35,385.42011
1,Caroebe/RR,0.8812315,-59.6932274,514,5054.57764
D1,Caroebe/RR,0.8812315,-59.6932274,2,19.66762
1,Carolina/MA,-7.3313437,-47.4738762,193,793.52027
D1,Carolina/MA,-7.3313437,-47.4738762,1,4.11150
1,Carpina/PE,-7.8459151,-35.2538861,299,357.48018
D1,Carpina/PE,-7.8459151,-35.2538861,43,51.41019
1,Carrancas/MG,-21.4910462,-44.6436151,1,24.70966
1,Carrapateira/PB,-7.0395225,-38.3432281,28,1053.02745
1,Carrasco Bonito/TO,-5.3205734,-48.0376667,27,659.34066
1,Caruaru/PE,-8.2829702,-35.9722852,3064,848.47612
D1,Caruaru/PE,-8.2829702,-35.9722852,188,52.06055
1,Carutapera/MA,-1.2016638,-46.0205618,254,1066.91309
D1,Carutapera/MA,-1.2016638,-46.0205618,15,63.00668
1,Carvalhópolis/MG,-21.7773461,-45.8412117,2,55.88153
1,Casa Branca/SP,-21.7743137,-47.0852175,51,167.87360
D1,Casa Branca/SP,-21.7743137,-47.0852175,1,3.29164
1,Casa Nova/BA,-9.1736775,-40.9734475,189,262.61307
D1,Casa Nova/BA,-9.1736775,-40.9734475,5,6.94744
1,Casca/RS,-28.5634054,-51.9741902,23,254.67833
D1,Casca/RS,-28.5634054,-51.9741902,1,11.07297
1,Cascalho Rico/MG,-18.579344,-47.875774,14,455.28455
D1,Cascalho Rico/MG,-18.579344,-47.875774,1,32.52033
1,Cascavel/CE,-4.129666,-38.241178,1120,1561.12791
D1,Cascavel/CE,-4.129666,-38.241178,82,114.29687
1,Cascavel/PR,-24.9554996,-53.4560544,4120,1254.36134
D1,Cascavel/PR,-24.9554996,-53.4560544,84,25.57436
1,Caseara/TO,-9.273159,-49.9576837,6,111.75265
D1,Caseara/TO,-9.273159,-49.9576837,1,18.62544
1,Caseiros/RS,-28.2721149,-51.6873536,12,374.76577
1,Casimiro de Abreu/RJ,-22.4809932,-42.2039976,436,986.78255
D1,Casimiro de Abreu/RJ,-22.4809932,-42.2039976,11,24.89589
1,Casinhas/PE,-7.744698,-35.7250923,30,209.19043
D1,Casinhas/PE,-7.744698,-35.7250923,3,20.91904
1,Casserengue/PB,-6.779538,-35.817875,168,2249.59829
D1,Casserengue/PB,-6.779538,-35.817875,3,40.17140
1,Cassilândia/MS,-19.1128242,-51.7345354,34,154.97516
D1,Cassilândia/MS,-19.1128242,-51.7345354,3,13.67428
1,Castanhal/PA,-1.2927031,-47.9223903,1757,875.03050
D1,Castanhal/PA,-1.2927031,-47.9223903,177,88.15048
1,Castanheira/MT,-11.1391946,-58.6088547,13,148.92886
1,Castanheiras/RO,-11.4277212,-61.9486802,25,819.13499
1,Castelo do Piauí/PI,-5.3230426,-41.5546185,42,213.02495
D1,Castelo do Piauí/PI,-5.3230426,-41.5546185,3,15.21607
1,Castelo/ES,-20.6034476,-41.2033505,545,1452.01684
D1,Castelo/ES,-20.6034476,-41.2033505,14,37.29952
1,Castelândia/GO,-18.089062,-50.220798,5,145.56041
1,Castilho/SP,-20.8695636,-51.4877792,35,166.61906
D1,Castilho/SP,-20.8695636,-51.4877792,1,4.76054
1,Castro Alves/BA,-12.7616941,-39.4281088,132,502.58910
D1,Castro Alves/BA,-12.7616941,-39.4281088,3,11.42248
1,Castro/PR,-24.794072,-49.9972914,199,278.38397
1,Cataguases/MG,-21.387426,-42.6957219,175,232.95129
D1,Cataguases/MG,-21.387426,-42.6957219,11,14.64265
1,Catalão/GO,-18.1702546,-47.9447082,396,363.89366
D1,Catalão/GO,-18.1702546,-47.9447082,11,10.10816
1,Catanduva/SP,-21.1331035,-48.9712817,730,599.03826
D1,Catanduva/SP,-21.1331035,-48.9712817,36,29.54161
1,Catanduvas/PR,-25.2043528,-53.154826,59,579.05584
1,Catanduvas/SC,-27.0689719,-51.660158,42,386.70472
1,Catarina/CE,-6.1341578,-39.8795321,66,318.87139
D1,Catarina/CE,-6.1341578,-39.8795321,3,14.49415
1,Catas Altas da Noruega/MG,-20.690277,-43.4975,13,357.04477
1,Catas Altas/MG,-20.0744,-43.4075,24,446.42857
1,Catende/PE,-8.6900588,-35.748470825,451,1051.47813
D1,Catende/PE,-8.6900588,-35.748470825,27,62.94880
1,Catiguá/SP,-21.0491485,-49.0578923,64,820.09226
D1,Catiguá/SP,-21.0491485,-49.0578923,1,12.81394
1,Catingueira/PB,-7.120081,-37.60638,16,324.41200
D1,Catingueira/PB,-7.120081,-37.60638,2,40.55150
1,Catolândia/BA,-12.315088,-44.8616434,3,83.86916
1,Catolé do Rocha/PB,-6.340625,-37.746967,204,667.84522
D1,Catolé do Rocha/PB,-6.340625,-37.746967,8,26.19001
1,Catu/BA,-12.351274,-38.379108,561,1025.51916
D1,Catu/BA,-12.351274,-38.379108,5,9.14010
1,Catuji/MG,-17.3024568,-41.5168387,10,158.45349
1,Catunda/CE,-4.6494224,-40.2002603,164,1585.76678
D1,Catunda/CE,-4.6494224,-40.2002603,2,19.33862
1,Caturama/BA,-13.3309299,-42.2927623,1,10.71926
1,Caturaí/GO,-16.4473559,-49.4919149,13,256.41026
D1,Caturaí/GO,-16.4473559,-49.4919149,1,19.72387
1,Caturité/PB,-7.4199652,-36.0207132,64,1319.04369
D1,Caturité/PB,-7.4199652,-36.0207132,1,20.61006
1,Catuti/MG,-15.3597,-42.9628,1,20.05616
1,Catuípe/RS,-28.255356,-54.013215,14,159.56234
D1,Catuípe/RS,-28.255356,-54.013215,1,11.39731
1,Caucaia/CE,-3.7300563,-38.6593082,4728,1308.24571
D1,Caucaia/CE,-3.7300563,-38.6593082,305,84.39402
1,Cavalcante/GO,-13.7928414,-47.4568521,7,72.09805
1,Caxambu do Sul/SC,-27.1615046,-52.8796675,35,961.01043
D1,Caxambu do Sul/SC,-27.1615046,-52.8796675,1,27.45744
1,Caxambu/MG,-21.9770359,-44.9318289,23,106.20613
D1,Caxambu/MG,-21.9770359,-44.9318289,1,4.61766
1,Caxias do Sul/RS,-29.1684796,-51.1793861,2036,398.50775
D1,Caxias do Sul/RS,-29.1684796,-51.1793861,33,6.45911
1,Caxias/MA,-4.8654201,-43.353664,2382,1444.68705
D1,Caxias/MA,-4.8654201,-43.353664,54,32.75109
1,Caxingó/PI,-3.4208396,-41.8925637,63,1161.50442
1,Caçador/SC,-26.77567,-51.0120041,108,137.41332
D1,Caçador/SC,-26.77567,-51.0120041,5,6.36173
1,Caçapava do Sul/RS,-30.5113286,-53.4916761,245,728.64621
D1,Caçapava do Sul/RS,-30.5113286,-53.4916761,6,17.84440
1,Caçapava/SP,-23.099204,-45.707645,381,404.18828
D1,Caçapava/SP,-23.099204,-45.707645,12,12.73034
1,Caçu/GO,-18.5637222,-51.1369685,206,1286.77619
D1,Caçu/GO,-18.5637222,-51.1369685,4,24.98595
1,Caém/BA,-11.0909658,-40.4322187,35,379.89797
