type,name,lat,lon,total,total_per_100k_inhabitants
1,Abadia de Goiás/GO,-16.7572644,-49.4412205,151,1721.19001
D1,Abadia de Goiás/GO,-16.7572644,-49.4412205,1,11.39861
1,Abadia dos Dourados/MG,-18.4911191,-47.4063589,22,314.78037
D1,Abadia dos Dourados/MG,-18.4911191,-47.4063589,1,14.30820
1,Abadiânia/GO,-16.1940946,-48.7067767,76,379.20367
D1,Abadiânia/GO,-16.1940946,-48.7067767,8,39.91618
1,Abaetetuba/PA,-1.721828,-48.878843,2641,1674.72003
D1,Abaetetuba/PA,-1.721828,-48.878843,109,69.11946
1,Abaeté/MG,-19.1566833,-45.4481213,26,111.89052
1,Abaiara/CE,-7.3607808,-39.0487878,52,443.04337
D1,Abaiara/CE,-7.3607808,-39.0487878,2,17.04013
1,Abaré/BA,-8.7239913,-39.1139689,37,184.20791
1,Abatiá/PR,-23.3052967,-50.3102532,56,750.97224
1,Abaíra/BA,-13.2503296,-41.6640342,7,80.10070
1,Abdon Batista/SC,-27.612419,-51.022992,70,2731.17440
1,Abel Figueiredo/PA,-4.953001,-48.3958485,140,1883.23917
D1,Abel Figueiredo/PA,-4.953001,-48.3958485,1,13.45171
1,Abelardo Luz/SC,-26.5705893,-52.3280339,113,631.14388
D1,Abelardo Luz/SC,-26.5705893,-52.3280339,3,16.75603
1,Abre Campo/MG,-20.2976097,-42.4764741,17,126.35647
1,Abreu e Lima/PE,-7.900719,-34.898389,618,618.06181
D1,Abreu e Lima/PE,-7.900719,-34.898389,82,82.00820
1,Abreulândia/TO,-9.6221526,-49.1558343,12,465.29663
D1,Abreulândia/TO,-9.6221526,-49.1558343,2,77.54944
1,Acaiaca/MG,-20.3621646,-43.1444162,12,300.45068
D1,Acaiaca/MG,-20.3621646,-43.1444162,1,25.03756
1,Acajutiba/BA,-11.6609659,-38.0186381,61,402.40121
D1,Acajutiba/BA,-11.6609659,-38.0186381,2,13.19348
1,Acarape/CE,-4.2237866,-38.7071663,1014,6792.14951
D1,Acarape/CE,-4.2237866,-38.7071663,14,93.77721
1,Acaraú/CE,-2.8869514,-40.1194713,2407,3842.53125
D1,Acaraú/CE,-2.8869514,-40.1194713,54,86.20552
1,Acari/RN,-6.4364689,-36.6394777,44,395.11494
D1,Acari/RN,-6.4364689,-36.6394777,3,26.93966
1,Acará/PA,-1.961388,-48.1987043,659,1185.44369
D1,Acará/PA,-1.961388,-48.1987043,12,21.58623
1,Acauã/PI,-8.219542,-41.083059,19,268.21005
1,Acopiara/CE,-6.0936464,-39.4543204,454,836.55795
D1,Acopiara/CE,-6.0936464,-39.4543204,22,40.53805
1,Acorizal/MT,-15.2001544,-56.3668953,60,1111.31691
D1,Acorizal/MT,-15.2001544,-56.3668953,1,18.52195
1,Acrelândia/AC,-10.0759167,-67.0526898,271,1776.35029
D1,Acrelândia/AC,-10.0759167,-67.0526898,5,32.77399
1,Acreúna/GO,-17.3959899,-50.3749031,152,679.60297
D1,Acreúna/GO,-17.3959899,-50.3749031,4,17.88429
1,Adamantina/SP,-21.6866517,-51.0762975,121,345.04391
D1,Adamantina/SP,-21.6866517,-51.0762975,6,17.10962
1,Adelândia/GO,-16.4155077,-50.1665834,39,1550.07949
1,Adolfo/SP,-21.2356597,-49.6441918,38,1066.81640
D1,Adolfo/SP,-21.2356597,-49.6441918,3,84.22235
1,Adrianópolis/PR,-24.6557863,-48.9912769,90,1520.52712
D1,Adrianópolis/PR,-24.6557863,-48.9912769,2,33.78949
1,Adustina/BA,-10.5358875,-38.114479,55,322.76995
D1,Adustina/BA,-10.5358875,-38.114479,1,5.86854
1,Afogados da Ingazeira/PE,-7.750429,-37.6356375,191,512.62782
D1,Afogados da Ingazeira/PE,-7.750429,-37.6356375,7,18.78741
1,Afonso Bezerra/RN,-5.4745,-36.57625071327935,59,534.66244
D1,Afonso Bezerra/RN,-5.4745,-36.57625071327935,6,54.37245
1,Afonso Cláudio/ES,-20.077841,-41.12606,506,1654.35166
D1,Afonso Cláudio/ES,-20.077841,-41.12606,12,39.23364
1,Afonso Cunha/MA,-4.1326105,-43.3230026,131,2007.97057
D1,Afonso Cunha/MA,-4.1326105,-43.3230026,2,30.65604
1,Afrânio/PE,-8.5198919,-41.0070197,96,488.92284
D1,Afrânio/PE,-8.5198919,-41.0070197,1,5.09295
1,Afuá/PA,-0.1535664,-50.3879223,1390,3544.29089
D1,Afuá/PA,-0.1535664,-50.3879223,9,22.94865
1,Agrestina/PE,-8.4558021,-35.9442663,392,1575.24613
D1,Agrestina/PE,-8.4558021,-35.9442663,23,92.42516
1,Agricolândia/PI,-5.7967843,-42.6605131,17,330.80366
1,Agrolândia/SC,-27.4122212,-49.8295774,65,598.30633
D1,Agrolândia/SC,-27.4122212,-49.8295774,2,18.40943
1,Agronômica/SC,-27.2660744,-49.7104753,42,770.92511
D1,Agronômica/SC,-27.2660744,-49.7104753,2,36.71072
1,Aguanil/MG,-20.9424533,-45.3927152,24,534.99777
D1,Aguanil/MG,-20.9424533,-45.3927152,2,44.58315
1,Aguaí/SP,-22.0592036,-46.979384,122,336.04187
D1,Aguaí/SP,-22.0592036,-46.979384,4,11.01777
1,Agudo/RS,-29.6423259,-53.2494005,7,42.52476
1,Agudos do Sul/PR,-25.9890808,-49.3328175,49,522.88977
1,Agudos/SP,-22.471162,-48.987822,248,666.41586
D1,Agudos/SP,-22.471162,-48.987822,4,10.74864
1,Aguiar/PB,-7.0928404,-38.1727215,23,407.80142
1,Aguiarnópolis/TO,-6.5600452,-47.4721189,276,4099.21283
D1,Aguiarnópolis/TO,-6.5600452,-47.4721189,6,89.11332
1,Aimorés/MG,-19.4917754,-41.0615603,162,643.70008
D1,Aimorés/MG,-19.4917754,-41.0615603,1,3.97346
1,Aiquara/BA,-14.126918,-39.8887574,86,1934.32299
D1,Aiquara/BA,-14.126918,-39.8887574,3,67.47638
1,Aiuaba/CE,-6.5710836,-40.1212278,12,68.96948
D1,Aiuaba/CE,-6.5710836,-40.1212278,1,5.74746
1,Aiuruoca/MG,-21.9759554,-44.6036637,1,16.65834
1,Ajuricaba/RS,-28.239654,-53.7693013,4,56.94761
1,Alagoa Grande/PB,-7.0415212,-35.6285322,748,2624.92981
D1,Alagoa Grande/PB,-7.0415212,-35.6285322,17,59.65750
1,Alagoa Nova/PB,-7.0653703,-35.76695977336711,244,1170.31992
D1,Alagoa Nova/PB,-7.0653703,-35.76695977336711,6,28.77836
1,Alagoinha do Piauí/PI,-7.0090952,-40.939675,41,535.87766
D1,Alagoinha do Piauí/PI,-7.0090952,-40.939675,1,13.07019
1,Alagoinha/PB,-6.97063215,-35.51490901897793,742,5121.12637
D1,Alagoinha/PB,-6.97063215,-35.51490901897793,6,41.41073
1,Alagoinha/PE,-8.50355635,-36.77701174370496,114,778.90134
D1,Alagoinha/PE,-8.50355635,-36.77701174370496,2,13.66494
1,Alagoinhas/BA,-12.133526,-38.420772,1746,1151.74543
D1,Alagoinhas/BA,-12.133526,-38.420772,31,20.44909
1,Alambari/SP,-23.550338,-47.897971,35,580.91286
1,Albertina/MG,-20.66164,-43.784039,3,99.76721
1,Alcantil/PB,-7.7425491,-36.0609604,37,673.70721
1,Alcinópolis/MS,-18.3264121,-53.7094463,4,74.86431
D1,Alcinópolis/MS,-18.3264121,-53.7094463,2,37.43215
1,Alcobaça/BA,-17.5215875,-39.1965474,238,1059.19003
D1,Alcobaça/BA,-17.5215875,-39.1965474,2,8.90076
1,Alcântara/MA,-2.4038956,-44.4154241,38,171.96905
D1,Alcântara/MA,-2.4038956,-44.4154241,6,27.15301
1,Alcântaras/CE,-3.586247,-40.5457641,363,3098.85607
D1,Alcântaras/CE,-3.586247,-40.5457641,3,25.61038
1,Aldeias Altas/MA,-4.6291957,-43.4708622,471,1775.21483
1,Alecrim/RS,-27.6566142,-54.7653195,4,67.22689
1,Alegre/ES,-20.7625787,-41.5318886,232,771.17405
D1,Alegre/ES,-20.7625787,-41.5318886,12,39.88831
1,Alegrete do Piauí/PI,-7.2440138,-40.8602296,21,427.26348
1,Alegrete/RS,-29.790166,-55.794862,206,279.93314
D1,Alegrete/RS,-29.790166,-55.794862,10,13.58899
1,Alegria/RS,-27.8332103,-54.0574959,16,461.89376
1,Alenquer/PA,-1.946229,-54.738355,996,1753.86078
D1,Alenquer/PA,-1.946229,-54.738355,25,44.02261
1,Alexandria/RN,-6.414779,-38.0135516,29,213.59652
D1,Alexandria/RN,-6.414779,-38.0135516,3,22.09619
1,Alexânia/GO,-16.0834049,-48.5077803,219,791.95747
D1,Alexânia/GO,-16.0834049,-48.5077803,6,21.69747
1,Alfenas/MG,-21.4297405,-45.9479419,189,236.26181
D1,Alfenas/MG,-21.4297405,-45.9479419,15,18.75094
1,Alfredo Chaves/ES,-20.624970400000002,-40.75006690147988,238,1630.02534
D1,Alfredo Chaves/ES,-20.624970400000002,-40.75006690147988,4,27.39538
1,Alfredo Marcondes/SP,-21.9527,-51.413956,24,576.09217
D1,Alfredo Marcondes/SP,-21.9527,-51.413956,1,24.00384
1,Alfredo Vasconcelos/MG,-21.145833,-43.776389,11,159.25872
D1,Alfredo Vasconcelos/MG,-21.145833,-43.776389,1,14.47807
1,Alfredo Wagner/SC,-27.6961513,-49.3326734,40,398.56517
1,Algodão de Jandaíra/PB,-6.9040175,-36.0089879,5,194.77990
1,Alhandra/PB,-7.4304246,-34.9106103,572,2920.15520
D1,Alhandra/PB,-7.4304246,-34.9106103,16,81.68266
1,Aliança do Tocantins/TO,-11.3055927,-48.9409096,15,278.29314
1,Aliança/PE,-7.60398,-35.222696,317,825.82191
D1,Aliança/PE,-7.60398,-35.222696,25,65.12791
1,Almadina/BA,-14.70466,-39.6381994,164,3001.46413
D1,Almadina/BA,-14.70466,-39.6381994,1,18.30161
1,Almas/TO,-11.5681309,-47.1702803,19,269.31254
D1,Almas/TO,-11.5681309,-47.1702803,2,28.34869
1,Almeirim/PA,-1.5290377,-52.5788111,201,589.28728
D1,Almeirim/PA,-1.5290377,-52.5788111,18,52.77200
1,Almenara/MG,-16.1740678,-40.6904907,402,959.51881
D1,Almenara/MG,-16.1740678,-40.6904907,5,11.93431
1,Almino Afonso/RN,-6.1544208,-37.7649018,17,359.02851
1,Almirante Tamandaré do Sul/RS,-28.1141129,-52.9134874,1,50.91650
1,Almirante Tamandaré/PR,-25.3133048,-49.2997838,625,526.87927
D1,Almirante Tamandaré/PR,-25.3133048,-49.2997838,8,6.74405
1,Aloândia/GO,-17.7277983,-49.4809338,7,350.87719
1,Alpercata/MG,-18.9803616,-41.9827637,145,1953.12500
1,Alpestre/RS,-27.2512339,-53.0349646,22,351.55002
1,Alpinópolis/MG,-20.863611,-46.387777,32,161.18471
D1,Alpinópolis/MG,-20.863611,-46.387777,4,20.14809
1,Alta Floresta D'Oeste/RO,-11.9296917,-61.9961284,268,1168.01046
D1,Alta Floresta D'Oeste/RO,-11.9296917,-61.9961284,1,4.35825
1,Alta Floresta/MT,-9.8715018,-56.0839881,227,438.37627
D1,Alta Floresta/MT,-9.8715018,-56.0839881,6,11.58704
1,Altair/SP,-20.5238955,-49.0606135,7,168.26923
D1,Altair/SP,-20.5238955,-49.0606135,1,24.03846
1,Altamira do Maranhão/MA,-4.1643006,-45.4674574,233,2866.63386
D1,Altamira do Maranhão/MA,-4.1643006,-45.4674574,5,61.51575
1,Altamira do Paraná/PR,-24.799114,-52.7128633,1,51.49331
1,Altamira/PA,-3.204065,-52.209961,3122,2724.40093
D1,Altamira/PA,-3.204065,-52.209961,88,76.79285
1,Altaneira/CE,-6.9980933,-39.7385742,5,65.91089
1,Alterosa/MG,-21.249166,-46.143055,12,82.95313
1,Altinho/PE,-8.4904095,-36.0607494,325,1414.76580
D1,Altinho/PE,-8.4904095,-36.0607494,6,26.11875
1,Altinópolis/SP,-21.021364,-47.3712,103,636.43104
D1,Altinópolis/SP,-21.021364,-47.3712,4,24.71577
1,Alto Alegre do Maranhão/MA,-4.2055693,-44.4525287,322,1190.25616
D1,Alto Alegre do Maranhão/MA,-4.2055693,-44.4525287,11,40.66092
1,Alto Alegre do Pindaré/MA,-3.6698186,-45.8462153,1194,3740.71869
D1,Alto Alegre do Pindaré/MA,-3.6698186,-45.8462153,4,12.53172
1,Alto Alegre dos Parecis/RO,-12.1314515,-61.856265,89,672.15467
D1,Alto Alegre dos Parecis/RO,-12.1314515,-61.856265,2,15.10460
1,Alto Alegre/RR,2.98858,-61.307167,386,2488.71696
D1,Alto Alegre/RR,2.98858,-61.307167,9,58.02708
1,Alto Alegre/SP,-21.5820592,-50.1661976,14,341.54672
D1,Alto Alegre/SP,-21.5820592,-50.1661976,1,24.39619
1,Alto Araguaia/MT,-17.3156528,-53.2169365,66,346.56585
D1,Alto Araguaia/MT,-17.3156528,-53.2169365,3,15.75299
1,Alto Bela Vista/SC,-27.4320737,-51.905771,7,361.38358
1,Alto Boa Vista/MT,-11.6723985,-51.3744431,38,557.02140
D1,Alto Boa Vista/MT,-11.6723985,-51.3744431,2,29.31692
1,Alto Caparaó/MG,-20.4405661,-41.8683799,10,171.02788
1,Alto Feliz/RS,-29.3785943,-51.3123751,10,330.25099
1,Alto Garças/MT,-16.9469683,-53.529427,95,789.69244
1,Alto Horizonte/GO,-14.1954948,-49.3366993,77,1200.49891
1,Alto Jequitibá/MG,-20.423611,-41.966111,34,408.80125
D1,Alto Jequitibá/MG,-20.423611,-41.966111,2,24.04713
1,Alto Longá/PI,-5.2549051,-42.2072388,57,398.48993
D1,Alto Longá/PI,-5.2549051,-42.2072388,2,13.98210
1,Alto Paraguai/MT,-14.513712,-56.4936374,36,317.01303
1,Alto Paraná/PR,-23.131247,-52.318893,21,142.18009
1,Alto Paraíso de Goiás/GO,-14.1304779,-47.5100161,72,944.38615
1,Alto Paraíso/PR,-23.508137,-53.728537,1,36.48304
1,Alto Paraíso/RO,-9.7240103,-63.3188123,166,774.68732
D1,Alto Paraíso/RO,-9.7240103,-63.3188123,4,18.66716
1,Alto Parnaíba/MA,-9.112506,-45.9310154,105,938.33780
D1,Alto Parnaíba/MA,-9.112506,-45.9310154,1,8.93655
1,Alto Piquiri/PR,-24.0239021,-53.4417448,50,508.33672
D1,Alto Piquiri/PR,-24.0239021,-53.4417448,3,30.50020
1,Alto Rio Doce/MG,-21.0239537,-43.4133507,57,518.18182
D1,Alto Rio Doce/MG,-21.0239537,-43.4133507,1,9.09091
1,Alto Rio Novo/ES,-19.0577208,-41.0171518,108,1378.25421
D1,Alto Rio Novo/ES,-19.0577208,-41.0171518,6,76.56968
1,Alto Santo/CE,-5.5190371,-38.2719351,179,1043.97527
D1,Alto Santo/CE,-5.5190371,-38.2719351,4,23.32906
1,Alto Taquari/MT,-17.8269099,-53.2831736,12,110.62967
D1,Alto Taquari/MT,-17.8269099,-53.2831736,1,9.21914
1,Alto do Rodrigues/RN,-5.290868,-36.7616726,252,1734.46211
D1,Alto do Rodrigues/RN,-5.290868,-36.7616726,11,75.71065
1,Altos/PI,-5.0393915,-42.4611694,855,2109.86082
D1,Altos/PI,-5.0393915,-42.4611694,10,24.67673
1,Altônia/PR,-23.8722004,-53.894037,35,158.68698
1,Alumínio/SP,-23.5203479,-47.2575256,87,467.03887
D1,Alumínio/SP,-23.5203479,-47.2575256,4,21.47305
1,Alvarenga/MG,-19.4175,-41.728334,113,2892.24469
D1,Alvarenga/MG,-19.4175,-41.728334,1,25.59509
1,Alvarães/AM,-3.214786,-64.8143124,1132,7056.91665
D1,Alvarães/AM,-3.214786,-64.8143124,13,81.04233
1,Alvinlândia/SP,-22.4431852,-49.7643596,9,279.32961
1,Alvinópolis/MG,-20.1105199,-43.0601805,18,118.39768
1,Alvorada D'Oeste/RO,-11.346271,-62.284697,50,346.95719
D1,Alvorada D'Oeste/RO,-11.346271,-62.284697,2,13.87829
1,Alvorada de Minas/MG,-18.7318587,-43.3641479,40,1109.26234
D1,Alvorada de Minas/MG,-18.7318587,-43.3641479,1,27.73156
1,Alvorada do Gurguéia/PI,-8.4465288,-43.8655915,37,682.78280
D1,Alvorada do Gurguéia/PI,-8.4465288,-43.8655915,2,36.90718
1,Alvorada do Norte/GO,-14.483911,-46.4959897,73,842.95612
1,Alvorada do Sul/PR,-22.7807269,-51.2307721,17,149.04436
D1,Alvorada do Sul/PR,-22.7807269,-51.2307721,2,17.53463
1,Alvorada/RS,-29.9981184,-51.0772509,1373,652.86132
D1,Alvorada/RS,-29.9981184,-51.0772509,49,23.29949
1,Alvorada/TO,-12.478465,-49.124926,144,1711.84023
D1,Alvorada/TO,-12.478465,-49.124926,1,11.88778
1,Além Paraíba/MG,-21.8760576,-42.6810473,249,704.14569
D1,Além Paraíba/MG,-21.8760576,-42.6810473,9,25.45105
1,Amajari/RR,3.6523869,-61.4194315,240,1875.58612
D1,Amajari/RR,3.6523869,-61.4194315,5,39.07471
1,Amambai/MS,-23.1082701,-55.2284854,76,192.91299
D1,Amambai/MS,-23.1082701,-55.2284854,2,5.07666
1,Amaporã/PR,-23.094272,-52.786597,23,367.58830
1,Amapá do Maranhão/MA,-1.6762114,-46.0109669,3,43.09107
1,Amapá/AP,2.0529997,-50.7930003,389,4270.50170
D1,Amapá/AP,2.0529997,-50.7930003,4,43.91261
1,Amaraji/PE,-8.373925,-35.4536527,135,591.35310
D1,Amaraji/PE,-8.373925,-35.4536527,22,96.36865
1,Amaralina/GO,-13.9236199,-49.2962411,3,78.69885
1,Amarante do Maranhão/MA,-5.56913,-46.747284,724,1747.31507
D1,Amarante do Maranhão/MA,-5.56913,-46.747284,12,28.96102
1,Amarante/PI,-6.2459374,-42.8476238,103,585.29378
D1,Amarante/PI,-6.2459374,-42.8476238,3,17.04739
1,Amargosa/BA,-13.03793715,-39.60796443875596,182,488.70868
D1,Amargosa/BA,-13.03793715,-39.60796443875596,6,16.11128
1,Amaturá/AM,-3.3640509,-68.1994689,500,4334.25798
D1,Amaturá/AM,-3.3640509,-68.1994689,8,69.34813
1,Americana/SP,-22.7392463,-47.3306032,1782,743.74888
D1,Americana/SP,-22.7392463,-47.3306032,64,26.71152
1,Americano do Brasil/GO,-16.2515808,-49.9806104,88,1440.02618
D1,Americano do Brasil/GO,-16.2515808,-49.9806104,1,16.36393
1,Ametista do Sul/RS,-27.3617341,-53.1826575,36,485.89553
1,Amontada/CE,-3.3634586,-39.8284791,715,1645.49388
D1,Amontada/CE,-3.3634586,-39.8284791,16,36.82224
1,Amorinópolis/GO,-16.6211308,-51.0949921,13,415.86692
1,Amparo de São Francisco/SE,-10.1299754,-36.9269099,46,1937.65796
1,Amparo do Serra/MG,-20.5070255,-42.8028462,3,63.65372
1,Amparo/PB,-7.56394725,-37.04652873235175,16,714.92404
1,Amparo/SP,-22.70111,-46.76444,333,461.25078
D1,Amparo/SP,-22.70111,-46.76444,12,16.62165
1,Ampére/PR,-25.9168712,-53.4742414,26,135.75606
D1,Ampére/PR,-25.9168712,-53.4742414,1,5.22139
1,Amélia Rodrigues/BA,-12.4015388,-38.7516971,203,808.70050
D1,Amélia Rodrigues/BA,-12.4015388,-38.7516971,2,7.96749
1,América Dourada/BA,-11.4515262,-41.4357517,90,559.21461
1,Américo Brasiliense/SP,-21.7297099,-48.1052092,211,520.93620
D1,Américo Brasiliense/SP,-21.7297099,-48.1052092,2,4.93778
1,Américo de Campos/SP,-20.298476,-49.735904,95,1591.55637
D1,Américo de Campos/SP,-20.298476,-49.735904,1,16.75322
1,Anadia/AL,-9.6830208,-36.3052699,361,2057.56626
D1,Anadia/AL,-9.6830208,-36.3052699,5,28.49815
1,Anagé/BA,-14.6134669,-41.1376308,58,263.57646
D1,Anagé/BA,-14.6134669,-41.1376308,1,4.54442
1,Anahy/PR,-24.6450861,-53.1337957,22,785.43377
1,Anajatuba/MA,-3.26441,-44.6179916,286,1067.04473
D1,Anajatuba/MA,-3.26441,-44.6179916,6,22.38555
1,Anajás/PA,-0.9878802,-49.9390114,520,1776.13827
D1,Anajás/PA,-0.9878802,-49.9390114,11,37.57216
1,Analândia/SP,-22.128917,-47.661939,19,380.38038
1,Anamã/AM,-3.5797356,-61.4049996,445,3268.69399
1,Ananindeua/PA,-1.374035,-48.4016623,5741,1081.98674
D1,Ananindeua/PA,-1.374035,-48.4016623,337,63.51324
1,Ananás/TO,-6.3663053,-48.080238,100,1047.23008
D1,Ananás/TO,-6.3663053,-48.080238,3,31.41690
1,Anapu/PA,-3.4668292,-51.2057035,579,2076.01291
D1,Anapu/PA,-3.4668292,-51.2057035,9,32.26963
1,Anapurus/MA,-3.6751298,-43.1046001,646,4106.28019
D1,Anapurus/MA,-3.6751298,-43.1046001,6,38.13883
1,Anastácio/MS,-20.4832458,-55.8048448,49,194.94728
D1,Anastácio/MS,-20.4832458,-55.8048448,3,11.93555
1,Anaurilândia/MS,-22.185169,-52.719056,22,243.49751
1,Anchieta/ES,-20.8057672,-40.6454564,550,1879.50654
D1,Anchieta/ES,-20.8057672,-40.6454564,15,51.25927
1,Anchieta/SC,-26.5350527,-53.3293938,19,336.99894
1,Andaraí/BA,-12.8059674,-41.3322919,17,129.34642
1,Andirá/PR,-23.0494761,-50.2310027,86,429.33453
D1,Andirá/PR,-23.0494761,-50.2310027,1,4.99226
1,Andorinha/BA,-10.3445708,-39.8334411,29,198.69818
D1,Andorinha/BA,-10.3445708,-39.8334411,1,6.85166
1,Andradas/MG,-22.0680484,-46.5688976,69,167.97721
D1,Andradas/MG,-22.0680484,-46.5688976,1,2.43445
1,Andradina/SP,-20.896505,-51.3742765,131,229.19327
D1,Andradina/SP,-20.896505,-51.3742765,6,10.49740
1,Andrelândia/MG,-21.739722,-44.308889,30,245.41885
1,André da Rocha/RS,-28.6309124,-51.5733328,5,375.09377
1,Angatuba/SP,-23.4938938,-48.4110675,121,479.62581
D1,Angatuba/SP,-23.4938938,-48.4110675,2,7.92770
1,Angelim/PE,-8.8902038,-36.2872987,35,313.90135
D1,Angelim/PE,-8.8902038,-36.2872987,1,8.96861
1,Angelina/SC,-27.5805287,-48.9838759,41,853.98875
1,Angical do Piauí/PI,-6.0872666,-42.7366138,54,795.52151
D1,Angical do Piauí/PI,-6.0872666,-42.7366138,2,29.46376
1,Angical/BA,-12.005623,-44.7000236,18,128.78300
1,Angico/TO,-6.3893733,-47.8656722,21,611.70987
1,Angicos/RN,-5.6666344,-36.6009064,87,742.70104
D1,Angicos/RN,-5.6666344,-36.6009064,3,25.61038
1,Angra dos Reis/RJ,-23.0063966,-44.316326,3678,1804.84334
D1,Angra dos Reis/RJ,-23.0063966,-44.316326,111,54.46917
1,Anguera/BA,-12.1509425,-39.2452469,44,392.12191
1,Angélica/MS,-22.1588196,-53.7728504,31,287.56957
D1,Angélica/MS,-22.1588196,-53.7728504,2,18.55288
1,Anhanguera/GO,-18.3338749,-48.220363,14,1218.45083
D1,Anhanguera/GO,-18.3338749,-48.220363,2,174.06440
1,Anhembi/SP,-22.7891096,-48.1316776,5,74.36050
1,Anhumas/SP,-22.2956478,-51.3873401,16,388.82139
1,Anicuns/GO,-16.4606451,-49.9572265,250,1144.16476
1,Anita Garibaldi/SC,-27.6855032,-51.1293873,91,1275.76055
D1,Anita Garibaldi/SC,-27.6855032,-51.1293873,1,14.01935
1,Anitápolis/SC,-27.9041185,-49.1287395,20,618.81188
1,Anori/AM,-3.7435254,-61.6605203,709,3374.58353
D1,Anori/AM,-3.7435254,-61.6605203,11,52.35602
1,Anta Gorda/RS,-28.9718745,-52.0069187,23,384.55108
1,Antas/BA,-10.4114649,-38.3308815,54,279.92328
1,Antonina do Norte/CE,-6.7754187,-39.9879345,12,163.19869
1,Antonina/PR,-25.4298854,-48.7125431,90,474.18335
D1,Antonina/PR,-25.4298854,-48.7125431,1,5.26870
1,Antônio Almeida/PI,-7.2186016,-44.1950248,93,2939.31732
D1,Antônio Almeida/PI,-7.2186016,-44.1950248,1,31.60556
1,Antônio Cardoso/BA,-12.4363122,-39.1200307,30,256.78336
1,Antônio Carlos/MG,-21.318334,-43.746666,20,174.74880
1,Antônio Carlos/SC,-27.5168462,-48.7684715,170,1996.94585
D1,Antônio Carlos/SC,-27.5168462,-48.7684715,8,93.97392
1,Antônio Dias/MG,-19.6525,-42.872778,49,525.86392
D1,Antônio Dias/MG,-19.6525,-42.872778,1,10.73192
1,Antônio Gonçalves/BA,-10.5715409,-40.2748824,97,822.17325
D1,Antônio Gonçalves/BA,-10.5715409,-40.2748824,1,8.47601
1,Antônio João/MS,-22.1892837,-55.9508227,28,312.63957
1,Antônio Martins/RN,-6.2155812,-37.8890129,3,41.98740
D1,Antônio Martins/RN,-6.2155812,-37.8890129,1,13.99580
1,Antônio Olinto/PR,-25.9849006,-50.1974516,9,121.06538
1,Antônio Prado/RS,-28.8567806,-51.2801355,41,314.17625
D1,Antônio Prado/RS,-28.8567806,-51.2801355,2,15.32567
1,Anápolis/GO,-16.3332828,-48.9525756,2394,618.72776
D1,Anápolis/GO,-16.3332828,-48.9525756,72,18.60835
1,Anísio de Abreu/PI,-9.185643,-43.04941,89,900.80972
1,Aparecida d'Oeste/SP,-20.4498109,-50.8808706,13,309.81888
1,Aparecida de Goiânia/GO,-16.8226769,-49.2452546,8909,1540.87229
D1,Aparecida de Goiânia/GO,-16.8226769,-49.2452546,146,25.25170
1,Aparecida do Rio Doce/GO,-18.2980167,-51.1491312,30,1212.61116
D1,Aparecida do Rio Doce/GO,-18.2980167,-51.1491312,2,80.84074
1,Aparecida do Rio Negro/TO,-9.9513491,-47.9773786,14,291.97080
1,Aparecida do Taboado/MS,-20.0840304,-51.1013943,140,543.79491
D1,Aparecida do Taboado/MS,-20.0840304,-51.1013943,3,11.65275
1,Aparecida/PB,-6.7859598, -38.0831353,56,670.89972
D1,Aparecida/PB,-6.7859598, -38.0831353,1,11.98035
1,Aparecida/SP,-22.851552,-45.2340924,92,254.44589
D1,Aparecida/SP,-22.851552,-45.2340924,1,2.76572
1,Aperibé/RJ,-21.6211928,-42.1028167,131,1114.04031
D1,Aperibé/RJ,-21.6211928,-42.1028167,5,42.52062
1,Apiacá/ES,-21.152272,-41.569297,89,1176.15964
D1,Apiacá/ES,-21.152272,-41.569297,2,26.43055
1,Apiacás/MT,-9.5678422,-57.394852,4,39.47498
D1,Apiacás/MT,-9.5678422,-57.394852,1,9.86875
1,Apiaí/SP,-24.5076527,-48.8461582,63,258.47214
D1,Apiaí/SP,-24.5076527,-48.8461582,3,12.30820
1,Apicum-Açu/MA,-1.5279295,-45.082278,197,1142.75770
D1,Apicum-Açu/MA,-1.5279295,-45.082278,3,17.40240
1,Apiúna/SC,-27.0374658,-49.3885037,36,335.10193
1,Apodi/RN,-5.6631109,-37.796927,1180,3291.95146
D1,Apodi/RN,-5.6631109,-37.796927,19,53.00600
1,Aporá/BA,-11.6599747,-38.0794757,70,394.78879
D1,Aporá/BA,-11.6599747,-38.0794757,2,11.27968
1,Apuarema/BA,-13.8517897,-39.7457126,169,2305.59345
1,Apucarana/PR,-23.5525327,-51.4610764,300,222.22881
D1,Apucarana/PR,-23.5525327,-51.4610764,12,8.88915
1,Apuiarés/CE,-3.9460303,-39.4313298,185,1267.12329
D1,Apuiarés/CE,-3.9460303,-39.4313298,11,75.34247
1,Apuí/AM,-7.1940195,-59.8830192,100,455.10399
1,Aquidabã/SE,-10.2837579,-37.0188687,341,1581.41260
D1,Aquidabã/SE,-10.2837579,-37.0188687,8,37.10059
1,Aquidauana/MS,-20.473969,-55.7821375,185,386.45527
D1,Aquidauana/MS,-20.473969,-55.7821375,8,16.71158
1,Aquiraz/CE,-3.9063117,-38.387504,811,1010.32752
D1,Aquiraz/CE,-3.9063117,-38.387504,26,32.39028
1,Arabutã/SC,-27.1587028,-52.1438142,44,1031.16944
1,Aracaju/SE,-10.9162061,-37.0774655,27474,4181.65242
D1,Aracaju/SE,-10.9162061,-37.0774655,525,79.90709
1,Aracati/CE,-4.558259,-37.767894,1271,1704.96465
D1,Aracati/CE,-4.558259,-37.767894,46,61.70604
1,Aracatu/BA,-14.4274236,-41.4604105,23,175.10468
1,Araci/BA,-11.3356065,-38.9573261,635,1167.73019
D1,Araci/BA,-11.3356065,-38.9573261,4,7.35578
1,Aracoiaba/CE,-4.3702577,-38.8084313,643,2429.25687
D1,Aracoiaba/CE,-4.3702577,-38.8084313,11,41.55805
1,Aracruz/ES,-19.8245218,-40.2735025,2253,2225.84469
D1,Aracruz/ES,-19.8245218,-40.2735025,52,51.37325
1,Aragarças/GO,-15.8957166,-52.2514538,286,1421.61249
D1,Aragarças/GO,-15.8957166,-52.2514538,4,19.88269
1,Aragoiânia/GO,-16.9146388,-49.4499148,116,1125.33954
D1,Aragoiânia/GO,-16.9146388,-49.4499148,1,9.70120
1,Aragominas/TO,-7.1654101,-48.525488,56,972.55992
D1,Aragominas/TO,-7.1654101,-48.525488,2,34.73428
1,Araguacema/TO,-8.8067391,-49.5560969,3,42.33700
1,Araguaiana/MT,-15.729144,-51.834112,11,354.83871
1,Araguainha/MT,-16.857016,-53.031778,1,106.95187
1,Araguanã/MA,-2.9508403,-45.6651986,453,2936.60054
D1,Araguanã/MA,-2.9508403,-45.6651986,2,12.96512
1,Araguanã/TO,-6.5799107,-48.6428482,65,1134.57846
D1,Araguanã/TO,-6.5799107,-48.6428482,3,52.36516
1,Araguapaz/GO,-15.0937927,-50.626417,44,566.28057
D1,Araguapaz/GO,-15.0937927,-50.626417,1,12.87001
1,Araguari/MG,-18.6511256,-48.1933764,1338,1140.98596
D1,Araguari/MG,-18.6511256,-48.1933764,27,23.02438
1,Araguatins/TO,-5.6522925,-48.1158973,326,911.60762
D1,Araguatins/TO,-5.6522925,-48.1158973,19,53.13051
1,Araguaçu/TO,-12.928934,-49.823134,183,2148.64389
D1,Araguaçu/TO,-12.928934,-49.823134,4,46.96489
1,Araguaína/TO,-7.193241,-48.2018597,6848,3794.53649
D1,Araguaína/TO,-7.193241,-48.2018597,90,49.86978
1,Araioses/MA,-2.890914,-41.904993,513,1104.65116
D1,Araioses/MA,-2.890914,-41.904993,9,19.37984
1,Aral Moreira/MS,-22.951141,-55.6268421,25,205.77825
D1,Aral Moreira/MS,-22.951141,-55.6268421,1,8.23113
1,Aramari/BA,-12.0907897,-38.4985065,68,596.64824
1,Arambaré/RS,-30.9132252,-51.4994625,10,279.25161
D1,Arambaré/RS,-30.9132252,-51.4994625,1,27.92516
1,Arame/MA,-4.8858769,-46.0102484,455,1391.39476
D1,Arame/MA,-4.8858769,-46.0102484,4,12.23204
1,Aramina/SP,-20.0876144,-47.789201,34,604.98221
D1,Aramina/SP,-20.0876144,-47.789201,1,17.79359
1,Arandu/SP,-23.1345103,-49.0545651,15,235.96036
D1,Arandu/SP,-23.1345103,-49.0545651,2,31.46138
1,Arantina/MG,-21.911667,-44.255833,4,143.11270
D1,Arantina/MG,-21.911667,-44.255833,1,35.77818
1,Arapeí/SP,-22.6738889,-44.4477778,2,81.00446
D1,Arapeí/SP,-22.6738889,-44.4477778,1,40.50223
1,Arapiraca/AL,-9.754866,-36.661471,4871,2101.86108
D1,Arapiraca/AL,-9.754866,-36.661471,100,43.15050
1,Arapoema/TO,-7.6575001,-49.0641484,26,391.38943
D1,Arapoema/TO,-7.6575001,-49.0641484,2,30.10688
1,Arapongas/PR,-23.415296,-51.42592,741,602.30681
D1,Arapongas/PR,-23.415296,-51.42592,24,19.50791
1,Araporã/MG,-18.4318188,-49.188313,97,1412.14151
D1,Araporã/MG,-18.4318188,-49.188313,2,29.11632
1,Arapoti/PR,-24.1457957,-49.8224605,128,455.27299
D1,Arapoti/PR,-24.1457957,-49.8224605,1,3.55682
1,Araputanga/MT,-15.4710868,-58.346796,53,315.06361
D1,Araputanga/MT,-15.4710868,-58.346796,2,11.88919
1,Arapuá/MG,-19.034444,-46.155556,17,599.85886
1,Arapuã/PR,-24.3079525,-51.7901941,21,684.48501
D1,Arapuã/PR,-24.3079525,-51.7901941,1,32.59452
1,Araquari/SC,-26.3703324,-48.7210994,410,1075.29702
D1,Araquari/SC,-26.3703324,-48.7210994,3,7.86803
1,Arara/PB,-6.8271895,-35.7605703,173,1284.33556
D1,Arara/PB,-6.8271895,-35.7605703,3,22.27171
1,Araranguá/SC,-28.9348832,-49.4858389,461,675.67568
D1,Araranguá/SC,-28.9348832,-49.4858389,8,11.72539
1,Araraquara/SP,-21.7886713,-48.1773096,1633,691.73811
D1,Araraquara/SP,-21.7886713,-48.1773096,16,6.77759
1,Araras/SP,-22.3569477,-47.3838889,1203,896.18284
D1,Araras/SP,-22.3569477,-47.3838889,33,24.58357
1,Ararendá/CE,-4.7504395,-40.8303611,39,356.65295
D1,Ararendá/CE,-4.7504395,-40.8303611,2,18.28989
1,Arari/MA,-3.4547602,-44.7772723,193,646.60949
D1,Arari/MA,-3.4547602,-44.7772723,6,20.10185
1,Araricá/RS,-29.6168543,-50.929121,32,561.60056
D1,Araricá/RS,-29.6168543,-50.929121,3,52.65005
1,Araripe/CE,-7.212861,-40.1359222,158,731.48148
D1,Araripe/CE,-7.212861,-40.1359222,2,9.25926
1,Araripina/PE,-7.5768582,-40.5038509,563,666.91938
D1,Araripina/PE,-7.5768582,-40.5038509,13,15.39956
1,Araruama/RJ,-22.8733203,-42.3428897,540,407.85498
D1,Araruama/RJ,-22.8733203,-42.3428897,41,30.96677
1,Araruna/PB,-6.5321155,-35.7397595,220,1083.10358
D1,Araruna/PB,-6.5321155,-35.7397595,6,29.53919
1,Araruna/PR,-23.9320308,-52.4976047,64,458.12455
D1,Araruna/PR,-23.9320308,-52.4976047,3,21.47459
1,Arataca/BA,-15.2617424,-39.4122943,94,853.07197
D1,Arataca/BA,-15.2617424,-39.4122943,1,9.07523
1,Aratiba/RS,-27.3955734,-52.3024325,22,352.84683
1,Aratuba/CE,-4.4195958,-39.0463737,176,1485.60817
D1,Aratuba/CE,-4.4195958,-39.0463737,1,8.44096
1,Aratuípe/BA,-13.077137,-39.0010786,28,317.28045
D1,Aratuípe/BA,-13.077137,-39.0010786,1,11.33144
1,Araucária/PR,-25.5861107,-49.4051209,1288,895.42070
D1,Araucária/PR,-25.5861107,-49.4051209,20,13.90405
1,Arauá/SE,-11.2644014,-37.6181058,240,2386.63484
D1,Arauá/SE,-11.2644014,-37.6181058,5,49.72156
1,Araxá/MG,-19.5928536,-46.940241,405,381.25182
D1,Araxá/MG,-19.5928536,-46.940241,8,7.53090
1,Araçagi/PB,-6.8519969,-35.3835602,447,2631.42403
D1,Araçagi/PB,-6.8519969,-35.3835602,3,17.66056
1,Araçariguama/SP,-23.438611,-47.061389,134,599.17725
D1,Araçariguama/SP,-23.438611,-47.061389,4,17.88589
1,Araças/BA,-12.2139176,-38.2026159,33,271.00271
1,Araçatuba/SP,-21.207992,-50.4390225,3232,1640.47590
D1,Araçatuba/SP,-21.207992,-50.4390225,74,37.56040
1,Araçaí/MG,-19.200833,-44.2475,4,170.43034
1,Araçoiaba da Serra/SP,-23.5045367,-47.6168158,231,676.50677
D1,Araçoiaba da Serra/SP,-23.5045367,-47.6168158,6,17.57160
1,Araçoiaba/PE,-7.7856903,-35.0898881,85,414.14929
D1,Araçoiaba/PE,-7.7856903,-35.0898881,11,53.59579
1,Araçu/GO,-16.3561579,-49.6815269,10,283.92959
1,Araçuaí/MG,-16.8484451,-42.0661868,24,65.38084
1,Araújos/MG,-19.948055,-45.165556,15,161.75995
1,Arceburgo/MG,-21.364444,-46.939722,20,185.66654
1,Arcos/MG,-20.282223,-45.539444,106,264.39190
D1,Arcos/MG,-20.282223,-45.539444,1,2.49426
1,Arcoverde/PE,-8.415192,-37.057748,529,711.61452
D1,Arcoverde/PE,-8.415192,-37.057748,26,34.97538
1,Areal/RJ,-22.2314922,-43.1056264,119,946.54788
D1,Areal/RJ,-22.2314922,-43.1056264,3,23.86255
1,Arealva/SP,-22.0301906,-48.9111936,46,537.38318
1,Areia Branca/RN,-4.9506652,-37.1263312,655,2358.32073
D1,Areia Branca/RN,-4.9506652,-37.1263312,47,169.22301
1,Areia Branca/SE,-10.7591455,-37.3148072,516,2782.87132
D1,Areia Branca/SE,-10.7591455,-37.3148072,11,59.32478
1,Areia de Baraúnas/PB,-7.1233949,-36.9446216,10,469.92481
1,Areia/PB,-6.9680243,-35.6994783,309,1354.13471
D1,Areia/PB,-6.9680243,-35.6994783,2,8.76463
1,Areial/PB,-7.0501306,-35.9245244,41,585.88168
D1,Areial/PB,-7.0501306,-35.9245244,2,28.57959
1,Areias/SP,-22.5800929,-44.6975127,26,669.06845
1,Areiópolis/SP,-22.6758064,-48.6673653,35,314.49367
D1,Areiópolis/SP,-22.6758064,-48.6673653,3,26.95660
1,Arenápolis/MT,-14.4610369,-56.8432806,70,728.63537
D1,Arenápolis/MT,-14.4610369,-56.8432806,1,10.40908
1,Arenópolis/GO,-16.3859286,-51.55937,1,38.28484
1,Argirita/MG,-21.612761,-42.8371922,4,146.68133
D1,Argirita/MG,-21.612761,-42.8371922,1,36.67033
1,Aricanduva/MG,-17.8678,-42.5569,1,19.11680
1,Arinos/MG,-15.917223,-46.106111,40,223.77622
1,Aripuanã/MT,-10.175806,-59.4439663,89,398.13904
D1,Aripuanã/MT,-10.175806,-59.4439663,2,8.94694
1,Ariquemes/RO,-9.9076522,-63.033069,2483,2301.99420
D1,Ariquemes/RO,-9.9076522,-63.033069,40,37.08408
1,Ariranha/SP,-21.18716,-48.790418,67,693.00786
D1,Ariranha/SP,-21.18716,-48.790418,2,20.68680
1,Armazém/SC,-28.2624996,-49.0190126,121,1394.97348
D1,Armazém/SC,-28.2624996,-49.0190126,1,11.52871
1,Armação dos Búzios/RJ,-22.7597805,-41.8875267,240,708.59167
D1,Armação dos Búzios/RJ,-22.7597805,-41.8875267,10,29.52465
1,Arneiroz/CE,-6.3235099,-40.1603859,40,510.20408
D1,Arneiroz/CE,-6.3235099,-40.1603859,2,25.51020
1,Aroazes/PI,-6.1108814,-41.7886137,27,462.72494
D1,Aroazes/PI,-6.1108814,-41.7886137,1,17.13796
1,Aroeiras do Itaim/PI,-7.2797031,-41.5629681,8,313.60251
1,Aroeiras/PB,-7.5462904,-35.7080002,162,845.82050
1,Arraial do Cabo/RJ,-22.9662839,-42.024427,112,369.04017
D1,Arraial do Cabo/RJ,-22.9662839,-42.024427,5,16.47501
1,Arraias/TO,-12.9287788,-46.9437231,14,132.48793
1,Arroio Grande/RS,-32.2384246,-53.0866661,17,92.93172
1,Arroio Trinta/SC,-26.9301976,-51.334928,33,929.57746
1,Arroio do Meio/RS,-29.4020392,-51.9444993,226,1086.27734
1,Arroio do Sal/RS,-29.549852,-49.8874395,37,367.61053
D1,Arroio do Sal/RS,-29.549852,-49.8874395,2,19.87084
1,Arroio do Tigre/RS,-29.334158,-53.0888935,2,14.95551
1,Arroio dos Ratos/RS,-30.0894524,-51.7265541,49,346.26528
D1,Arroio dos Ratos/RS,-30.0894524,-51.7265541,4,28.26655
1,Artur Nogueira/SP,-22.572737,-47.172679,229,420.89399
D1,Artur Nogueira/SP,-22.572737,-47.172679,3,5.51390
1,Aruanã/GO,-14.9162439,-51.0715692,23,232.91139
1,Arujá/SP,-23.396266,-46.3175449,963,1072.09654
D1,Arujá/SP,-23.396266,-46.3175449,56,62.34414
1,Arvoredo/SC,-27.0752908,-52.4571847,26,1160.71429
D1,Arvoredo/SC,-27.0752908,-52.4571847,1,44.64286
1,Arvorezinha/RS,-28.87369,-52.17808,20,191.86493
D1,Arvorezinha/RS,-28.87369,-52.17808,1,9.59325
1,Arês/RN,-6.1969216,-35.1642968,180,1258.21334
D1,Arês/RN,-6.1969216,-35.1642968,4,27.96030
1,Ascurra/SC,-26.9569975,-49.3767752,57,718.42702
D1,Ascurra/SC,-26.9569975,-49.3767752,1,12.60398
1,Aspásia/SP,-20.160028,-50.728046,23,1262.34907
1,Assaré/CE,-6.8746791,-39.8741385,204,871.16198
D1,Assaré/CE,-6.8746791,-39.8741385,4,17.08161
1,Assaí/PR,-23.3736041,-50.8454929,54,357.16648
D1,Assaí/PR,-23.3736041,-50.8454929,7,46.29936
1,Assis Brasil/AC,-10.9409203,-69.5672108,305,4112.17473
D1,Assis Brasil/AC,-10.9409203,-69.5672108,5,67.41270
1,Assis Chateaubriand/PR,-24.4054826,-53.5120468,194,581.49991
D1,Assis Chateaubriand/PR,-24.4054826,-53.5120468,4,11.98969
1,Assis/SP,-22.6620892,-50.420623,547,524.01663
D1,Assis/SP,-22.6620892,-50.420623,17,16.28571
1,Assunção do Piauí/PI,-5.8610212,-41.0485091,102,1300.02549
D1,Assunção do Piauí/PI,-5.8610212,-41.0485091,1,12.74535
1,Assunção/PB,-7.073396,-36.7274003,41,1027.56892
1,Astolfo Dutra/MG,-21.3132636,-42.8624102,60,423.16101
D1,Astolfo Dutra/MG,-21.3132636,-42.8624102,2,14.10537
1,Astorga/PR,-23.2350184,-51.6647074,111,425.10819
D1,Astorga/PR,-23.2350184,-51.6647074,2,7.65961
1,Atalaia do Norte/AM,-4.3658547,-70.1908742,730,3664.47467
D1,Atalaia do Norte/AM,-4.3658547,-70.1908742,4,20.07931
1,Atalaia/AL,-9.5029595,-36.0219316,486,1029.98834
D1,Atalaia/AL,-9.5029595,-36.0219316,16,33.90908
1,Atalaia/PR,-23.1513833,-52.0529697,24,616.64954
1,Atalanta/SC,-27.421916,-49.778863,11,342.67913
1,Ataléia/MG,-18.04432,-41.1110524,52,404.10320
D1,Ataléia/MG,-18.04432,-41.1110524,4,31.08486
1,Atibaia/SP,-23.1177393,-46.5547861,586,410.47625
D1,Atibaia/SP,-23.1177393,-46.5547861,26,18.21226
1,Atilio Vivacqua/ES,-20.9139369,-41.1947519,198,1658.84718
D1,Atilio Vivacqua/ES,-20.9139369,-41.1947519,2,16.75603
1,Augustinópolis/TO,-5.4662267,-47.8897519,425,2308.27721
D1,Augustinópolis/TO,-5.4662267,-47.8897519,5,27.15620
1,Augusto Corrêa/PA,-1.0229335,-46.6404029,1027,2232.70577
D1,Augusto Corrêa/PA,-1.0229335,-46.6404029,20,43.48015
1,Augusto de Lima/MG,-18.1092963,-44.2651945,17,349.14767
1,Aurelino Leal/BA,-14.3167137,-39.3256107,297,2575.66560
D1,Aurelino Leal/BA,-14.3167137,-39.3256107,2,17.34455
1,Auriflama/SP,-20.6840418,-50.5554616,151,994.14050
D1,Auriflama/SP,-20.6840418,-50.5554616,6,39.50227
1,Aurilândia/GO,-16.6772599,-50.4641231,15,480.76923
1,Aurora do Pará/PA,-2.1323199,-47.558436,545,1739.10269
D1,Aurora do Pará/PA,-2.1323199,-47.558436,7,22.33710
1,Aurora do Tocantins/TO,-12.71045,-46.407604,14,372.63774
1,Aurora/CE,-6.9426019,-38.9693765,141,571.91531
D1,Aurora/CE,-6.9426019,-38.9693765,8,32.44910
1,Aurora/SC,-27.3166417,-49.6368502,42,739.56683
1,Autazes/AM,-3.5833283,-59.1301518,1146,2896.49943
D1,Autazes/AM,-3.5833283,-59.1301518,35,88.46202
1,Avanhandava/SP,-21.4603331,-49.9465156,24,175.83706
D1,Avanhandava/SP,-21.4603331,-49.9465156,2,14.65309
1,Avaré/SP,-23.1045215,-48.9259103,224,247.09062
D1,Avaré/SP,-23.1045215,-48.9259103,11,12.13391
1,Avaí/SP,-22.1564662,-49.3316395,26,481.21414
1,Aveiro/PA,-3.6049239,-55.3310742,325,1983.15841
D1,Aveiro/PA,-3.6049239,-55.3310742,4,24.40810
1,Avelino Lopes/PI,-10.1346855,-43.9489525,11,97.43999
D1,Avelino Lopes/PI,-10.1346855,-43.9489525,1,8.85818
1,Avelinópolis/GO,-16.4672409,-49.7578661,23,951.59288
D1,Avelinópolis/GO,-16.4672409,-49.7578661,1,41.37360
1,Axixá do Tocantins/TO,-5.612747,-47.77007,114,1168.51169
D1,Axixá do Tocantins/TO,-5.612747,-47.77007,3,30.75031
1,Axixá/MA,-2.8379465,-44.0561053,120,989.28277
D1,Axixá/MA,-2.8379465,-44.0561053,2,16.48805
1,Açailândia/MA,-4.9514278,-47.4844564,2796,2486.54898
D1,Açailândia/MA,-4.9514278,-47.4844564,67,59.58469
1,Açu/RN,-5.5836157,-36.9139541,818,1409.93157
D1,Açu/RN,-5.5836157,-36.9139541,40,68.94531
1,Açucena/MG,-19.073056,-42.546666,30,316.78986
D1,Açucena/MG,-19.073056,-42.546666,1,10.55966
1,Babaçulândia/TO,-7.2034355,-47.761613,52,487.62191
1,Bacabal/MA,-4.2318132,-44.781167,2999,2857.57844
D1,Bacabal/MA,-4.2318132,-44.781167,41,39.06659
1,Bacabeira/MA,-2.9775747,-44.3155943,130,762.23981
D1,Bacabeira/MA,-2.9775747,-44.3155943,2,11.72677
1,Bacuri/MA,-1.728894,-45.1417148,386,2077.27909
D1,Bacuri/MA,-1.728894,-45.1417148,3,16.14466
1,Bacurituba/MA,-2.7082587,-44.7381309,22,389.79447
1,Bady Bassitt/SP,-20.9178969,-49.4517911,305,1742.65798
D1,Bady Bassitt/SP,-20.9178969,-49.4517911,11,62.84996
1,Baependi/MG,-21.959162,-44.8899249,32,167.11928
1,Bagre/PA,-1.8994498,-50.2103844,260,847.65103
D1,Bagre/PA,-1.8994498,-50.2103844,9,29.34177
1,Bagé/RS,-31.3314264,-54.1062808,335,276.53269
D1,Bagé/RS,-31.3314264,-54.1062808,4,3.30188
1,Baianópolis/BA,-12.3067564,-44.5383591,9,64.85552
1,Baixa Grande do Ribeiro/PI,-7.862861,-45.2113289,272,2347.66097
D1,Baixa Grande do Ribeiro/PI,-7.862861,-45.2113289,4,34.52443
1,Baixa Grande/BA,-11.9630941,-40.1657537,11,53.74243
1,Baixio/CE,-6.7303544,-38.7170095,26,413.48601
1,Baixo Guandu/ES,-19.5138322,-41.0182089,446,1438.80250
D1,Baixo Guandu/ES,-19.5138322,-41.0182089,10,32.26015
1,Baião/PA,-2.7903479,-49.6702845,267,562.74502
D1,Baião/PA,-2.7903479,-49.6702845,14,29.50723
1,Balbinos/SP,-21.9006253,-49.3583966,22,383.60942
1,Baldim/MG,-19.2913568,-43.9558262,13,166.11296
D1,Baldim/MG,-19.2913568,-43.9558262,1,12.77792
1,Baliza/GO,-16.1978119,-52.542789,5,97.31413
1,Balneário Arroio do Silva/SC,-28.9815269,-49.4189932,122,933.36394
D1,Balneário Arroio do Silva/SC,-28.9815269,-49.4189932,3,22.95157
1,Balneário Barra do Sul/SC,-26.459842,-48.6061471,161,1491.43122
1,Balneário Camboriú/SC,-26.9924395,-48.6339782,3979,2796.30345
D1,Balneário Camboriú/SC,-26.9924395,-48.6339782,35,24.59679
1,Balneário Gaivota/SC,-29.1553098,-49.5808712,59,537.38956
D1,Balneário Gaivota/SC,-29.1553098,-49.5808712,3,27.32489
1,Balneário Pinhal/RS,-30.2482978,-50.234585,39,277.22491
D1,Balneário Pinhal/RS,-30.2482978,-50.234585,1,7.10833
1,Balneário Piçarras/SC,-26.7638889,-48.6716667,259,1118.93550
D1,Balneário Piçarras/SC,-26.7638889,-48.6716667,2,8.64043
1,Balneário Rincão/SC,-28.8235718,-49.2241642,124,971.78683
D1,Balneário Rincão/SC,-28.8235718,-49.2241642,5,39.18495
1,Balsa Nova/PR,-25.5842234,-49.6312741,138,1066.37818
D1,Balsa Nova/PR,-25.5842234,-49.6312741,3,23.18213
1,Balsas/MA,-7.53214,-46.037163,2243,2363.86439
D1,Balsas/MA,-7.53214,-46.037163,16,16.86216
1,Bambuí/MG,-20.0131996,-45.9777034,20,83.93134
1,Banabuiú/CE,-5.3046404,-38.919766,395,2170.68748
D1,Banabuiú/CE,-5.3046404,-38.919766,2,10.99082
1,Bananal/SP,-22.6828195,-44.3221095,44,402.01005
1,Bananeiras/PB,-6.7537682,-35.6338343,147,689.55812
D1,Bananeiras/PB,-6.7537682,-35.6338343,2,9.38174
1,Bandeira do Sul/MG,-21.728056,-46.385555,5,87.01706
1,Bandeira/MG,-15.884444,-40.559167,198,4129.30136
D1,Bandeira/MG,-15.884444,-40.559167,1,20.85506
1,Bandeirante/SC,-26.7677402,-53.6397596,1,37.34130
1,Bandeirantes do Tocantins/TO,-7.7635698,-48.579148,21,591.04982
D1,Bandeirantes do Tocantins/TO,-7.7635698,-48.579148,1,28.14523
1,Bandeirantes/MS,-19.9179623,-54.3646768,33,486.15203
1,Bandeirantes/PR,-23.107788,-50.370407,145,462.26926
D1,Bandeirantes/PR,-23.107788,-50.370407,4,12.75226
1,Bannach/PA,-7.3508505,-50.4064531,67,2038.95313
D1,Bannach/PA,-7.3508505,-50.4064531,2,60.86427
1,Banzaê/BA,-10.5827616,-38.6122305,71,536.69967
1,Baraúna/PB,-6.643394,-36.2531932,129,2636.95830
1,Baraúna/RN,-5.0775002,-37.61752,322,1134.84176
D1,Baraúna/RN,-5.0775002,-37.61752,11,38.76789
1,Barbacena/MG,-21.2254524,-43.7735087,496,361.21853
D1,Barbacena/MG,-21.2254524,-43.7735087,7,5.09784
1,Barbalha/CE,-7.3121067,-39.3036427,850,1398.46334
D1,Barbalha/CE,-7.3121067,-39.3036427,34,55.93853
1,Barbosa Ferraz/PR,-24.0287182,-52.00811,67,579.18396
D1,Barbosa Ferraz/PR,-24.0287182,-52.00811,2,17.28907
1,Barbosa/SP,-21.265661,-49.951816,27,364.76628
1,Barcarena/PA,-1.5107945,-48.6190679,3320,2662.81681
D1,Barcarena/PA,-1.5107945,-48.6190679,103,82.61149
1,Barcelona/RN,-5.9514918,-35.9260284,27,675.33767
1,Barcelos/AM,-0.9729214,-62.925635,2078,7555.81412
D1,Barcelos/AM,-0.9729214,-62.925635,24,87.26638
1,Bariri/SP,-22.0746355,-48.7394852,197,558.64338
D1,Bariri/SP,-22.0746355,-48.7394852,7,19.85027
1,Barra Bonita/SP,-22.490859,-48.558349,286,791.67359
D1,Barra Bonita/SP,-22.490859,-48.558349,6,16.60854
1,Barra D'Alcântara/PI,-6.5209258,-42.1071089,7,177.17034
1,Barra Funda/RS,-27.9230048,-53.0401045,14,551.39819
1,Barra Longa/MG,-20.2833541,-43.0423516,56,1091.40518
1,Barra Mansa/RJ,-22.5394843,-44.1735129,766,415.37427
D1,Barra Mansa/RJ,-22.5394843,-44.1735129,53,28.74000
1,Barra Velha/SC,-26.6338203,-48.6835001,254,870.81733
D1,Barra Velha/SC,-26.6338203,-48.6835001,1,3.42841
1,Barra da Estiva/BA,-13.6269662,-41.3278287,5,24.27420
1,Barra de Guabiraba/PE,-8.4173522,-35.6626669,142,987.13938
D1,Barra de Guabiraba/PE,-8.4173522,-35.6626669,10,69.51686
1,Barra de Santa Rosa/PB,-6.7218007,-36.0564638,47,305.51222
D1,Barra de Santa Rosa/PB,-6.7218007,-36.0564638,1,6.50026
1,Barra de Santana/PB,-7.5230865,-35.9988518,81,969.01543
D1,Barra de Santana/PB,-7.5230865,-35.9988518,2,23.92631
1,Barra de Santo Antônio/AL,-9.4038098,-35.5117693,110,690.43435
D1,Barra de Santo Antônio/AL,-9.4038098,-35.5117693,7,43.93673
1,Barra de São Francisco/ES,-18.7570902,-40.8916119,295,660.69429
D1,Barra de São Francisco/ES,-18.7570902,-40.8916119,10,22.39642
1,Barra de São Miguel/AL,-9.8261357,-35.8837777,120,1441.96107
D1,Barra de São Miguel/AL,-9.8261357,-35.8837777,5,60.08171
1,Barra de São Miguel/PB,-7.7528088,-36.3170996,36,596.42147
D1,Barra de São Miguel/PB,-7.7528088,-36.3170996,1,16.56726
1,Barra do Bugres/MT,-15.0683712,-57.1853688,86,245.95321
D1,Barra do Bugres/MT,-15.0683712,-57.1853688,3,8.57976
1,Barra do Chapéu/SP,-24.472203,-49.023784,26,454.22781
1,Barra do Choça/BA,-14.8638173,-40.5761637,266,841.69224
D1,Barra do Choça/BA,-14.8638173,-40.5761637,2,6.32851
1,Barra do Corda/MA,-5.496823,-45.248496,2469,2798.93892
D1,Barra do Corda/MA,-5.496823,-45.248496,19,21.53902
1,Barra do Garças/MT,-15.8916033,-52.2615413,385,631.02341
D1,Barra do Garças/MT,-15.8916033,-52.2615413,33,54.08772
1,Barra do Guarita/RS,-27.1888016,-53.7147086,29,892.85714
1,Barra do Jacaré/PR,-23.1151788,-50.1813945,1,35.95829
1,Barra do Mendes/BA,-11.8053298,-42.057037,5,36.06203
1,Barra do Ouro/TO,-7.7113784,-47.6743925,15,326.72620
D1,Barra do Ouro/TO,-7.7113784,-47.6743925,3,65.34524
1,Barra do Piraí/RJ,-22.4703403,-43.8263256,625,622.67121
D1,Barra do Piraí/RJ,-22.4703403,-43.8263256,36,35.86586
1,Barra do Quaraí/RS,-30.208947,-57.5505128,4,94.89917
D1,Barra do Quaraí/RS,-30.208947,-57.5505128,1,23.72479
1,Barra do Ribeiro/RS,-30.2930206,-51.301437,51,378.02980
D1,Barra do Ribeiro/RS,-30.2930206,-51.301437,5,37.06174
1,Barra do Rio Azul/RS,-27.4101581,-52.4117471,2,118.34320
1,Barra do Rocha/BA,-14.2090974,-39.6004395,22,385.01925
1,Barra do Turvo/SP,-24.756421,-48.5056942,41,535.31793
D1,Barra do Turvo/SP,-24.756421,-48.5056942,2,26.11307
1,Barra dos Coqueiros/SE,-10.9075694,-37.0386249,930,3058.50627
D1,Barra dos Coqueiros/SE,-10.9075694,-37.0386249,15,49.33075
1,Barra/BA,-11.0892702,-43.1420453,70,130.65064
D1,Barra/BA,-11.0892702,-43.1420453,2,3.73288
1,Barracão/PR,-26.252395,-53.6349576,22,214.11192
D1,Barracão/PR,-26.252395,-53.6349576,1,9.73236
1,Barracão/RS,-27.6728964,-51.4582928,23,436.01896
D1,Barracão/RS,-27.6728964,-51.4582928,1,18.95735
1,Barras/PI,-4.2446153,-42.2920241,1401,2976.67106
D1,Barras/PI,-4.2446153,-42.2920241,28,59.49093
1,Barreira/CE,-4.2883361,-38.641094,299,1333.33333
D1,Barreira/CE,-4.2883361,-38.641094,19,84.72687
1,Barreiras do Piauí/PI,-9.9224524,-45.4763776,2,59.73716
1,Barreiras/BA,-12.1440031,-44.9967406,1407,905.17824
D1,Barreiras/BA,-12.1440031,-44.9967406,17,10.93677
1,Barreirinha/AM,-2.798863,-57.067897,751,2343.87191
D1,Barreirinha/AM,-2.798863,-57.067897,9,28.08901
1,Barreirinhas/MA,-2.7541271,-42.8259693,415,663.70266
D1,Barreirinhas/MA,-2.7541271,-42.8259693,20,31.98567
1,Barreiros/PE,-8.8159644,-35.1831905,264,618.86120
D1,Barreiros/PE,-8.8159644,-35.1831905,37,86.73434
1,Barretos/SP,-20.5531437,-48.5697509,1839,1506.16718
D1,Barretos/SP,-20.5531437,-48.5697509,69,56.51198
1,Barrinha/SP,-21.1898849,-48.1550642,291,886.87066
D1,Barrinha/SP,-21.1898849,-48.1550642,11,33.52432
1,Barro Alto/BA,-11.7618025,-41.9094904,9,60.27728
1,Barro Alto/GO,-14.9696025,-48.9190985,73,653.71183
1,Barro Duro/PI,-5.8180139,-42.5106589,119,1692.26394
D1,Barro Duro/PI,-5.8180139,-42.5106589,4,56.88282
1,Barro Preto/BA,-14.8068289,-39.4727588,134,2396.70900
D1,Barro Preto/BA,-14.8068289,-39.4727588,3,53.65766
1,Barro/CE,-7.1713587,-38.7742136,65,286.59612
D1,Barro/CE,-7.1713587,-38.7742136,7,30.86420
1,Barrocas/BA,-11.5165,-39.099282894736845,63,394.29215
1,Barrolândia/TO,-9.837246,-48.7264346,48,852.27273
D1,Barrolândia/TO,-9.837246,-48.7264346,1,17.75568
1,Barroquinha/CE,-3.0200371,-41.1339229,689,4588.13345
D1,Barroquinha/CE,-3.0200371,-41.1339229,16,106.54591
1,Barros Cassal/RS,-29.094938,-52.5832366,2,17.85874
D1,Barros Cassal/RS,-29.094938,-52.5832366,1,8.92937
1,Barroso/MG,-21.187222,-43.976111,85,408.45747
1,Barueri/SP,-23.5112184,-46.8764612,3039,1108.38786
D1,Barueri/SP,-23.5112184,-46.8764612,268,97.74529
1,Barão de Antonina/SP,-23.6295651,-49.5632104,10,288.26751
1,Barão de Cocais/MG,-19.9452437,-43.4870298,217,668.00062
1,Barão de Cotegipe/RS,-27.6214694,-52.3765316,68,1026.72505
D1,Barão de Cotegipe/RS,-27.6214694,-52.3765316,3,45.29669
1,Barão de Grajaú/MA,-6.7542591,-43.0263477,14,74.38895
D1,Barão de Grajaú/MA,-6.7542591,-43.0263477,1,5.31350
1,Barão de Melgaço/MT,-16.195776,-55.9668049,50,583.83933
D1,Barão de Melgaço/MT,-16.195776,-55.9668049,1,11.67679
1,Barão de Monte Alto/MG,-21.244722,-42.2375,23,426.16268
1,Barão do Triunfo/RS,-30.3909877,-51.7375349,25,333.91211
1,Barão/RS,-29.372474,-51.494908,27,437.53038
D1,Barão/RS,-29.372474,-51.494908,1,16.20483
1,Bastos/SP,-21.9222474,-50.7317727,27,128.85983
1,Bataguassu/MS,-21.715899,-52.422058,562,2440.93120
D1,Bataguassu/MS,-21.715899,-52.422058,1,4.34329
1,Batalha/AL,-9.6733809,-37.1265481,315,1727.73146
D1,Batalha/AL,-9.6733809,-37.1265481,6,32.90917
1,Batalha/PI,-4.022391,-42.0780926,232,863.83438
D1,Batalha/PI,-4.022391,-42.0780926,7,26.06397
1,Batatais/SP,-20.892867,-47.592149,120,191.97543
D1,Batatais/SP,-20.892867,-47.592149,9,14.39816
1,Batayporã/MS,-22.2976466,-53.2685608,58,511.96046
D1,Batayporã/MS,-22.2976466,-53.2685608,3,26.48071
1,Baturité/CE,-4.3290203,-38.8821055,501,1401.39860
D1,Baturité/CE,-4.3290203,-38.8821055,27,75.52448
1,Bauru/SP,-22.3218102,-49.0705863,3196,848.15481
D1,Bauru/SP,-22.3218102,-49.0705863,60,15.92281
1,Bayeux/PB,-7.1301631,-34.936532,1321,1363.54253
D1,Bayeux/PB,-7.1301631,-34.936532,74,76.38315
1,Baía Formosa/RN,-6.3691885,-35.0063741,74,798.18790
D1,Baía Formosa/RN,-6.3691885,-35.0063741,3,32.35897
1,Baía da Traição/PB,-6.691258,-34.9371244,445,4948.29312
D1,Baía da Traição/PB,-6.691258,-34.9371244,5,55.59880
1,Bebedouro/SP,-20.949077,-48.479083,238,307.11263
D1,Bebedouro/SP,-20.949077,-48.479083,17,21.93662
1,Beberibe/CE,-4.1810469,-38.1298101,632,1179.69873
D1,Beberibe/CE,-4.1810469,-38.1298101,28,52.26513
1,Bela Cruz/CE,-3.0529129,-40.167582,1091,3347.54994
D1,Bela Cruz/CE,-3.0529129,-40.167582,17,52.16164
1,Bela Vista da Caroba/PR,-25.8792818,-53.6672545,10,284.81914
1,Bela Vista de Goiás/GO,-16.9692949,-48.9513071,217,723.93661
D1,Bela Vista de Goiás/GO,-16.9692949,-48.9513071,3,10.00834
1,Bela Vista de Minas/MG,-19.8289721,-43.0973688,16,156.02145
D1,Bela Vista de Minas/MG,-19.8289721,-43.0973688,1,9.75134
1,Bela Vista do Maranhão/MA,-3.7416367,-45.2514192,118,1052.72549
D1,Bela Vista do Maranhão/MA,-3.7416367,-45.2514192,2,17.84280
1,Bela Vista do Paraíso/PR,-22.9948493,-51.1907996,44,285.76996
D1,Bela Vista do Paraíso/PR,-22.9948493,-51.1907996,3,19.48432
1,Bela Vista do Piauí/PI,-7.9716353,-41.8715061,4,99.62640
1,Bela Vista do Toldo/SC,-26.274625,-50.466354,4,63.12135
1,Bela Vista/MS,-22.107327,-56.5317344,12,48.72305
1,Belford Roxo/RJ,-22.7667284,-43.4033603,2031,397.52910
D1,Belford Roxo/RJ,-22.7667284,-43.4033603,206,40.32053
1,Belmiro Braga/MG,-21.9486291,-43.413564,11,320.79323
D1,Belmiro Braga/MG,-21.9486291,-43.413564,2,58.32604
1,Belmonte/BA,-15.8630837,-38.8792845,215,921.63923
D1,Belmonte/BA,-15.8630837,-38.8792845,1,4.28669
1,Belmonte/SC,-26.8448262,-53.578916,1,36.95492
1,Belo Campo/BA,-15.0338286,-41.2585109,3,17.43071
1,Belo Horizonte/MG,-19.9227318,-43.9450948,18197,724.38268
D1,Belo Horizonte/MG,-19.9227318,-43.9450948,483,19.22717
1,Belo Jardim/PE,-8.3338293,-36.4176419,624,816.33721
D1,Belo Jardim/PE,-8.3338293,-36.4176419,22,28.78112
1,Belo Monte/AL,-9.8269944,-37.2787165,41,611.57518
D1,Belo Monte/AL,-9.8269944,-37.2787165,2,29.83294
1,Belo Oriente/MG,-19.2232523,-42.4807033,219,820.22472
D1,Belo Oriente/MG,-19.2232523,-42.4807033,6,22.47191
1,Belo Vale/MG,-20.407778,-44.024167,47,609.20285
D1,Belo Vale/MG,-20.407778,-44.024167,1,12.96176
1,Belterra/PA,-2.636091,-54.937392,130,733.13783
D1,Belterra/PA,-2.636091,-54.937392,7,39.47665
1,Belágua/MA,-3.1604031,-43.5085052,158,2115.41036
D1,Belágua/MA,-3.1604031,-43.5085052,1,13.38867
1,Belém de Maria/PE,-8.6242497,-35.8388934,52,430.71316
D1,Belém de Maria/PE,-8.6242497,-35.8388934,1,8.28295
1,Belém do Brejo do Cruz/PB,-6.1880727,-37.5332267,24,326.88641
D1,Belém do Brejo do Cruz/PB,-6.1880727,-37.5332267,1,13.62027
1,Belém do Piauí/PI,-7.3767305,-40.9712156,16,448.68200
D1,Belém do Piauí/PI,-7.3767305,-40.9712156,1,28.04262
1,Belém do São Francisco/PE,-8.7517707,-38.9625715,27,130.25230
1,Belém/AL,-9.5715351,-36.492841,47,1081.95212
D1,Belém/AL,-9.5715351,-36.492841,1,23.02026
1,Belém/PA,-1.45056,-48.4682453,24988,1673.96307
D1,Belém/PA,-1.45056,-48.4682453,2022,135.45515
1,Belém/PB,-6.6967586,-35.5369626,687,3886.62593
D1,Belém/PB,-6.6967586,-35.5369626,8,45.25911
1,Beneditinos/PI,-5.4565671,-42.3605061,123,1175.12181
D1,Beneditinos/PI,-5.4565671,-42.3605061,5,47.76918
1,Benedito Leite/MA,-7.2173453,-44.5523331,54,958.80682
1,Benedito Novo/SC,-26.7840657,-49.3629511,59,506.35084
D1,Benedito Novo/SC,-26.7840657,-49.3629511,2,17.16444
1,Benevides/PA,-1.3555577,-48.252235,1315,2096.05177
D1,Benevides/PA,-1.3555577,-48.252235,48,76.50987
1,Benjamin Constant do Sul/RS,-27.5105555,-52.6007689,32,1604.81444
1,Benjamin Constant/AM,-4.3782748,-70.0290603,1522,3540.85241
D1,Benjamin Constant/AM,-4.3782748,-70.0290603,35,81.42565
1,Bento Fernandes/RN,-5.6926846,-35.8207423,21,382.02656
D1,Bento Fernandes/RN,-5.6926846,-35.8207423,1,18.19174
1,Bento Gonçalves/RS,-29.1654014,-51.5197627,2083,1729.29085
D1,Bento Gonçalves/RS,-29.1654014,-51.5197627,67,55.62289
1,Bento de Abreu/SP,-21.2707225,-50.8120444,20,671.14094
1,Bequimão/MA,-2.4495376,-44.7884889,200,939.84962
D1,Bequimão/MA,-2.4495376,-44.7884889,10,46.99248
1,Berilo/MG,-16.9515764,-42.4643732,5,41.90412
1,Bernardino Batista/PB,-6.4532173,-38.5495418,6,171.37961
1,Bernardino de Campos/SP,-23.0140216,-49.4760724,40,358.80875
D1,Bernardino de Campos/SP,-23.0140216,-49.4760724,1,8.97022
1,Bernardo Sayão/TO,-7.8794244,-48.8968905,17,381.25140
1,Bernardo do Mearim/MA,-4.6315929,-44.7617508,48,794.30746
D1,Bernardo do Mearim/MA,-4.6315929,-44.7617508,2,33.09614
1,Bertioga/SP,-23.848568,-46.139586,1023,1617.41688
D1,Bertioga/SP,-23.848568,-46.139586,26,41.10737
1,Bertolínia/PI,-7.6372159,-43.9540611,56,1017.99673
1,Bertópolis/MG,-17.063333,-40.573889,4,86.88097
1,Beruri/AM,-3.9007135,-61.3717319,534,2713.55252
D1,Beruri/AM,-3.9007135,-61.3717319,7,35.57091
1,Betim/MG,-19.968056,-44.198333,2305,524.65061
D1,Betim/MG,-19.968056,-44.198333,82,18.66436
1,Betânia do Piauí/PI,-8.1460635,-40.7961387,4,64.46414
1,Betânia/PE,-8.2742779,-38.0351767,34,267.31661
D1,Betânia/PE,-8.2742779,-38.0351767,1,7.86225
1,Bezerros/PE,-8.2372132,-35.7558262,519,853.64650
D1,Bezerros/PE,-8.2372132,-35.7558262,30,49.34373
1,Bias Fortes/MG,-21.605833,-43.756944,11,325.54010
1,Bicas/MG,-21.7213723,-43.0604327,33,227.68042
1,Biguaçu/SC,-27.4961277,-48.6542432,883,1289.40874
D1,Biguaçu/SC,-27.4961277,-48.6542432,14,20.44363
1,Bilac/SP,-21.403962,-50.47464,30,373.41299
D1,Bilac/SP,-21.403962,-50.47464,1,12.44710
1,Biquinhas/MG,-18.783611,-45.502222,2,79.52286
1,Birigui/SP,-21.2908491,-50.34144,781,631.68282
D1,Birigui/SP,-21.2908491,-50.34144,28,22.64676
1,Biritiba-Mirim/SP,-23.5697765,-46.0407456,120,368.12074
D1,Biritiba-Mirim/SP,-23.5697765,-46.0407456,10,30.67673
1,Biritinga/BA,-11.6227908,-38.8066738,27,168.97178
1,Bituruna/PR,-26.161281,-51.5533319,32,195.25291
1,Blumenau/SC,-26.9195567,-49.0658025,4879,1365.90528
D1,Blumenau/SC,-26.9195567,-49.0658025,46,12.87798
1,Boa Esperança do Iguaçu/PR,-25.6362851,-53.2139114,3,119.85617
1,Boa Esperança do Sul/SP,-21.9930206,-48.3917372,42,281.44475
D1,Boa Esperança do Sul/SP,-21.9930206,-48.3917372,1,6.70107
1,Boa Esperança/ES,-18.5395472,-40.2904088,255,1695.81698
D1,Boa Esperança/ES,-18.5395472,-40.2904088,11,73.15289
1,Boa Esperança/MG,-21.0901253,-45.5660195,68,169.46196
D1,Boa Esperança/MG,-21.0901253,-45.5660195,7,17.44461
1,Boa Esperança/PR,-24.2411024,-52.7860277,27,657.73447
1,Boa Hora/PI,-4.4094627,-42.1255341,66,973.30777
1,Boa Nova/BA,-14.365907,-40.2063056,16,126.65242
D1,Boa Nova/BA,-14.365907,-40.2063056,1,7.91578
1,Boa Ventura/PB,-7.4202462,-38.2156782,4,74.54342
1,Boa Viagem/CE,-5.1261877,-39.7300055,228,418.57903
D1,Boa Viagem/CE,-5.1261877,-39.7300055,17,31.20984
1,Boa Vista da Aparecida/PR,-25.4357216,-53.4067721,66,869.45067
D1,Boa Vista da Aparecida/PR,-25.4357216,-53.4067721,1,13.17349
1,Boa Vista das Missões/RS,-27.6677983,-53.3127622,3,142.99333
1,Boa Vista do Buricá/RS,-27.6687782,-54.1111913,5,74.49344
1,Boa Vista do Cadeado/RS,-28.5783827,-53.8123759,2,80.97166
1,Boa Vista do Gurupi/MA,-1.7981168,-46.3071882,13,139.98062
D1,Boa Vista do Gurupi/MA,-1.7981168,-46.3071882,2,21.53548
1,Boa Vista do Incra/RS,-28.8195551,-53.3866624,8,307.33769
1,Boa Vista do Ramos/AM,-2.9716927,-57.5869819,289,1504.65976
D1,Boa Vista do Ramos/AM,-2.9716927,-57.5869819,2,10.41287
1,Boa Vista do Sul/RS,-29.3510488,-51.6779679,26,934.24362
D1,Boa Vista do Sul/RS,-29.3510488,-51.6779679,1,35.93245
1,Boa Vista do Tupim/BA,-12.6605988,-40.6083594,22,118.43239
1,Boa Vista/PB,-7.2620711,-36.2415161,67,950.21983
D1,Boa Vista/PB,-7.2620711,-36.2415161,1,14.18239
1,Boa Vista/RR,2.8208478,-60.6719582,23132,5794.40048
D1,Boa Vista/RR,2.8208478,-60.6719582,398,99.69615
1,Boca da Mata/AL,-9.6452054,-36.2116658,971,3559.25369
D1,Boca da Mata/AL,-9.6452054,-36.2116658,16,58.64888
1,Boca do Acre/AM,-8.7553487,-67.3930873,837,2439.66422
D1,Boca do Acre/AM,-8.7553487,-67.3930873,11,32.06249
1,Bocaina de Minas/MG,-22.167778,-44.394722,6,117.87819
1,Bocaina do Sul/SC,-27.745494,-49.942279,4,115.14105
1,Bocaina/PI,-6.9445939,-41.3224599,83,1844.44444
1,Bocaina/SP,-22.1421831,-48.522276,81,656.98759
D1,Bocaina/SP,-22.1421831,-48.522276,3,24.33287
1,Bocaiúva do Sul/PR,-25.206591,-49.114131,82,633.49815
D1,Bocaiúva do Sul/PR,-25.206591,-49.114131,2,15.45117
1,Bocaiúva/MG,-17.1160208,-43.8122678,83,166.06975
D1,Bocaiúva/MG,-17.1160208,-43.8122678,2,4.00168
1,Bodocó/PE,-7.777592,-39.933797,125,327.68836
D1,Bodocó/PE,-7.777592,-39.933797,5,13.10753
1,Bodoquena/MS,-20.5508775,-56.6769653,3,38.09524
1,Bodó/RN,-5.9866104,-36.4134824,3,134.95277
1,Bofete/SP,-23.1019554,-48.2610535,64,545.60955
D1,Bofete/SP,-23.1019554,-48.2610535,3,25.57545
1,Boituva/SP,-23.2838893,-47.6738231,438,718.06810
D1,Boituva/SP,-23.2838893,-47.6738231,13,21.31252
1,Bom Conselho/PE,-9.169191,-36.685683,361,743.50208
D1,Bom Conselho/PE,-9.169191,-36.685683,12,24.71475
1,Bom Despacho/MG,-19.7375242,-45.2517288,163,322.10256
D1,Bom Despacho/MG,-19.7375242,-45.2517288,2,3.95218
1,Bom Jardim da Serra/SC,-28.3380324,-49.625588,2,42.16740
1,Bom Jardim de Goiás/GO,-16.2062659,-52.172793,52,588.16876
D1,Bom Jardim de Goiás/GO,-16.2062659,-52.172793,2,22.62188
1,Bom Jardim de Minas/MG,-21.9476466,-44.1906033,3,46.33920
1,Bom Jardim/MA,-3.54129,-45.606004,742,1782.36848
D1,Bom Jardim/MA,-3.54129,-45.606004,17,40.83594
1,Bom Jardim/PE,-7.7961572,-35.5871696,312,796.24336
D1,Bom Jardim/PE,-7.7961572,-35.5871696,22,56.14537
1,Bom Jardim/RJ,-22.1515328,-42.4186683,71,258.68979
D1,Bom Jardim/RJ,-22.1515328,-42.4186683,2,7.28704
1,Bom Jesus da Lapa/BA,-13.250571,-43.410754,125,180.77168
1,Bom Jesus da Penha/MG,-21.0165299,-46.5226644,2,47.42708
1,Bom Jesus da Serra/BA,-14.3724084,-40.5047119,61,617.40891
1,Bom Jesus das Selvas/MA,-4.4878075,-46.8526639,1254,3685.20042
D1,Bom Jesus das Selvas/MA,-4.4878075,-46.8526639,7,20.57129
1,Bom Jesus de Goiás/GO,-18.2174587,-49.739721,120,475.88832
D1,Bom Jesus de Goiás/GO,-18.2174587,-49.739721,1,3.96574
1,Bom Jesus do Amparo/MG,-19.7045132,-43.4752911,14,230.14960
1,Bom Jesus do Araguaia/MT,-12.1725897,-51.5074425,33,501.51976
1,Bom Jesus do Galho/MG,-19.8283191,-42.3162256,50,334.78406
D1,Bom Jesus do Galho/MG,-19.8283191,-42.3162256,4,26.78273
1,Bom Jesus do Itabapoana/RJ,-21.1341025,-41.680095,364,981.23787
D1,Bom Jesus do Itabapoana/RJ,-21.1341025,-41.680095,3,8.08713
1,Bom Jesus do Norte/ES,-21.1254776,-41.6711646,188,1892.10950
D1,Bom Jesus do Norte/ES,-21.1254776,-41.6711646,3,30.19324
1,Bom Jesus do Oeste/SC,-26.6929713,-53.0967453,3,140.05602
1,Bom Jesus do Sul/PR,-26.1922507,-53.6002033,6,169.44366
D1,Bom Jesus do Sul/PR,-26.1922507,-53.6002033,1,28.24061
1,Bom Jesus do Tocantins/PA,-5.0471796,-48.5978362,193,1136.56440
1,Bom Jesus do Tocantins/TO,-8.96306,-48.165043,29,592.56232
1,Bom Jesus dos Perdões/SP,-23.1353864,-46.4648052,70,275.07073
1,Bom Jesus/PB,-6.8156725,-38.6551841,9,351.42522
1,Bom Jesus/PI,-9.0711644,-44.3583926,597,2371.02347
D1,Bom Jesus/PI,-9.0711644,-44.3583926,7,27.80095
1,Bom Jesus/RN,-5.9887544,-35.5821149,93,910.87169
D1,Bom Jesus/RN,-5.9887544,-35.5821149,1,9.79432
1,Bom Jesus/RS,-28.6692723,-50.4346894,70,616.79443
1,Bom Jesus/SC,-26.7350604,-52.3916519,52,1727.57475
1,Bom Lugar/MA,-4.3728019,-45.0366054,173,1061.74052
1,Bom Princípio do Piauí/PI,-3.1912777,-41.6430185,30,532.85968
D1,Bom Princípio do Piauí/PI,-3.1912777,-41.6430185,2,35.52398
1,Bom Princípio/RS,-29.489788,-51.3566782,180,1280.68303
1,Bom Progresso/RS,-27.5490948,-53.8655601,11,566.42636
1,Bom Repouso/MG,-22.4657069,-46.1485376,13,123.25780
1,Bom Retiro do Sul/RS,-29.6000007,-51.9359243,132,1070.73329
D1,Bom Retiro do Sul/RS,-29.6000007,-51.9359243,1,8.11162
1,Bom Retiro/SC,-27.798993,-49.486994,13,130.44351
1,Bom Sucesso de Itararé/SP,-24.3190016,-49.1446207,2,50.58169
1,Bom Sucesso/MG,-21.0323516,-44.7598082,20,113.61700
D1,Bom Sucesso/MG,-21.0323516,-44.7598082,1,5.68085
1,Bom Sucesso/PB,-6.4458948,-37.9297662,12,241.20603
1,Bom Sucesso/PR,-23.7088019,-51.7651297,18,255.97270
D1,Bom Sucesso/PR,-23.7088019,-51.7651297,1,14.22071
1,Bombinhas/SC,-27.1519159,-48.4875691,819,4142.84992
D1,Bombinhas/SC,-27.1519159,-48.4875691,4,20.23370
1,Bonfim do Piauí/PI,-9.1648678,-42.8734415,28,493.82716
1,Bonfim/MG,-20.3266626, -44.2386157,19,276.64531
D1,Bonfim/MG,-20.3266626, -44.2386157,1,14.56028
1,Bonfim/RR,3.3613818,-59.8427241,352,2836.65082
D1,Bonfim/RR,3.3613818,-59.8427241,6,48.35200
1,Bonfinópolis de Minas/MG,-16.5660011,-45.98645,55,1001.27435
D1,Bonfinópolis de Minas/MG,-16.5660011,-45.98645,2,36.40998
1,Bonfinópolis/GO,-16.6172709,-48.9615701,105,1081.80507
D1,Bonfinópolis/GO,-16.6172709,-48.9615701,3,30.90872
1,Boninal/BA,-12.7095183,-41.8299984,6,41.75947
1,Bonito de Minas/MG,-15.3191266,-44.7544,4,35.61888
1,Bonito de Santa Fé/PB,-7.3143332,-38.5146677,14,117.47923
D1,Bonito de Santa Fé/PB,-7.3143332,-38.5146677,1,8.39137
1,Bonito/BA,-11.9665473,-41.2649896,20,119.30327
D1,Bonito/BA,-11.9665473,-41.2649896,1,5.96516
1,Bonito/MS,-21.1264766,-56.4902208,110,500.54605
1,Bonito/PA,-1.3605722,-47.3049907,218,1338.57301
D1,Bonito/PA,-1.3605722,-47.3049907,7,42.98170
1,Bonito/PE,-8.4721161,-35.7314591,198,519.22169
D1,Bonito/PE,-8.4721161,-35.7314591,21,55.06897
1,Bonópolis/GO,-13.649331,-49.8329113,3,68.10443
1,Boqueirão do Leão/RS,-29.30332,-52.4296817,4,51.85377
1,Boqueirão do Piauí/PI,-4.4850148,-42.1095161,72,1123.77088
D1,Boqueirão do Piauí/PI,-4.4850148,-42.1095161,1,15.60793
1,Boqueirão/PB,-7.487004,-36.130887,286,1606.38059
D1,Boqueirão/PB,-7.487004,-36.130887,5,28.08358
1,Boquim/SE,-11.1450175,-37.6204228,271,1010.59069
D1,Boquim/SE,-11.1450175,-37.6204228,9,33.56205
1,Boquira/BA,-12.8184859,-42.7270883,17,79.04036
1,Boracéia/SP,-22.195355,-48.7801925,22,456.14763
1,Borba/AM,-4.3934778,-59.5947721,652,1584.02371
D1,Borba/AM,-4.3934778,-59.5947721,22,53.44865
1,Borborema/PB,-6.8066718,-35.5990191,12,228.00684
1,Borborema/SP,-21.6212706,-49.074135,46,286.67581
1,Borda da Mata/MG,-22.274167,-46.165278,72,370.90460
D1,Borda da Mata/MG,-22.274167,-46.165278,5,25.75726
1,Borebi/SP,-22.5700178,-48.9714871,15,565.39766
D1,Borebi/SP,-22.5700178,-48.9714871,1,37.69318
1,Borrazópolis/PR,-23.9393362,-51.5850786,8,121.35922
1,Borá/SP,-22.2701088,-50.544407,1,119.47431
1,Bossoroca/RS,-28.7278885,-54.9120278,5,79.63051
1,Botelhos/MG,-21.65,-46.394722,22,146.95077
D1,Botelhos/MG,-21.65,-46.394722,1,6.67958
1,Botucatu/SP,-22.8879628,-48.4410712,1120,764.52078
D1,Botucatu/SP,-22.8879628,-48.4410712,24,16.38259
1,Botuporã/BA,-13.3744752,-42.5198469,3,29.38008
1,Botuverá/SC,-27.200749,-49.068892,72,1372.47427
1,Bozano/RS,-28.3669953,-53.7705165,1,47.10316
1,Braga/RS,-27.617348,-53.740514,8,238.59231
1,Braganey/PR,-24.8179919,-53.118506,33,608.07076
D1,Braganey/PR,-24.8179919,-53.118506,1,18.42639
1,Bragança Paulista/SP,-22.9520235,-46.5418586,1014,601.18102
D1,Bragança Paulista/SP,-22.9520235,-46.5418586,23,13.63626
1,Bragança/PA,-1.0573967,-46.7635406,2038,1596.10294
D1,Bragança/PA,-1.0573967,-46.7635406,90,70.48541
1,Branquinha/AL,-9.2478057,-36.0152009,134,1276.92014
D1,Branquinha/AL,-9.2478057,-36.0152009,5,47.64627
1,Brasil Novo/PA,-3.3055853,-52.539198,496,3287.81652
D1,Brasil Novo/PA,-3.3055853,-52.539198,8,53.02930
1,Brasileira/PI,-4.131182,-41.7824969,51,612.31841
1,Brasilândia de Minas/MG,-17.0096469,-46.0087183,44,266.05394
1,Brasilândia do Sul/PR,-24.1975793,-53.527551,14,528.10260
1,Brasilândia do Tocantins/TO,-8.3886619,-48.4842729,3,136.30168
1,Brasilândia/MS,-21.255575,-52.0365617,61,513.81402
D1,Brasilândia/MS,-21.255575,-52.0365617,2,16.84636
1,Brasiléia/AC,-11.0010413,-68.7487894,760,2892.15313
D1,Brasiléia/AC,-11.0010413,-68.7487894,11,41.86011
1,Brasnorte/MT,-12.1227151,-58.0050109,14,71.08403
1,Brasília de Minas/MG,-16.2075114,-44.430559,25,77.28692
1,Brasília/DF,-15.7934036,-47.8823172,102342,3394.12616
D1,Brasília/DF,-15.7934036,-47.8823172,1419,47.06049
1,Brazabrantes/GO,-16.4291635,-49.3858216,42,1134.21550
D1,Brazabrantes/GO,-16.4291635,-49.3858216,1,27.00513
1,Brazópolis/MG,-22.4742842,-45.6165577,33,228.23155
1,Braço do Norte/SC,-28.2728633,-49.1622712,933,2789.23767
D1,Braço do Norte/SC,-28.2728633,-49.1622712,7,20.92676
1,Braço do Trombudo/SC,-27.358578,-49.882145,19,507.61421
1,Braúna/SP,-21.5015319,-50.3175246,44,773.83046
D1,Braúna/SP,-21.5015319,-50.3175246,4,70.34822
1,Braúnas/MG,-19.055556,-42.716111,10,208.28994
D1,Braúnas/MG,-19.055556,-42.716111,1,20.82899
1,Brejetuba/ES,-20.1465817,-41.2902303,287,2313.76975
1,Brejinho de Nazaré/TO,-11.0205883,-48.5722906,37,673.09442
D1,Brejinho de Nazaré/TO,-11.0205883,-48.5722906,2,36.38348
1,Brejinho/PE,-7.3482153,-37.28538,36,480.83344
1,Brejinho/RN,-6.1957907,-35.3583019,126,992.20411
D1,Brejinho/RN,-6.1957907,-35.3583019,3,23.62391
1,Brejo Alegre/SP,-21.1671191,-50.1850393,9,314.13613
1,Brejo Grande do Araguaia/PA,-5.7011449,-48.4037308,88,1192.41192
D1,Brejo Grande do Araguaia/PA,-5.7011449,-48.4037308,1,13.55014
1,Brejo Grande/SE,-10.4287358,-36.4667918,97,1167.40883
D1,Brejo Grande/SE,-10.4287358,-36.4667918,6,72.21086
1,Brejo Santo/CE,-7.4909841,-38.9859152,541,1093.43735
D1,Brejo Santo/CE,-7.4909841,-38.9859152,12,24.25369
1,Brejo da Madre de Deus/PE,-8.1409718,-36.3712527,595,1172.59864
D1,Brejo da Madre de Deus/PE,-8.1409718,-36.3712527,14,27.59056
1,Brejo de Areia/MA,-4.3316785,-45.5833334,140,1523.72660
D1,Brejo de Areia/MA,-4.3316785,-45.5833334,1,10.88376
1,Brejo do Cruz/PB,-6.32926065,-37.48746163303929,249,1763.20634
D1,Brejo do Cruz/PB,-6.32926065,-37.48746163303929,4,28.32460
1,Brejo do Piauí/PI,-8.207583,-42.8359849,4,103.22581
1,Brejo dos Santos/PB,-6.3769367,-37.8243125,20,310.12560
1,Brejo/MA,-3.6804397,-42.7529313,582,1599.03289
D1,Brejo/MA,-3.6804397,-42.7529313,18,49.45463
1,Brejão/PE,-9.029146,-36.566034,14,155.67664
1,Brejões/BA,-13.1033754,-39.7909837,18,125.91815
1,Breu Branco/PA,-3.7785073,-49.5684795,259,392.15093
D1,Breu Branco/PA,-3.7785073,-49.5684795,19,28.76783
1,Breves/PA,-1.68036,-50.479085,1592,1550.13096
D1,Breves/PA,-1.68036,-50.479085,78,75.94863
1,Britânia/GO,-15.2427599,-51.1602061,13,224.95241
1,Brochier/RS,-29.556766,-51.5963047,20,394.16634
1,Brodowski/SP,-20.984532,-47.657217,198,793.93721
D1,Brodowski/SP,-20.984532,-47.657217,4,16.03914
1,Brotas/SP,-22.2840884,-48.1267265,37,151.62070
1,Brumadinho/MG,-20.143611,-44.2,477,1189.43720
D1,Brumadinho/MG,-20.143611,-44.2,2,4.98716
1,Brumado/BA,-14.29507325,-41.659307508575985,446,663.73986
D1,Brumado/BA,-14.29507325,-41.659307508575985,3,4.46462
1,Brunópolis/SC,-27.310953,-50.837585,13,537.19008
1,Brusque/SC,-27.0964628,-48.9136323,2043,1516.44485
D1,Brusque/SC,-27.0964628,-48.9136323,24,17.81433
1,Brás Pires/MG,-20.8483109,-43.2430524,4,92.31479
1,Bueno Brandão/MG,-22.441976,-46.3517971,17,154.53141
D1,Bueno Brandão/MG,-22.441976,-46.3517971,3,27.27025
1,Buenos Aires/PE,-7.7218931,-35.326587,40,304.06689
D1,Buenos Aires/PE,-7.7218931,-35.326587,4,30.40669
1,Buenópolis/MG,-17.8756607,-44.1749365,81,781.47612
D1,Buenópolis/MG,-17.8756607,-44.1749365,1,9.64785
1,Buerarema/BA,-14.9571177,-39.3008035,246,1340.67252
D1,Buerarema/BA,-14.9571177,-39.3008035,9,49.04899
1,Bugre/MG,-19.4257687,-42.2556,13,326.46911
D1,Bugre/MG,-19.4257687,-42.2556,1,25.11301
1,Bujari/AC,-9.8309656,-67.9520886,313,3048.89928
D1,Bujari/AC,-9.8309656,-67.9520886,5,48.70446
1,Bujaru/PA,-1.5169239,-48.0410699,236,810.10573
D1,Bujaru/PA,-1.5169239,-48.0410699,20,68.65303
1,Buri/SP,-23.79849,-48.598924,90,452.76185
D1,Buri/SP,-23.79849,-48.598924,4,20.12275
1,Buritama/SP,-21.0664017,-50.1448077,106,618.29211
D1,Buritama/SP,-21.0664017,-50.1448077,5,29.16472
1,Buriti Alegre/GO,-18.1377879,-49.0404411,151,1596.36325
1,Buriti Bravo/MA,-5.8391884,-43.8367876,131,548.48434
1,Buriti de Goiás/GO,-16.180644,-50.4287479,15,602.89389
1,Buriti do Tocantins/TO,-5.3187439,-48.2256609,139,1224.88544
1,Buriti dos Lopes/PI,-3.1776723,-41.8707444,556,2810.77802
D1,Buriti dos Lopes/PI,-3.1776723,-41.8707444,10,50.55356
1,Buriti dos Montes/PI,-5.3136171,-41.0971256,9,109.17031
D1,Buriti dos Montes/PI,-5.3136171,-41.0971256,1,12.13003
1,Buriti/MA,-3.9430944,-42.9244281,342,1192.55178
D1,Buriti/MA,-3.9430944,-42.9244281,1,3.48699
1,Buriticupu/MA,-4.3227472,-46.4516989,1824,2520.79936
D1,Buriticupu/MA,-4.3227472,-46.4516989,4,5.52807
1,Buritinópolis/GO,-14.4589282,-46.4293104,22,668.28676
1,Buritirama/BA,-10.7148421,-43.6362327,69,325.87135
D1,Buritirama/BA,-10.7148421,-43.6362327,1,4.72277
1,Buritirana/MA,-5.5897455,-47.0148915,234,1516.52625
D1,Buritirana/MA,-5.5897455,-47.0148915,6,38.88529
1,Buritis/MG,-15.621389,-46.423889,137,551.50759
D1,Buritis/MG,-15.621389,-46.423889,1,4.02560
1,Buritis/RO,-10.2054937,-63.8281954,260,655.67156
D1,Buritis/RO,-10.2054937,-63.8281954,4,10.08725
1,Buritizal/SP,-20.1933264,-47.7097165,28,624.86052
1,Buritizeiro/MG,-17.3667765,-44.9647781,85,302.96550
D1,Buritizeiro/MG,-17.3667765,-44.9647781,3,10.69290
1,Butiá/RS,-30.1256795,-51.9692224,100,477.53211
D1,Butiá/RS,-30.1256795,-51.9692224,2,9.55064
1,Buíque/PE,-8.6239732,-37.157296,164,280.92775
D1,Buíque/PE,-8.6239732,-37.157296,4,6.85190
1,Bálsamo/SP,-20.7343722,-49.5807484,130,1433.61270
D1,Bálsamo/SP,-20.7343722,-49.5807484,3,33.08337
0,CASO SEM LOCALIZAÇÃO DEFINIDA/AC,-9.884083190922777,-67.85119819780795,234,26.53257
D0,CASO SEM LOCALIZAÇÃO DEFINIDA/AC,-9.884083190922777,-67.85119819780795,10,1.13387
0,CASO SEM LOCALIZAÇÃO DEFINIDA/AL,-9.931093434363673,-35.609611600637464,149,4.46461
D0,CASO SEM LOCALIZAÇÃO DEFINIDA/AL,-9.931093434363673,-35.609611600637464,7,0.20975
0,CASO SEM LOCALIZAÇÃO DEFINIDA/AM,-3.07518492149711,-60.16169212873594,975,23.52460
D0,CASO SEM LOCALIZAÇÃO DEFINIDA/AM,-3.07518492149711,-60.16169212873594,10,0.24128
0,CASO SEM LOCALIZAÇÃO DEFINIDA/AP,2.677150600275196,-50.477785111870624,276,32.63449
D0,CASO SEM LOCALIZAÇÃO DEFINIDA/AP,2.677150600275196,-50.477785111870624,1,0.11824
0,CASO SEM LOCALIZAÇÃO DEFINIDA/BA,-13.415069300066518,-38.14174656569957,4437,29.83245
D0,CASO SEM LOCALIZAÇÃO DEFINIDA/BA,-13.415069300066518,-38.14174656569957,21,0.14119
0,CASO SEM LOCALIZAÇÃO DEFINIDA/CE,-3.3445126297392798,-38.624961942434304,1763,19.30557
0,CASO SEM LOCALIZAÇÃO DEFINIDA/ES,-20.30989267097039,-39.81745156645774,1915,47.65282
D0,CASO SEM LOCALIZAÇÃO DEFINIDA/ES,-20.30989267097039,-39.81745156645774,40,0.99536
0,CASO SEM LOCALIZAÇÃO DEFINIDA/GO,-16.701590966270153,-49.164524059025034,2648,37.72964
D0,CASO SEM LOCALIZAÇÃO DEFINIDA/GO,-16.701590966270153,-49.164524059025034,53,0.75516
0,CASO SEM LOCALIZAÇÃO DEFINIDA/MG,-19.97049116501593,-43.8852149072783,3243,15.31972
D0,CASO SEM LOCALIZAÇÃO DEFINIDA/MG,-19.97049116501593,-43.8852149072783,86,0.40626
0,CASO SEM LOCALIZAÇÃO DEFINIDA/MS,-20.391549234908513,-54.645156949758444,968,34.83285
D0,CASO SEM LOCALIZAÇÃO DEFINIDA/MS,-20.391549234908513,-54.645156949758444,14,0.50378
0,CASO SEM LOCALIZAÇÃO DEFINIDA/MT,-15.54791153961863,-56.17143998972475,20196,579.60101
D0,CASO SEM LOCALIZAÇÃO DEFINIDA/MT,-15.54791153961863,-56.17143998972475,692,19.85957
0,CASO SEM LOCALIZAÇÃO DEFINIDA/PA,-0.09317078214359542,-48.0050231510481,10,0.11624
0,CASO SEM LOCALIZAÇÃO DEFINIDA/PE,-8.121628543819208,-34.57313921302556,2072,21.68028
D0,CASO SEM LOCALIZAÇÃO DEFINIDA/PE,-8.121628543819208,-34.57313921302556,115,1.20330
0,CASO SEM LOCALIZAÇÃO DEFINIDA/PI,-2.683810218391744,-41.470898009352254,1244,38.00531
D0,CASO SEM LOCALIZAÇÃO DEFINIDA/PI,-2.683810218391744,-41.470898009352254,12,0.36661
0,CASO SEM LOCALIZAÇÃO DEFINIDA/PR,-25.69415946385943,-48.10141676336737,7348,64.26472
D0,CASO SEM LOCALIZAÇÃO DEFINIDA/PR,-25.69415946385943,-48.10141676336737,237,2.07277
0,CASO SEM LOCALIZAÇÃO DEFINIDA/RJ,-23.210238986465157,-43.12864305824042,3813,22.08522
D0,CASO SEM LOCALIZAÇÃO DEFINIDA/RJ,-23.210238986465157,-43.12864305824042,322,1.86505
0,CASO SEM LOCALIZAÇÃO DEFINIDA/RN,-5.749310788669161,-34.95302586257457,863,24.60896
D0,CASO SEM LOCALIZAÇÃO DEFINIDA/RN,-5.749310788669161,-34.95302586257457,29,0.82695
0,CASO SEM LOCALIZAÇÃO DEFINIDA/RO,-8.681174926655274,-63.9216949899276,785,44.16998
D0,CASO SEM LOCALIZAÇÃO DEFINIDA/RO,-8.681174926655274,-63.9216949899276,15,0.84401
0,CASO SEM LOCALIZAÇÃO DEFINIDA/RR,2.813328208465927,-60.663338675861986,1001,165.24669
D0,CASO SEM LOCALIZAÇÃO DEFINIDA/RR,2.813328208465927,-60.663338675861986,8,1.32065
0,CASO SEM LOCALIZAÇÃO DEFINIDA/RS,-30.50647488532064,-49.906261466443524,1,0.00879
0,CASO SEM LOCALIZAÇÃO DEFINIDA/SC,-27.675643660562308,-48.18313219398259,1499,20.92176
D0,CASO SEM LOCALIZAÇÃO DEFINIDA/SC,-27.675643660562308,-48.18313219398259,1,0.01396
0,CASO SEM LOCALIZAÇÃO DEFINIDA/SE,-11.03002091978736,-36.89283180376513,1205,52.42102
D0,CASO SEM LOCALIZAÇÃO DEFINIDA/SE,-11.03002091978736,-36.89283180376513,31,1.34859
0,CASO SEM LOCALIZAÇÃO DEFINIDA/SP,-24.30968974555485,-46.21366504207253,26636,58.00643
D0,CASO SEM LOCALIZAÇÃO DEFINIDA/SP,-24.30968974555485,-46.21366504207253,713,1.55273
1,Caapiranga/AM,-3.3188884,-61.2096404,229,1750.63069
D1,Caapiranga/AM,-3.3188884,-61.2096404,4,30.57870
1,Caaporã/PB,-7.510234,-34.9154114,891,4081.91314
D1,Caaporã/PB,-7.510234,-34.9154114,11,50.39399
1,Caarapó/MS,-22.6349267,-54.8240903,164,543.51428
1,Caatiba/BA,-14.9782759,-40.4092325,101,1494.52501
1,Cabaceiras do Paraguaçu/BA,-12.5377868,-39.1901339,33,175.46658
D1,Cabaceiras do Paraguaçu/BA,-12.5377868,-39.1901339,1,5.31717
1,Cabaceiras/PB,-7.4899156,-36.2860501,53,944.57316
1,Cabeceira Grande/MG,-16.0297,-47.0906,11,158.29616
1,Cabeceiras do Piauí/PI,-4.4733665,-42.3098716,152,1435.85868
D1,Cabeceiras do Piauí/PI,-4.4733665,-42.3098716,1,9.44644
1,Cabeceiras/GO,-15.7995459,-46.9264991,7,87.57663
D1,Cabeceiras/GO,-15.7995459,-46.9264991,1,12.51095
1,Cabedelo/PB,-6.97324,-34.8351609,2339,3453.11208
D1,Cabedelo/PB,-6.97324,-34.8351609,41,60.52911
1,Cabixi/RO,-13.4956065,-60.5424442,41,771.83735
D1,Cabixi/RO,-13.4956065,-60.5424442,3,56.47590
1,Cabo Frio/RJ,-22.8804369,-42.0189227,1314,580.06843
D1,Cabo Frio/RJ,-22.8804369,-42.0189227,67,29.57731
1,Cabo Verde/MG,-21.4743338,-46.3964995,5,35.52398
1,Cabo de Santo Agostinho/PE,-8.2838945,-35.0320984,1415,683.41641
D1,Cabo de Santo Agostinho/PE,-8.2838945,-35.0320984,201,97.07894
1,Cabreúva/SP,-23.3075813,-47.1324417,565,1136.66083
D1,Cabreúva/SP,-23.3075813,-47.1324417,32,64.37725
1,Cabrobó/PE,-8.5083701,-39.3106961,292,853.27723
D1,Cabrobó/PE,-8.5083701,-39.3106961,2,5.84436
1,Cabrália Paulista/SP,-22.4562909,-49.3385645,48,1125.70356
1,Cacaulândia/RO,-10.3380043,-62.9007231,26,417.33547
1,Cacequi/RS,-29.8838059,-54.8273443,9,71.65035
1,Cachoeira Alta/GO,-18.7618269,-50.9432431,168,1345.72252
D1,Cachoeira Alta/GO,-18.7618269,-50.9432431,2,16.02051
1,Cachoeira Dourada/GO,-18.4934204,-49.481062,16,198.33891
1,Cachoeira Dourada/MG,-18.517136,-49.5002062,3,111.44131
1,Cachoeira Grande/MA,-2.9290492,-44.0573223,161,1707.13604
D1,Cachoeira Grande/MA,-2.9290492,-44.0573223,3,31.80999
1,Cachoeira Paulista/SP,-22.666498,-45.015384,95,285.05416
D1,Cachoeira Paulista/SP,-22.666498,-45.015384,6,18.00342
1,Cachoeira da Prata/MG,-19.524723,-44.453056,9,249.79184
1,Cachoeira de Goiás/GO,-16.6688414,-50.6435997,1,74.01925
1,Cachoeira de Minas/MG,-22.3554043,-45.7796324,29,251.14748
1,Cachoeira de Pajeú/MG,-15.965833,-41.496666,16,169.99575
1,Cachoeira do Arari/PA,-1.0143572,-48.9621089,246,1035.04860
D1,Cachoeira do Arari/PA,-1.0143572,-48.9621089,11,46.28266
1,Cachoeira do Piriá/PA,-1.7599443,-46.5446954,417,1230.08850
D1,Cachoeira do Piriá/PA,-1.7599443,-46.5446954,2,5.89971
1,Cachoeira do Sul/RS,-30.0474778,-52.8905413,183,222.62503
D1,Cachoeira do Sul/RS,-30.0474778,-52.8905413,1,1.21653
1,Cachoeira dos Índios/PB,-6.9259193,-38.6742159,78,761.42132
D1,Cachoeira dos Índios/PB,-6.9259193,-38.6742159,4,39.04725
1,Cachoeira/BA,-12.5998256,-38.9665918,287,857.48431
D1,Cachoeira/BA,-12.5998256,-38.9665918,5,14.93875
1,Cachoeiras de Macacu/RJ,-22.4626861,-42.6534414,432,732.98607
D1,Cachoeiras de Macacu/RJ,-22.4626861,-42.6534414,24,40.72145
1,Cachoeirinha/PE,-8.4906364,-36.2338963,241,1182.53189
D1,Cachoeirinha/PE,-8.4906364,-36.2338963,16,78.50834
1,Cachoeirinha/RS,-29.9493353,-51.0898927,1115,855.76355
D1,Cachoeirinha/RS,-29.9493353,-51.0898927,18,13.81502
1,Cachoeirinha/TO,-6.118647,-47.9208885,10,439.56044
1,Cachoeiro de Itapemirim/ES,-20.848084,-41.11129,3182,1522.69204
D1,Cachoeiro de Itapemirim/ES,-20.848084,-41.11129,101,48.33183
1,Cacimba de Areia/PB,-7.1288513,-37.1575194,8,217.27322
1,Cacimba de Dentro/PB,-6.6425101,-35.7929304,181,1053.12155
D1,Cacimba de Dentro/PB,-6.6425101,-35.7929304,2,11.63670
1,Cacimbas/PB,-7.2125451,-37.0593398,44,613.41140
D1,Cacimbas/PB,-7.2125451,-37.0593398,1,13.94117
1,Cacimbinhas/AL,-9.401212,-36.991082,118,1086.75631
D1,Cacimbinhas/AL,-9.401212,-36.991082,2,18.41960
1,Cacique Doble/RS,-27.7700117,-51.6616409,36,710.76012
1,Cacoal/RO,-11.4333,-61.4420502,686,803.66452
D1,Cacoal/RO,-11.4333,-61.4420502,12,14.05827
1,Caconde/SP,-21.527995,-46.643659,38,200.15802
1,Caculé/BA,-14.4990734,-42.2233006,9,38.84333
D1,Caculé/BA,-14.4990734,-42.2233006,1,4.31593
1,Caetanos/BA,-14.3387456,-40.9085971,10,68.76633
1,Caetanópolis/MG,-19.2947496,-44.4138386,20,172.05781
1,Caetité/BA,-14.0691776,-42.4852428,73,143.20745
D1,Caetité/BA,-14.0691776,-42.4852428,2,3.92349
1,Caeté/MG,-19.897777,-43.670278,134,299.65562
D1,Caeté/MG,-19.897777,-43.670278,1,2.23624
1,Caetés/PE,-8.7728788,-36.6255835,256,890.77560
D1,Caetés/PE,-8.7728788,-36.6255835,5,17.39796
1,Cafarnaum/BA,-11.691399,-41.468823,115,623.74573
1,Cafeara/PR,-22.78905,-51.714195,30,1022.49489
1,Cafelândia/PR,-24.6176963,-53.3218057,63,347.68212
D1,Cafelândia/PR,-24.6176963,-53.3218057,1,5.51876
1,Cafelândia/SP,-21.8054355,-49.6030627,130,731.69359
D1,Cafelândia/SP,-21.8054355,-49.6030627,2,11.25682
1,Cafezal do Sul/PR,-23.900508,-53.512418,5,123.63996
1,Caiabu/SP,-22.0143038,-51.2356597,20,477.21308
D1,Caiabu/SP,-22.0143038,-51.2356597,2,47.72131
1,Caiana/MG,-20.695555,-41.924723,12,218.34061
D1,Caiana/MG,-20.695555,-41.924723,1,18.19505
1,Caiapônia/GO,-16.9538779,-51.8090761,13,68.73579
1,Caibaté/RS,-28.290475,-54.645407,1,20.63558
1,Caibi/SC,-27.0751925,-53.2502133,27,439.16721
D1,Caibi/SC,-27.0751925,-53.2502133,2,32.53090
1,Caicó/RN,-6.4594544,-37.0971911,867,1275.90064
D1,Caicó/RN,-6.4594544,-37.0971911,14,20.60278
1,Caieiras/SP,-23.3644621,-46.7484765,1049,1033.80309
D1,Caieiras/SP,-23.3644621,-46.7484765,64,63.07283
1,Cairu/BA,-13.4860505,-39.0455744,122,671.21479
D1,Cairu/BA,-13.4860505,-39.0455744,3,16.50528
1,Caiuá/SP,-21.8319357,-51.9887179,17,289.41096
1,Caiçara do Norte/RN,-5.0645017,-36.0561226,75,1145.21301
D1,Caiçara do Norte/RN,-5.0645017,-36.0561226,2,30.53901
1,Caiçara do Rio do Vento/RN,-5.757968,-36.00089,60,1628.66450
D1,Caiçara do Rio do Vento/RN,-5.757968,-36.00089,1,27.14441
1,Caiçara/PB,-6.6146866,-35.4681434,367,5096.51437
D1,Caiçara/PB,-6.6146866,-35.4681434,4,55.54784
1,Caiçara/RS,-27.2750478,-53.4310053,15,316.25553
1,Cajamar/SP,-23.3561111,-46.8769444,910,1184.88041
D1,Cajamar/SP,-23.3561111,-46.8769444,53,69.00952
1,Cajapió/MA,-2.8778715,-44.6746871,5,44.73472
D1,Cajapió/MA,-2.8778715,-44.6746871,2,17.89389
1,Cajari/MA,-3.3213076,-45.0118757,121,624.38722
D1,Cajari/MA,-3.3213076,-45.0118757,2,10.32045
1,Cajati/SP,-24.7272376,-48.1077914,571,2000.07005
D1,Cajati/SP,-24.7272376,-48.1077914,4,14.01100
1,Cajazeiras do Piauí/PI,-6.794271,-42.3935024,4,112.39112
1,Cajazeiras/PB,-6.8897849,-38.5570389,1186,1913.11922
D1,Cajazeiras/PB,-6.8897849,-38.5570389,29,46.77948
1,Cajazeirinhas/PB,-6.961442,-37.7993733,19,595.05168
1,Cajobi/SP,-20.8776238,-48.8106972,51,483.77917
D1,Cajobi/SP,-20.8776238,-48.8106972,3,28.45760
1,Cajueiro da Praia/PI,-2.931114,-41.340801,198,2590.94478
D1,Cajueiro da Praia/PI,-2.931114,-41.340801,5,65.42790
1,Cajueiro/AL,-9.399589,-36.1524309,171,804.17607
D1,Cajueiro/AL,-9.399589,-36.1524309,11,51.73062
1,Cajuri/MG,-20.7901414,-42.7954489,35,877.85302
1,Cajuru/SP,-21.2759978,-47.3046035,164,626.74361
D1,Cajuru/SP,-21.2759978,-47.3046035,3,11.46482
1,Caldas Brandão/PB,-7.1027959,-35.3254676,159,2643.83106
D1,Caldas Brandão/PB,-7.1027959,-35.3254676,2,33.25574
1,Caldas Novas/GO,-17.745,-48.625,327,358.70209
D1,Caldas Novas/GO,-17.745,-48.625,5,5.48474
1,Caldas/MG,-21.923611,-46.386111,27,186.46409
1,Caldazinha/GO,-16.7116649,-49.0012601,18,473.18612
1,Caldeirão Grande do Piauí/PI,-7.3310393,-40.6374433,28,484.76454
1,Caldeirão Grande/BA,-11.0208483,-40.3041387,65,487.73167
D1,Caldeirão Grande/BA,-11.0208483,-40.3041387,1,7.50356
1,Califórnia/PR,-23.6672543,-51.3554556,28,326.72112
D1,Califórnia/PR,-23.6672543,-51.3554556,2,23.33722
1,Calmon/SC,-26.6023644,-51.0992893,3,89.65929
1,Calumbi/PE,-7.9389746,-38.1516871,59,1026.08696
D1,Calumbi/PE,-7.9389746,-38.1516871,1,17.39130
1,Calçado/PE,-8.7413446,-36.3351787,38,343.79806
D1,Calçado/PE,-8.7413446,-36.3351787,1,9.04732
1,Calçoene/AP,2.4981757,-50.9539503,901,8104.70451
D1,Calçoene/AP,2.4981757,-50.9539503,5,44.97616
1,Camacan/BA,-15.4166631,-39.4930088,796,2488.43316
D1,Camacan/BA,-15.4166631,-39.4930088,17,53.14493
1,Camalaú/PB,-7.885031,-36.824191,1,16.63063
1,Camamu/BA,-13.9438142,-39.1060917,648,1834.86239
D1,Camamu/BA,-13.9438142,-39.1060917,9,25.48420
1,Camanducaia/MG,-22.755278,-46.144444,187,858.98025
D1,Camanducaia/MG,-22.755278,-46.144444,4,18.37391
1,Camapuã/MS,-19.5291747,-54.0434641,24,175.04194
D1,Camapuã/MS,-19.5291747,-54.0434641,1,7.29341
1,Camaquã/RS,-30.8524752,-51.8075619,255,384.84176
D1,Camaquã/RS,-30.8524752,-51.8075619,8,12.07347
1,Camaragibe/PE,-8.0213832,-34.9810768,1572,996.02098
D1,Camaragibe/PE,-8.0213832,-34.9810768,145,91.87216
1,Camargo/RS,-28.5865661,-52.2031474,25,914.74570
1,Camaçari/BA,-12.6998188,-38.3260762,3838,1283.04561
D1,Camaçari/BA,-12.6998188,-38.3260762,56,18.72083
1,Cambará do Sul/RS,-29.0489517,-50.145412,33,513.13948
1,Cambará/PR,-23.042273,-50.075281,69,272.08202
D1,Cambará/PR,-23.042273,-50.075281,1,3.94322
1,Cambira/PR,-23.600265,-51.581045,7,89.00191
1,Camboriú/SC,-27.0273601,-48.6535657,1250,1506.22372
D1,Camboriú/SC,-27.0273601,-48.6535657,25,30.12447
1,Cambuci/RJ,-21.5749919,-41.9107833,93,599.80651
D1,Cambuci/RJ,-21.5749919,-41.9107833,1,6.44953
1,Cambuquira/MG,-21.853056,-45.2953619,7,54.62775
1,Cambuí/MG,-22.6122501,-46.0572137,96,324.86210
D1,Cambuí/MG,-22.6122501,-46.0572137,3,10.15194
1,Cambé/PR,-23.2782035,-51.2779583,380,356.69699
D1,Cambé/PR,-23.2782035,-51.2779583,12,11.26412
1,Cametá/PA,-2.242949,-49.497885,4321,3133.65726
D1,Cametá/PA,-2.242949,-49.497885,83,60.19291
1,Camocim de São Félix/PE,-8.3616757,-35.7638903,116,618.17213
D1,Camocim de São Félix/PE,-8.3616757,-35.7638903,4,21.31628
1,Camocim/CE,-2.9009918,-40.8427389,2173,3413.39282
D1,Camocim/CE,-2.9009918,-40.8427389,78,122.52399
1,Campanha/MG,-21.8361108,-45.401986,17,102.01020
D1,Campanha/MG,-21.8361108,-45.401986,2,12.00120
1,Campanário/MG,-18.2398144,-41.7271768,2,53.74899
1,Campestre da Serra/RS,-28.7966535,-51.0958149,18,531.28689
1,Campestre de Goiás/GO,-16.7624179,-49.69497,22,606.06061
1,Campestre do Maranhão/MA,-6.1729113,-47.3640512,235,1634.89634
D1,Campestre do Maranhão/MA,-6.1729113,-47.3640512,1,6.95701
1,Campestre/AL,-8.8481634,-35.5660033,64,922.72203
D1,Campestre/AL,-8.8481634,-35.5660033,3,43.25260
1,Campestre/MG,-19.6142116,-43.219378,46,218.47542
D1,Campestre/MG,-19.6142116,-43.219378,1,4.74947
1,Campina Grande do Sul/PR,-25.3046032,-49.0545355,336,776.19664
D1,Campina Grande do Sul/PR,-25.3046032,-49.0545355,10,23.10109
1,Campina Grande/PB,-7.2246743,-35.8771292,10401,2538.49477
D1,Campina Grande/PB,-7.2246743,-35.8771292,224,54.67002
1,Campina Verde/MG,-19.535277,-49.486389,55,278.55153
D1,Campina Verde/MG,-19.535277,-49.486389,1,5.06457
1,Campina da Lagoa/PR,-24.5937926,-52.8038965,11,77.45388
D1,Campina da Lagoa/PR,-24.5937926,-52.8038965,1,7.04126
1,Campina das Missões/RS,-27.9883295,-54.8411665,2,36.53635
1,Campina do Monte Alegre/SP,-23.5935653,-48.4801876,65,1079.01726
1,Campina do Simão/PR,-25.1086375,-51.8076658,4,102.90713
1,Campinas do Piauí/PI,-7.6593687,-41.8814875,15,267.23677
1,Campinas do Sul/RS,-27.7167968,-52.6257885,23,421.70884
1,Campinas/SP,-22.90556,-47.06083,15981,1327.24511
D1,Campinas/SP,-22.90556,-47.06083,645,53.56818
1,Campinorte/GO,-14.3136699,-49.1510931,51,403.92840
1,Campinápolis/MT,-14.5403731,-52.7970626,68,425.53191
D1,Campinápolis/MT,-14.5403731,-52.7970626,6,37.54693
1,Campo Alegre de Goiás/GO,-17.6337896,-47.779291,3,39.53090
1,Campo Alegre de Lourdes/BA,-9.5160326,-43.0101338,71,246.54490
D1,Campo Alegre de Lourdes/BA,-9.5160326,-43.0101338,2,6.94493
1,Campo Alegre do Fidalgo/PI,-8.3753852,-41.8364191,8,158.57284
D1,Campo Alegre do Fidalgo/PI,-8.3753852,-41.8364191,1,19.82161
1,Campo Alegre/AL,-9.7798607,-36.3575793,1034,1812.03232
D1,Campo Alegre/AL,-9.7798607,-36.3575793,21,36.80143
1,Campo Alegre/SC,-26.1941684,-49.2657484,31,258.80781
D1,Campo Alegre/SC,-26.1941684,-49.2657484,1,8.34864
1,Campo Azul/MG,-16.5078525,-44.8133524,1,26.19859
1,Campo Belo do Sul/SC,-27.8987563,-50.7586887,5,71.26568
1,Campo Belo/MG,-20.8975,-45.277223,311,575.61680
D1,Campo Belo/MG,-20.8975,-45.277223,10,18.50858
1,Campo Bom/RS,-29.674694,-51.060601,797,1194.68761
D1,Campo Bom/RS,-29.674694,-51.060601,25,37.47452
1,Campo Bonito/PR,-25.0328004,-52.992976,39,1017.47978
1,Campo Erê/SC,-26.3947432,-53.0790495,49,574.71264
1,Campo Florido/MG,-19.760833,-48.572223,33,404.85830
1,Campo Formoso/BA,-10.51055,-40.320031,588,825.77311
D1,Campo Formoso/BA,-10.51055,-40.320031,5,7.02188
1,Campo Grande do Piauí/PI,-7.1327559,-41.0381164,49,824.49941
D1,Campo Grande do Piauí/PI,-7.1327559,-41.0381164,1,16.82652
1,Campo Grande/AL,-9.9725,-36.74791447368421,151,1579.82842
D1,Campo Grande/AL,-9.9725,-36.74791447368421,1,10.46244
1,Campo Grande/MS,-20.4640173,-54.6162947,8881,991.20295
D1,Campo Grande/MS,-20.4640173,-54.6162947,106,11.83059
1,Campo Largo do Piauí/PI,-3.8104731,-42.6288333,81,1112.79022
D1,Campo Largo do Piauí/PI,-3.8104731,-42.6288333,4,54.95260
1,Campo Largo/PR,-25.4597726,-49.5270851,1290,977.25792
D1,Campo Largo/PR,-25.4597726,-49.5270851,26,19.69667
1,Campo Limpo Paulista/SP,-23.207791,-46.788919,543,641.46486
D1,Campo Limpo Paulista/SP,-23.207791,-46.788919,40,47.25340
1,Campo Limpo de Goiás/GO,-16.297101,-49.0894994,12,154.06342
1,Campo Magro/PR,-25.3691533,-49.4496921,172,586.67030
D1,Campo Magro/PR,-25.3691533,-49.4496921,3,10.23262
1,Campo Maior/PI,-4.8339574,-42.1739786,1655,3533.83298
D1,Campo Maior/PI,-4.8339574,-42.1739786,28,59.78690
1,Campo Mourão/PR,-24.046329,-52.37802,491,517.61035
D1,Campo Mourão/PR,-24.046329,-52.37802,11,11.59616
1,Campo Novo de Rondônia/RO,-10.5704235,-63.6199511,81,572.88351
D1,Campo Novo de Rondônia/RO,-10.5704235,-63.6199511,3,21.21791
1,Campo Novo do Parecis/MT,-13.658735,-57.890723,365,1032.23982
D1,Campo Novo do Parecis/MT,-13.658735,-57.890723,8,22.62443
1,Campo Novo/RS,-28.91500235,-52.331375687737626,12,267.61820
1,Campo Redondo/RN,-6.2420373,-36.1830606,129,1150.04012
D1,Campo Redondo/RN,-6.2420373,-36.1830606,2,17.83008
1,Campo Verde/MT,-15.5430787,-55.1590511,521,1182.98858
D1,Campo Verde/MT,-15.5430787,-55.1590511,8,18.16489
1,Campo do Brito/SE,-10.7496246,-37.4942276,292,1612.45789
D1,Campo do Brito/SE,-10.7496246,-37.4942276,4,22.08846
1,Campo do Meio/MG,-21.1072006,-45.8301735,5,42.90004
1,Campo do Tenente/PR,-25.9814143,-49.684518,43,539.45553
D1,Campo do Tenente/PR,-25.9814143,-49.684518,3,37.63643
1,Campos Altos/MG,-19.696389,-46.171389,54,349.26589
D1,Campos Altos/MG,-19.696389,-46.171389,2,12.93577
1,Campos Belos/GO,-13.0349839,-46.768112,56,281.59099
D1,Campos Belos/GO,-13.0349839,-46.768112,1,5.02841
1,Campos Borges/RS,-28.8852198,-52.999098,1,30.12048
1,Campos Gerais/MG,-21.2333342,-45.7584127,56,194.62014
D1,Campos Gerais/MG,-21.2333342,-45.7584127,2,6.95072
1,Campos Lindos/TO,-7.9740597,-46.8023881,34,336.10123
D1,Campos Lindos/TO,-7.9740597,-46.8023881,1,9.88533
1,Campos Novos Paulista/SP,-22.601952,-49.998726,12,241.69184
1,Campos Novos/SC,-27.3962904,-51.2224397,367,1012.58139
D1,Campos Novos/SC,-27.3962904,-51.2224397,2,5.51815
1,Campos Sales/CE,-7.0742675,-40.3740367,236,860.49734
D1,Campos Sales/CE,-7.0742675,-40.3740367,4,14.58470
1,Campos Verdes/GO,-14.2709062,-49.65746,12,560.48575
1,Campos de Júlio/MT,-13.7223646,-59.2645296,127,1842.98360
D1,Campos de Júlio/MT,-13.7223646,-59.2645296,2,29.02336
1,Campos do Jordão/SP,-22.7395263,-45.5912829,266,510.67424
D1,Campos do Jordão/SP,-22.7395263,-45.5912829,2,3.83966
1,Campos dos Goytacazes/RJ,-21.7558619,-41.3326895,2776,546.94334
D1,Campos dos Goytacazes/RJ,-21.7558619,-41.3326895,195,38.42001
1,Camutanga/PE,-7.4092965,-35.2738166,132,1543.67910
D1,Camutanga/PE,-7.4092965,-35.2738166,4,46.77815
1,Cana Verde/MG,-21.021308,-45.1817881,60,1070.85490
D1,Cana Verde/MG,-21.021308,-45.1817881,1,17.84758
1,Canabrava do Norte/MT,-11.0516481,-51.8301897,28,590.34366
D1,Canabrava do Norte/MT,-11.0516481,-51.8301897,1,21.08370
1,Cananéia/SP,-25.0104609,-47.9315628,78,622.00957
D1,Cananéia/SP,-25.0104609,-47.9315628,3,23.92344
1,Canapi/AL,-9.1173572,-37.6011704,34,191.85194
D1,Canapi/AL,-9.1173572,-37.6011704,3,16.92811
1,Canarana/BA,-11.6870151,-41.7683675,60,229.21760
D1,Canarana/BA,-11.6870151,-41.7683675,1,3.82029
1,Canarana/MT,-13.5564602,-52.2691167,142,658.04718
D1,Canarana/MT,-13.5564602,-52.2691167,3,13.90241
1,Canas/SP,-22.7029347,-45.0526508,12,233.55391
D1,Canas/SP,-22.7029347,-45.0526508,1,19.46283
1,Canavieiras/BA,-15.61621745,-39.08485321304444,105,337.63144
D1,Canavieiras/BA,-15.61621745,-39.08485321304444,3,9.64661
1,Canaã dos Carajás/PA,-6.5296837,-49.8516592,2623,7072.94054
D1,Canaã dos Carajás/PA,-6.5296837,-49.8516592,34,91.68127
1,Candeal/BA,-11.8053441,-39.1206515,32,387.50303
1,Candeias do Jamari/RO,-8.7949939,-63.7018851,898,3364.17787
D1,Candeias do Jamari/RO,-8.7949939,-63.7018851,17,63.68711
1,Candeias/BA,-12.6693806,-38.5406462,1474,1692.77413
D1,Candeias/BA,-12.6693806,-38.5406462,34,39.04635
1,Candeias/MG,-20.7676161,-45.2763777,43,288.86202
D1,Candeias/MG,-20.7676161,-45.2763777,2,13.43544
1,Candelária/RS,-29.668391,-52.789495,54,172.16643
1,Candiba/BA,-14.4125032,-42.8714102,18,125.70710
1,Candiota/RS,-31.5451894,-53.719538,35,365.19199
1,Candói/PR,-25.5711951,-52.051107,29,181.48820
1,Canela/RS,-29.3624657,-50.8134204,149,331.12583
D1,Canela/RS,-29.3624657,-50.8134204,6,13.33393
1,Canelinha/SC,-27.2660341,-48.7666708,232,1895.42484
D1,Canelinha/SC,-27.2660341,-48.7666708,2,16.33987
1,Canguaretama/RN,-6.3751942,-35.137463,191,557.24122
D1,Canguaretama/RN,-6.3751942,-35.137463,15,43.76240
1,Canguçu/RS,-31.398276,-52.6773522,56,99.91971
D1,Canguçu/RS,-31.398276,-52.6773522,2,3.56856
1,Canhoba/SE,-10.1373681,-36.9710796,48,1197.60479
1,Canhotinho/PE,-8.876519,-36.197935,173,697.46815
D1,Canhotinho/PE,-8.876519,-36.197935,10,40.31608
1,Canindé de São Francisco/SE,-9.6597475,-37.7904456,164,548.49498
D1,Canindé de São Francisco/SE,-9.6597475,-37.7904456,5,16.72241
1,Canindé/CE,-4.3547946,-39.3108516,1699,2206.57948
D1,Canindé/CE,-4.3547946,-39.3108516,58,75.32761
1,Canitar/SP,-23.0066616,-49.7840632,11,210.88957
1,Canoas/RS,-29.9216045,-51.1799525,1498,432.17855
D1,Canoas/RS,-29.9216045,-51.1799525,88,25.38833
1,Canoinhas/SC,-26.176591,-50.395001,234,430.13915
D1,Canoinhas/SC,-26.176591,-50.395001,3,5.51460
1,Cansanção/BA,-10.6671448,-39.498199,99,284.20509
D1,Cansanção/BA,-10.6671448,-39.498199,2,5.74152
1,Cantagalo/PR,-25.3735238,-52.1238114,43,322.89555
D1,Cantagalo/PR,-25.3735238,-52.1238114,1,7.50920
1,Cantagalo/RJ,-21.9811325,-42.3682522,43,213.16677
D1,Cantagalo/RJ,-21.9811325,-42.3682522,1,4.95737
1,Cantanhede/MA,-3.6355005,-44.3778738,378,1718.57240
D1,Cantanhede/MA,-3.6355005,-44.3778738,3,13.63946
1,Canto do Buriti/PI,-8.1112473,-42.944844,196,925.09558
D1,Canto do Buriti/PI,-8.1112473,-42.944844,2,9.43975
1,Cantá/RR,2.60994,-60.605827,711,3877.82929
D1,Cantá/RR,2.60994,-60.605827,7,38.17835
1,Canudos do Vale/RS,-29.3240418,-52.2348494,4,233.10023
1,Canudos/BA,-9.8948692,-39.0266244,69,413.96688
D1,Canudos/BA,-9.8948692,-39.0266244,2,11.99904
1,Canutama/AM,-6.5330019,-64.3834966,212,1356.45275
1,Canápolis/MG,-18.7228793,-49.2016329,73,600.82305
1,Capanema/PA,-1.1933054,-47.1828679,1043,1511.00294
D1,Capanema/PA,-1.1933054,-47.1828679,60,86.92251
1,Capanema/PR,-25.6704878,-53.8083036,193,1009.20310
1,Caparaó/MG,-20.5232726,-41.9049984,14,257.44759
D1,Caparaó/MG,-20.5232726,-41.9049984,2,36.77823
1,Capela Nova/MG,-20.9236773,-43.6179487,2,42.98302
1,Capela de Santana/RS,-29.6926603,-51.3206659,23,192.62982
1,Capela do Alto Alegre/BA,-11.6703944,-39.8362745,87,747.61536
1,Capela do Alto/SP,-23.4704798,-47.7352309,152,734.08674
D1,Capela do Alto/SP,-23.4704798,-47.7352309,1,4.82952
1,Capela/AL,-9.415041,-36.082583,483,2832.34621
D1,Capela/AL,-9.415041,-36.082583,4,23.45628
1,Capela/SE,-10.50494,-37.0552566,505,1476.04712
D1,Capela/SE,-10.50494,-37.0552566,14,40.92012
1,Capelinha/MG,-17.693889,-42.518611,17,44.99259
1,Capetinga/MG,-20.6193382,-47.0577418,15,216.76301
1,Capim Branco/MG,-19.548333,-44.133056,22,225.54849
1,Capim Grosso/BA,-11.3793228,-40.0112095,409,1333.89864
D1,Capim Grosso/BA,-11.3793228,-40.0112095,4,13.04546
1,Capim/PB,-6.9174091,-35.1720326,140,2146.25172
D1,Capim/PB,-6.9174091,-35.1720326,4,61.32148
1,Capinzal do Norte/MA,-4.7304006,-44.3249063,309,2826.04719
D1,Capinzal do Norte/MA,-4.7304006,-44.3249063,1,9.14578
1,Capinzal/SC,-27.3440651,-51.6110403,394,1724.43978
D1,Capinzal/SC,-27.3440651,-51.6110403,2,8.75350
1,Capinópolis/MG,-18.682778,-49.569723,115,711.06165
1,Capistrano/CE,-4.4644692,-38.8956734,530,2987.93551
D1,Capistrano/CE,-4.4644692,-38.8956734,10,56.37614
1,Capitão Andrade/MG,-19.0675,-41.859722,15,274.32334
1,Capitão Enéas/MG,-16.3236018,-43.7154584,30,196.92792
D1,Capitão Enéas/MG,-16.3236018,-43.7154584,3,19.69279
1,Capitão Gervásio Oliveira/PI,-8.4954657,-41.8169342,13,317.07317
1,Capitão Leônidas Marques/PR,-25.481645,-53.611238,66,418.25095
1,Capitão Poço/PA,-1.7447162,-47.0638495,621,1143.58323
D1,Capitão Poço/PA,-1.7447162,-47.0638495,32,58.92860
1,Capitão de Campos/PI,-4.4584198,-41.9415301,107,937.19891
D1,Capitão de Campos/PI,-4.4584198,-41.9415301,1,8.75887
1,Capitão/RS,-29.2718294,-51.9869716,17,616.61226
1,Capitólio/MG,-20.6142437,-46.0487652,14,162.18721
D1,Capitólio/MG,-20.6142437,-46.0487652,2,23.16960
1,Capivari de Baixo/SC,-28.449773,-48.963144,393,1580.15359
D1,Capivari de Baixo/SC,-28.449773,-48.963144,2,8.04149
1,Capivari do Sul/RS,-30.1437605,-50.5129169,11,236.05150
1,Capivari/SP,-22.995144,-47.50715,372,667.04920
D1,Capivari/SP,-22.995144,-47.50715,2,3.58629
1,Capixaba/AC,-10.5741345,-67.6759719,204,1738.68576
D1,Capixaba/AC,-10.5741345,-67.6759719,7,59.66079
1,Capoeiras/PE,-8.7386788,-36.6268109,160,798.08460
D1,Capoeiras/PE,-8.7386788,-36.6268109,3,14.96409
1,Caputira/MG,-20.171945,-42.270278,5,53.77501
1,Capão Alto/SC,-27.9382827,-50.511491,2,79.20792
1,Capão Bonito do Sul/RS,-28.1287941,-51.393771,1,60.45949
1,Capão Bonito/SP,-24.0048759,-48.3489848,272,577.02915
D1,Capão Bonito/SP,-24.0048759,-48.3489848,14,29.70003
1,Capão da Canoa/RS,-29.7542937,-50.0215684,174,327.99864
D1,Capão da Canoa/RS,-29.7542937,-50.0215684,4,7.54020
1,Capão do Cipó/RS,-28.9317296,-54.5555783,3,82.16927
1,Capão do Leão/RS,-31.766133,-52.5013148,37,145.93358
D1,Capão do Leão/RS,-31.766133,-52.5013148,1,3.94415
1,Caracaraí/RR,1.827598,-61.125389,494,2253.03293
D1,Caracaraí/RR,1.827598,-61.125389,6,27.36477
1,Caracol/MS,-22.0169949,-57.0298349,18,294.31001
1,Caracol/PI,-9.2804898,-43.3284924,101,925.24734
1,Caraguatatuba/SP,-23.62028,-45.41306,773,636.04647
D1,Caraguatatuba/SP,-23.62028,-45.41306,48,39.49577
1,Carambeí/PR,-24.9513298,-50.1171293,111,474.05509
D1,Carambeí/PR,-24.9513298,-50.1171293,4,17.08307
1,Caranaíba/MG,-20.8736914,-43.7379458,6,188.50141
D1,Caranaíba/MG,-20.8736914,-43.7379458,1,31.41690
1,Carandaí/MG,-20.9523934,-43.8043903,75,294.10611
D1,Carandaí/MG,-20.9523934,-43.8043903,3,11.76424
1,Carangola/MG,-20.733056,-42.029445,235,712.12121
D1,Carangola/MG,-20.733056,-42.029445,3,9.09091
1,Carapebus/RJ,-22.1869969,-41.6633764,199,1220.78400
D1,Carapebus/RJ,-22.1869969,-41.6633764,4,24.53837
1,Carapicuíba/SP,-23.5234673,-46.8406808,3748,934.83352
D1,Carapicuíba/SP,-23.5234673,-46.8406808,217,54.12457
1,Caratinga/MG,-19.7900887,-42.140533,700,760.35715
D1,Caratinga/MG,-19.7900887,-42.140533,16,17.37959
1,Carauari/AM,-4.8766426,-66.8961433,817,2887.53799
D1,Carauari/AM,-4.8766426,-66.8961433,7,24.74023
1,Caravelas/BA,-17.7296514,-39.2660082,138,626.81686
1,Carazinho/RS,-28.2981634,-52.7942363,250,402.51167
D1,Carazinho/RS,-28.2981634,-52.7942363,9,14.49042
1,Caraá/RS,-29.7900698,-50.4302307,57,689.23821
D1,Caraá/RS,-29.7900698,-50.4302307,1,12.09190
1,Caraí/MG,-17.1884104,-41.6976554,59,249.10281
D1,Caraí/MG,-17.1884104,-41.6976554,1,4.22208
1,Caraíbas/BA,-14.72496,-41.2566163,7,78.20355
1,Caraúbas do Piauí/PI,-3.4757229,-41.8431178,95,1618.95024
D1,Caraúbas do Piauí/PI,-3.4757229,-41.8431178,1,17.04158
1,Caraúbas/PB,-7.7273231,-36.4923357,32,768.86112
1,Caraúbas/RN,-5.7889323,-37.5548751,255,1244.32733
D1,Caraúbas/RN,-5.7889323,-37.5548751,3,14.63915
1,Carbonita/MG,-17.5308667,-43.0136207,6,63.79585
1,Cardeal da Silva/BA,-11.9428154,-37.9494462,17,182.89403
D1,Cardeal da Silva/BA,-11.9428154,-37.9494462,1,10.75847
1,Cardoso Moreira/RJ,-21.4894916,-41.6152776,187,1458.31709
D1,Cardoso Moreira/RJ,-21.4894916,-41.6152776,1,7.79849
1,Cardoso/SP,-20.080447,-49.9139767,58,470.55006
D1,Cardoso/SP,-20.080447,-49.9139767,3,24.33880
1,Careaçu/MG,-22.0440585,-45.6949091,40,591.97869
D1,Careaçu/MG,-22.0440585,-45.6949091,1,14.79947
1,Careiro da Várzea/AM,-3.197024,-59.8259104,129,426.79901
D1,Careiro da Várzea/AM,-3.197024,-59.8259104,4,13.23408
1,Careiro/AM,-3.8185277,-60.3616505,1081,2854.57762
D1,Careiro/AM,-3.8185277,-60.3616505,16,42.25092
1,Cariacica/ES,-20.263202,-40.416549,8863,2324.50791
D1,Cariacica/ES,-20.263202,-40.416549,330,86.54943
1,Caridade do Piauí/PI,-7.7331063,-40.9883665,10,197.35544
1,Caridade/CE,-4.2316487,-39.1946515,293,1299.50770
D1,Caridade/CE,-4.2316487,-39.1946515,14,62.09252
1,Carinhanha/BA,-14.298524,-43.772349,35,120.61479
D1,Carinhanha/BA,-14.298524,-43.772349,1,3.44614
1,Carira/SE,-10.358303,-37.701473,524,2372.97346
D1,Carira/SE,-10.358303,-37.701473,10,45.28575
1,Cariri do Tocantins/TO,-11.8882727,-49.1604216,78,1780.00913
D1,Cariri do Tocantins/TO,-11.8882727,-49.1604216,1,22.82063
1,Caririaçu/CE,-7.0417053,-39.2835527,409,1516.78101
D1,Caririaçu/CE,-7.0417053,-39.2835527,5,18.54256
1,Cariré/CE,-3.948584,-40.476028,558,3024.71813
D1,Cariré/CE,-3.948584,-40.476028,14,75.88899
1,Cariús/CE,-6.5348688,-39.4966658,241,1288.83898
D1,Cariús/CE,-6.5348688,-39.4966658,3,16.04364
1,Carlos Barbosa/RS,-29.2978372,-51.5005613,375,1256.99728
D1,Carlos Barbosa/RS,-29.2978372,-51.5005613,7,23.46395
1,Carlos Chagas/MG,-21.744351,-43.3908675,167,886.55306
D1,Carlos Chagas/MG,-21.744351,-43.3908675,2,10.61740
1,Carlópolis/PR,-23.4224762,-49.7194008,72,502.79330
1,Carmo da Cachoeira/MG,-21.460556,-45.223334,6,49.30156
1,Carmo da Mata/MG,-20.558334,-44.8703774,9,78.42454
1,Carmo de Minas/MG,-22.1216655,-45.1323836,11,74.02921
1,Carmo do Cajuru/MG,-20.184444,-44.770834,87,387.04511
D1,Carmo do Cajuru/MG,-20.184444,-44.770834,3,13.34638
1,Carmo do Paranaíba/MG,-18.9992327,-46.306916,125,412.14679
D1,Carmo do Paranaíba/MG,-18.9992327,-46.306916,3,9.89152
1,Carmo do Rio Claro/MG,-20.973315,-46.1186754,33,155.47703
D1,Carmo do Rio Claro/MG,-20.973315,-46.1186754,2,9.42285
1,Carmo do Rio Verde/GO,-15.3549139,-49.707975,35,347.15334
D1,Carmo do Rio Verde/GO,-15.3549139,-49.707975,1,9.91867
1,Carmo/RJ,-21.9341749,-42.6091737,96,508.07092
D1,Carmo/RJ,-21.9341749,-42.6091737,2,10.58481
1,Carmolândia/TO,-7.033804,-48.3951295,18,697.67442
D1,Carmolândia/TO,-7.033804,-48.3951295,1,38.75969
1,Carmésia/MG,-19.0854535,-43.1392003,5,189.96960
1,Carmópolis de Minas/MG,-20.541224,-44.6350611,151,780.16017
D1,Carmópolis de Minas/MG,-20.541224,-44.6350611,4,20.66649
1,Carmópolis/SE,-10.64835,-36.98493,233,1400.74546
D1,Carmópolis/SE,-10.64835,-36.98493,6,36.07070
1,Carnaubais/RN,-5.3383681,-36.8335566,92,855.09806
D1,Carnaubais/RN,-5.3383681,-36.8335566,4,37.17818
1,Carnaubal/CE,-4.1611842,-40.9412317,326,1851.64149
D1,Carnaubal/CE,-4.1611842,-40.9412317,3,17.03965
1,Carnaubeira da Penha/PE,-8.3192809,-38.7435891,21,162.38788
D1,Carnaubeira da Penha/PE,-8.3192809,-38.7435891,1,7.73276
1,Carnaíba/PE,-7.805964,-37.7947314,85,434.76037
D1,Carnaíba/PE,-7.805964,-37.7947314,6,30.68897
1,Carnaúba dos Dantas/RN,-6.5560588,-36.5930811,28,342.29829
D1,Carnaúba dos Dantas/RN,-6.5560588,-36.5930811,3,36.67482
1,Carneirinho/MG,-19.6975,-50.688055,17,169.54224
1,Carneiros/AL,-9.4832948,-37.3757121,48,528.57615
1,Caroebe/RR,0.8812315,-59.6932274,693,6814.82938
D1,Caroebe/RR,0.8812315,-59.6932274,2,19.66762
1,Carolina/MA,-7.3313437,-47.4738762,225,925.08840
D1,Carolina/MA,-7.3313437,-47.4738762,1,4.11150
1,Carpina/PE,-7.8459151,-35.2538861,328,392.15217
D1,Carpina/PE,-7.8459151,-35.2538861,45,53.80137
1,Carrancas/MG,-21.4910462,-44.6436151,11,271.80628
1,Carrapateira/PB,-7.0395225,-38.3432281,34,1278.67619
1,Carrasco Bonito/TO,-5.3205734,-48.0376667,79,1929.18193
1,Caruaru/PE,-8.2829702,-35.9722852,3703,1025.42659
D1,Caruaru/PE,-8.2829702,-35.9722852,221,61.19883
1,Carutapera/MA,-1.2016638,-46.0205618,254,1066.91309
D1,Carutapera/MA,-1.2016638,-46.0205618,16,67.20712
1,Carvalhópolis/MG,-21.7773461,-45.8412117,3,83.82230
1,Casa Branca/SP,-21.7743137,-47.0852175,73,240.28966
D1,Casa Branca/SP,-21.7743137,-47.0852175,1,3.29164
1,Casa Nova/BA,-9.1736775,-40.9734475,252,350.15076
D1,Casa Nova/BA,-9.1736775,-40.9734475,6,8.33692
1,Casca/RS,-28.5634054,-51.9741902,38,420.77289
D1,Casca/RS,-28.5634054,-51.9741902,1,11.07297
1,Cascalho Rico/MG,-18.579344,-47.875774,15,487.80488
D1,Cascalho Rico/MG,-18.579344,-47.875774,1,32.52033
1,Cascavel/CE,-4.129666,-38.241178,1226,1708.87752
D1,Cascavel/CE,-4.129666,-38.241178,83,115.69073
1,Cascavel/PR,-24.9554996,-53.4560544,4533,1380.10193
D1,Cascavel/PR,-24.9554996,-53.4560544,93,28.31447
1,Caseara/TO,-9.273159,-49.9576837,12,223.50531
D1,Caseara/TO,-9.273159,-49.9576837,1,18.62544
1,Caseiros/RS,-28.2721149,-51.6873536,15,468.45721
1,Casimiro de Abreu/RJ,-22.4809932,-42.2039976,549,1242.53123
D1,Casimiro de Abreu/RJ,-22.4809932,-42.2039976,12,27.15915
1,Casinhas/PE,-7.744698,-35.7250923,38,264.97455
D1,Casinhas/PE,-7.744698,-35.7250923,3,20.91904
