type,name,lat,lon,total,total_per_100k_inhabitants
1,Abadia de Goiás/GO,-16.7572644,-49.4412205,1457,16264.79125
D1,Abadia de Goiás/GO,-16.7572644,-49.4412205,34,379.54901
1,Abadia dos Dourados/MG,-18.4911191,-47.4063589,432,6166.14331
D1,Abadia dos Dourados/MG,-18.4911191,-47.4063589,14,199.82872
1,Abadiânia/GO,-16.1940946,-48.7067767,442,2160.20722
D1,Abadiânia/GO,-16.1940946,-48.7067767,33,161.28244
1,Abaetetuba/PA,-1.721828,-48.878843,8883,5583.98290
D1,Abaetetuba/PA,-1.721828,-48.878843,219,137.66658
1,Abaeté/MG,-19.1566833,-45.4481213,1263,5432.25806
D1,Abaeté/MG,-19.1566833,-45.4481213,28,120.43011
1,Abaiara/CE,-7.3607808,-39.0487878,583,4918.58601
D1,Abaiara/CE,-7.3607808,-39.0487878,15,126.55024
1,Abaré/BA,-8.7239913,-39.1139689,954,4688.65189
D1,Abaré/BA,-8.7239913,-39.1139689,11,54.06202
1,Abatiá/PR,-23.3052967,-50.3102532,980,13228.94168
D1,Abatiá/PR,-23.3052967,-50.3102532,15,202.48380
1,Abaíra/BA,-13.2503296,-41.6640342,284,3260.61998
D1,Abaíra/BA,-13.2503296,-41.6640342,11,126.29162
1,Abdon Batista/SC,-27.612419,-51.022992,412,16169.54474
D1,Abdon Batista/SC,-27.612419,-51.022992,4,156.98587
1,Abel Figueiredo/PA,-4.953001,-48.3958485,969,12944.16244
D1,Abel Figueiredo/PA,-4.953001,-48.3958485,10,133.58269
1,Abelardo Luz/SC,-26.5705893,-52.3280339,1489,8290.64588
D1,Abelardo Luz/SC,-26.5705893,-52.3280339,52,289.53229
1,Abre Campo/MG,-20.2976097,-42.4764741,1128,8390.36001
D1,Abre Campo/MG,-20.2976097,-42.4764741,15,111.57394
1,Abreu e Lima/PE,-7.900719,-34.898389,3100,3089.31098
D1,Abreu e Lima/PE,-7.900719,-34.898389,226,225.22074
1,Abreulândia/TO,-9.6221526,-49.1558343,272,10485.73631
D1,Abreulândia/TO,-9.6221526,-49.1558343,6,231.30301
1,Acaiaca/MG,-20.3621646,-43.1444162,227,5683.52529
D1,Acaiaca/MG,-20.3621646,-43.1444162,11,275.41312
1,Acajutiba/BA,-11.6609659,-38.0186381,525,3456.90393
D1,Acajutiba/BA,-11.6609659,-38.0186381,16,105.35326
1,Acarape/CE,-4.2237866,-38.7071663,2773,18442.40489
D1,Acarape/CE,-4.2237866,-38.7071663,27,179.56903
1,Acaraú/CE,-2.8869514,-40.1194713,4917,7791.89909
D1,Acaraú/CE,-2.8869514,-40.1194713,105,166.39199
1,Acari/RN,-6.4364689,-36.6394777,1037,9324.70102
D1,Acari/RN,-6.4364689,-36.6394777,17,152.86395
1,Acará/PA,-1.961388,-48.1987043,1317,2365.76910
D1,Acará/PA,-1.961388,-48.1987043,31,55.68629
1,Acauã/PI,-8.219542,-41.083059,199,2802.02760
D1,Acauã/PI,-8.219542,-41.083059,1,14.08054
1,Aceguá/RS,-31.8695131,-54.1615593,350,7082.15297
D1,Aceguá/RS,-31.8695131,-54.1615593,7,141.64306
1,Acopiara/CE,-6.0936464,-39.4543204,3619,6642.68277
D1,Acopiara/CE,-6.0936464,-39.4543204,140,256.97032
1,Acorizal/MT,-15.2001544,-56.3668953,491,9205.09936
D1,Acorizal/MT,-15.2001544,-56.3668953,19,356.20547
1,Acrelândia/AC,-10.0759167,-67.0526898,1685,10877.98580
D1,Acrelândia/AC,-10.0759167,-67.0526898,36,232.40801
1,Acreúna/GO,-17.3959899,-50.3749031,2029,8999.37905
D1,Acreúna/GO,-17.3959899,-50.3749031,47,208.46270
1,Adamantina/SP,-21.6866517,-51.0762975,3318,9450.02991
D1,Adamantina/SP,-21.6866517,-51.0762975,102,290.50725
1,Adelândia/GO,-16.4155077,-50.1665834,195,7750.39746
D1,Adelândia/GO,-16.4155077,-50.1665834,4,158.98251
1,Adolfo/SP,-21.2356597,-49.6441918,522,14687.67586
D1,Adolfo/SP,-21.2356597,-49.6441918,14,393.92234
1,Adrianópolis/PR,-24.6557863,-48.9912769,1335,22793.23886
D1,Adrianópolis/PR,-24.6557863,-48.9912769,27,460.98685
1,Adustina/BA,-10.5358875,-38.114479,965,5634.70746
D1,Adustina/BA,-10.5358875,-38.114479,21,122.62058
1,Afogados da Ingazeira/PE,-7.750429,-37.6356375,4989,13338.14565
D1,Afogados da Ingazeira/PE,-7.750429,-37.6356375,69,184.47225
1,Afonso Bezerra/RN,-5.4745,-36.57625071327935,755,6845.58890
D1,Afonso Bezerra/RN,-5.4745,-36.57625071327935,18,163.20609
1,Afonso Cláudio/ES,-20.077841,-41.12606,3392,11137.74421
D1,Afonso Cláudio/ES,-20.077841,-41.12606,56,183.87785
1,Afonso Cunha/MA,-4.1326105,-43.3230026,226,3435.69474
D1,Afonso Cunha/MA,-4.1326105,-43.3230026,3,45.60657
1,Afrânio/PE,-8.5198919,-41.0070197,895,4517.92024
D1,Afrânio/PE,-8.5198919,-41.0070197,14,70.67138
1,Afuá/PA,-0.1535664,-50.3879223,2988,7551.74767
D1,Afuá/PA,-0.1535664,-50.3879223,16,40.43774
1,Agrestina/PE,-8.4558021,-35.9442663,1667,6650.70816
D1,Agrestina/PE,-8.4558021,-35.9442663,61,243.36725
1,Agricolândia/PI,-5.7967843,-42.6605131,480,9354.90158
D1,Agricolândia/PI,-5.7967843,-42.6605131,6,116.93627
1,Agrolândia/SC,-27.4122212,-49.8295774,1573,14283.11995
D1,Agrolândia/SC,-27.4122212,-49.8295774,25,227.00445
1,Agronômica/SC,-27.2660744,-49.7104753,633,11490.28862
D1,Agronômica/SC,-27.2660744,-49.7104753,13,235.97749
1,Aguanil/MG,-20.9424533,-45.3927152,627,13865.54622
D1,Aguanil/MG,-20.9424533,-45.3927152,8,176.91287
1,Aguaí/SP,-22.0592036,-46.979384,2963,8085.02510
D1,Aguaí/SP,-22.0592036,-46.979384,92,251.03689
1,Agudo/RS,-29.6423259,-53.2494005,1680,10243.27785
D1,Agudo/RS,-29.6423259,-53.2494005,29,176.81849
1,Agudos do Sul/PR,-25.9890808,-49.3328175,638,6737.06441
D1,Agudos do Sul/PR,-25.9890808,-49.3328175,24,253.43189
1,Agudos/SP,-22.471162,-48.987822,3774,10090.63929
D1,Agudos/SP,-22.471162,-48.987822,86,229.94038
1,Aguiar/PB,-7.0928404,-38.1727215,497,8827.70870
D1,Aguiar/PB,-7.0928404,-38.1727215,5,88.80995
1,Aguiarnópolis/TO,-6.5600452,-47.4721189,641,9300.63842
D1,Aguiarnópolis/TO,-6.5600452,-47.4721189,12,174.11492
1,Aimorés/MG,-19.4917754,-41.0615603,1942,7724.43419
D1,Aimorés/MG,-19.4917754,-41.0615603,62,246.60912
1,Aiquara/BA,-14.126918,-39.8887574,471,10665.76087
D1,Aiquara/BA,-14.126918,-39.8887574,12,271.73913
1,Aiuaba/CE,-6.5710836,-40.1212278,756,4321.72869
D1,Aiuaba/CE,-6.5710836,-40.1212278,11,62.88230
1,Aiuruoca/MG,-21.9759554,-44.6036637,298,4986.61312
D1,Aiuruoca/MG,-21.9759554,-44.6036637,8,133.86881
1,Ajuricaba/RS,-28.239654,-53.7693013,1019,14584.22785
D1,Ajuricaba/RS,-28.239654,-53.7693013,27,386.43195
1,Alagoa Grande/PB,-7.0415212,-35.6285322,3964,13938.60544
D1,Alagoa Grande/PB,-7.0415212,-35.6285322,69,242.62456
1,Alagoa Nova/PB,-7.0653703,-35.76695977336711,1053,5033.22021
D1,Alagoa Nova/PB,-7.0653703,-35.76695977336711,18,86.03795
1,Alagoa/MG,-22.1697202,-44.6400042,440,16510.31895
D1,Alagoa/MG,-22.1697202,-44.6400042,6,225.14071
1,Alagoinha do Piauí/PI,-7.0090952,-40.939675,346,4514.02479
D1,Alagoinha do Piauí/PI,-7.0090952,-40.939675,10,130.46314
1,Alagoinha/PB,-6.97063215,-35.51490901897793,1997,13715.65934
D1,Alagoinha/PB,-6.97063215,-35.51490901897793,24,164.83516
1,Alagoinha/PE,-8.50355635,-36.77701174370496,1232,8370.70254
D1,Alagoinha/PE,-8.50355635,-36.77701174370496,25,169.86004
1,Alagoinhas/BA,-12.133526,-38.420772,13352,8765.35348
D1,Alagoinhas/BA,-12.133526,-38.420772,271,177.90674
1,Alambari/SP,-23.550338,-47.897971,515,8402.67580
D1,Alambari/SP,-23.550338,-47.897971,10,163.15875
1,Albertina/MG,-20.66164,-43.784039,239,7937.56227
D1,Albertina/MG,-20.66164,-43.784039,9,298.90402
1,Alcantil/PB,-7.7425491,-36.0609604,487,8840.07987
D1,Alcantil/PB,-7.7425491,-36.0609604,6,108.91269
1,Alcinópolis/MS,-18.3264121,-53.7094463,326,6018.09119
D1,Alcinópolis/MS,-18.3264121,-53.7094463,8,147.68322
1,Alcobaça/BA,-17.5215875,-39.1965474,1480,6580.70253
D1,Alcobaça/BA,-17.5215875,-39.1965474,29,128.94620
1,Alcântara/MA,-2.4038956,-44.4154241,306,1383.86397
D1,Alcântara/MA,-2.4038956,-44.4154241,16,72.35890
1,Alcântaras/CE,-3.586247,-40.5457641,1677,14234.78482
D1,Alcântaras/CE,-3.586247,-40.5457641,21,178.25312
1,Aldeias Altas/MA,-4.6291957,-43.4708622,976,3647.64361
D1,Aldeias Altas/MA,-4.6291957,-43.4708622,14,52.32276
1,Alecrim/RS,-27.6566142,-54.7653195,307,5268.57731
D1,Alecrim/RS,-27.6566142,-54.7653195,11,188.77639
1,Alegre/ES,-20.7625787,-41.5318886,2407,8030.02502
D1,Alegre/ES,-20.7625787,-41.5318886,51,170.14178
1,Alegrete do Piauí/PI,-7.2440138,-40.8602296,499,10146.40098
D1,Alegrete do Piauí/PI,-7.2440138,-40.8602296,6,122.00081
1,Alegrete/RS,-29.790166,-55.794862,9351,12804.67766
D1,Alegrete/RS,-29.790166,-55.794862,271,371.09054
1,Alegria/RS,-27.8332103,-54.0574959,375,11114.40427
D1,Alegria/RS,-27.8332103,-54.0574959,3,88.91523
1,Alenquer/PA,-1.946229,-54.738355,3454,6049.88440
D1,Alenquer/PA,-1.946229,-54.738355,130,227.70266
1,Alexandria/RN,-6.414779,-38.0135516,1500,11067.66030
D1,Alexandria/RN,-6.414779,-38.0135516,26,191.83945
1,Alexânia/GO,-16.0834049,-48.5077803,3070,10960.37130
D1,Alexânia/GO,-16.0834049,-48.5077803,76,271.33167
1,Alfenas/MG,-21.4297405,-45.9479419,9017,11202.07717
D1,Alfenas/MG,-21.4297405,-45.9479419,169,209.95354
1,Alfredo Chaves/ES,-20.624970400000002,-40.75006690147988,2392,16343.26319
D1,Alfredo Chaves/ES,-20.624970400000002,-40.75006690147988,35,239.13638
1,Alfredo Marcondes/SP,-21.9527,-51.413956,244,5831.73996
D1,Alfredo Marcondes/SP,-21.9527,-51.413956,10,239.00574
1,Alfredo Vasconcelos/MG,-21.145833,-43.776389,503,7205.27145
D1,Alfredo Vasconcelos/MG,-21.145833,-43.776389,12,171.89514
1,Alfredo Wagner/SC,-27.6961513,-49.3326734,864,8566.32957
D1,Alfredo Wagner/SC,-27.6961513,-49.3326734,7,69.40313
1,Algodão de Jandaíra/PB,-6.9040175,-36.0089879,199,7722.15755
D1,Algodão de Jandaíra/PB,-6.9040175,-36.0089879,1,38.80481
1,Alhandra/PB,-7.4304246,-34.9106103,2271,11512.14072
D1,Alhandra/PB,-7.4304246,-34.9106103,35,177.42181
1,Aliança do Tocantins/TO,-11.3055927,-48.9409096,608,11372.98915
D1,Aliança do Tocantins/TO,-11.3055927,-48.9409096,20,374.11149
1,Aliança/PE,-7.60398,-35.222696,637,1658.98377
D1,Aliança/PE,-7.60398,-35.222696,60,156.26221
1,Almadina/BA,-14.70466,-39.6381994,609,11349.23593
D1,Almadina/BA,-14.70466,-39.6381994,9,167.72270
1,Almas/TO,-11.5681309,-47.1702803,236,3381.57329
D1,Almas/TO,-11.5681309,-47.1702803,5,71.64350
1,Almeirim/PA,-1.5290377,-52.5788111,3664,10752.43573
D1,Almeirim/PA,-1.5290377,-52.5788111,44,129.12314
1,Almenara/MG,-16.1740678,-40.6904907,3789,8990.81698
D1,Almenara/MG,-16.1740678,-40.6904907,46,109.15217
1,Almino Afonso/RN,-6.1544208,-37.7649018,506,10743.09979
D1,Almino Afonso/RN,-6.1544208,-37.7649018,12,254.77707
1,Almirante Tamandaré do Sul/RS,-28.1141129,-52.9134874,318,16316.05952
D1,Almirante Tamandaré do Sul/RS,-28.1141129,-52.9134874,4,205.23345
1,Almirante Tamandaré/PR,-25.3133048,-49.2997838,9607,8003.09894
D1,Almirante Tamandaré/PR,-25.3133048,-49.2997838,355,295.73229
1,Aloândia/GO,-17.7277983,-49.4809338,268,13494.46123
D1,Aloândia/GO,-17.7277983,-49.4809338,8,402.81974
1,Alpercata/MG,-18.9803616,-41.9827637,476,6401.29102
D1,Alpercata/MG,-18.9803616,-41.9827637,19,255.51372
1,Alpestre/RS,-27.2512339,-53.0349646,393,6477.66606
D1,Alpestre/RS,-27.2512339,-53.0349646,9,148.34350
1,Alpinópolis/MG,-20.863611,-46.387777,1320,6613.88917
D1,Alpinópolis/MG,-20.863611,-46.387777,35,175.36827
1,Alta Floresta D'Oeste/RO,-11.9296917,-61.9961284,3889,17111.05245
D1,Alta Floresta D'Oeste/RO,-11.9296917,-61.9961284,65,285.99085
1,Alta Floresta/MT,-9.8715018,-56.0839881,8623,16595.77744
D1,Alta Floresta/MT,-9.8715018,-56.0839881,124,238.64970
1,Altair/SP,-20.5238955,-49.0606135,200,4777.83086
D1,Altair/SP,-20.5238955,-49.0606135,12,286.66985
1,Altamira do Maranhão/MA,-4.1643006,-45.4674574,318,3883.25803
D1,Altamira do Maranhão/MA,-4.1643006,-45.4674574,11,134.32654
1,Altamira do Paraná/PR,-24.799114,-52.7128633,216,12841.85493
D1,Altamira do Paraná/PR,-24.799114,-52.7128633,10,594.53032
1,Altamira/PA,-3.204065,-52.209961,13525,11662.59949
D1,Altamira/PA,-3.204065,-52.209961,285,245.75533
1,Altaneira/CE,-6.9980933,-39.7385742,596,7790.84967
D1,Altaneira/CE,-6.9980933,-39.7385742,18,235.29412
1,Alterosa/MG,-21.249166,-46.143055,681,4691.05187
D1,Alterosa/MG,-21.249166,-46.143055,31,213.54274
1,Altinho/PE,-8.4904095,-36.0607494,1266,5508.17960
D1,Altinho/PE,-8.4904095,-36.0607494,24,104.42047
1,Altinópolis/SP,-21.021364,-47.3712,816,5036.10443
D1,Altinópolis/SP,-21.021364,-47.3712,39,240.69617
1,Alto Alegre do Maranhão/MA,-4.2055693,-44.4525287,1175,4217.81894
D1,Alto Alegre do Maranhão/MA,-4.2055693,-44.4525287,27,96.92009
1,Alto Alegre do Pindaré/MA,-3.6698186,-45.8462153,2011,6295.58902
D1,Alto Alegre do Pindaré/MA,-3.6698186,-45.8462153,45,140.87594
1,Alto Alegre dos Parecis/RO,-12.1314515,-61.856265,1444,10894.00226
D1,Alto Alegre dos Parecis/RO,-12.1314515,-61.856265,44,331.95021
1,Alto Alegre/RR,2.98858,-61.307167,1415,9200.26008
D1,Alto Alegre/RR,2.98858,-61.307167,31,201.56047
1,Alto Alegre/RS,-31.780844700000003,-52.81311114489171,197,12213.26720
D1,Alto Alegre/RS,-31.780844700000003,-52.81311114489171,1,61.99628
1,Alto Alegre/SP,-21.5820592,-50.1661976,344,8414.87280
D1,Alto Alegre/SP,-21.5820592,-50.1661976,20,489.23679
1,Alto Araguaia/MT,-17.3156528,-53.2169365,1292,6664.94712
D1,Alto Araguaia/MT,-17.3156528,-53.2169365,24,123.80707
1,Alto Bela Vista/SC,-27.4320737,-51.905771,177,9190.03115
D1,Alto Bela Vista/SC,-27.4320737,-51.905771,3,155.76324
1,Alto Boa Vista/MT,-11.6723985,-51.3744431,760,10957.32411
D1,Alto Boa Vista/MT,-11.6723985,-51.3744431,14,201.84544
1,Alto Caparaó/MG,-20.4405661,-41.8683799,392,6650.83135
D1,Alto Caparaó/MG,-20.4405661,-41.8683799,9,152.69766
1,Alto Feliz/RS,-29.3785943,-51.3123751,259,8530.96179
D1,Alto Feliz/RS,-29.3785943,-51.3123751,2,65.87615
1,Alto Garças/MT,-16.9469683,-53.529427,867,7135.21521
D1,Alto Garças/MT,-16.9469683,-53.529427,39,320.96124
1,Alto Horizonte/GO,-14.1954948,-49.3366993,862,13050.71915
D1,Alto Horizonte/GO,-14.1954948,-49.3366993,10,151.40045
1,Alto Jequitibá/MG,-20.423611,-41.966111,743,8950.72883
D1,Alto Jequitibá/MG,-20.423611,-41.966111,10,120.46741
1,Alto Longá/PI,-5.2549051,-42.2072388,637,4442.42974
D1,Alto Longá/PI,-5.2549051,-42.2072388,13,90.66183
1,Alto Paraguai/MT,-14.513712,-56.4936374,881,7678.89828
D1,Alto Paraguai/MT,-14.513712,-56.4936374,28,244.05125
1,Alto Paraná/PR,-23.131247,-52.318893,1060,7133.72367
D1,Alto Paraná/PR,-23.131247,-52.318893,24,161.51827
1,Alto Paraíso de Goiás/GO,-14.1304779,-47.5100161,632,8220.60354
D1,Alto Paraíso de Goiás/GO,-14.1304779,-47.5100161,8,104.05827
1,Alto Paraíso/PR,-23.508137,-53.728537,262,9757.91434
D1,Alto Paraíso/PR,-23.508137,-53.728537,5,186.21974
1,Alto Paraíso/RO,-9.7240103,-63.3188123,1807,8271.15851
D1,Alto Paraíso/RO,-9.7240103,-63.3188123,48,219.70980
1,Alto Parnaíba/MA,-9.112506,-45.9310154,880,7848.73350
D1,Alto Parnaíba/MA,-9.112506,-45.9310154,10,89.19015
1,Alto Piquiri/PR,-24.0239021,-53.4417448,962,9838.41276
D1,Alto Piquiri/PR,-24.0239021,-53.4417448,22,224.99489
1,Alto Rio Doce/MG,-21.0239537,-43.4133507,434,3996.68478
D1,Alto Rio Doce/MG,-21.0239537,-43.4133507,27,248.64168
1,Alto Rio Novo/ES,-19.0577208,-41.0171518,702,8915.41783
D1,Alto Rio Novo/ES,-19.0577208,-41.0171518,22,279.40056
1,Alto Santo/CE,-5.5190371,-38.2719351,1834,10665.27099
D1,Alto Santo/CE,-5.5190371,-38.2719351,28,162.82856
1,Alto Taquari/MT,-17.8269099,-53.2831736,1468,13186.02353
D1,Alto Taquari/MT,-17.8269099,-53.2831736,27,242.52223
1,Alto do Rodrigues/RN,-5.290868,-36.7616726,2446,16607.82184
D1,Alto do Rodrigues/RN,-5.290868,-36.7616726,36,244.43237
1,Altos/PI,-5.0393915,-42.4611694,4358,10732.66839
D1,Altos/PI,-5.0393915,-42.4611694,89,219.18483
1,Altônia/PR,-23.8722004,-53.894037,1142,5149.71140
D1,Altônia/PR,-23.8722004,-53.894037,21,94.69697
1,Alumínio/SP,-23.5203479,-47.2575256,1440,7673.04311
D1,Alumínio/SP,-23.5203479,-47.2575256,41,218.46859
1,Alvarenga/MG,-19.4175,-41.728334,474,12330.90531
D1,Alvarenga/MG,-19.4175,-41.728334,4,104.05827
1,Alvarães/AM,-3.214786,-64.8143124,2861,17638.71763
D1,Alvarães/AM,-3.214786,-64.8143124,46,283.60049
1,Alvinlândia/SP,-22.4431852,-49.7643596,138,4263.20667
D1,Alvinlândia/SP,-22.4431852,-49.7643596,8,247.14242
1,Alvinópolis/MG,-20.1105199,-43.0601805,666,4390.53332
D1,Alvinópolis/MG,-20.1105199,-43.0601805,21,138.44024
1,Alvorada D'Oeste/RO,-11.346271,-62.284697,1094,7755.56501
D1,Alvorada D'Oeste/RO,-11.346271,-62.284697,29,205.58628
1,Alvorada de Minas/MG,-18.7318587,-43.3641479,258,7156.72677
D1,Alvorada de Minas/MG,-18.7318587,-43.3641479,3,83.21775
1,Alvorada do Gurguéia/PI,-8.4465288,-43.8655915,416,7640.03673
D1,Alvorada do Gurguéia/PI,-8.4465288,-43.8655915,10,183.65473
1,Alvorada do Norte/GO,-14.483911,-46.4959897,748,8592.76278
D1,Alvorada do Norte/GO,-14.483911,-46.4959897,7,80.41356
1,Alvorada do Sul/PR,-22.7807269,-51.2307721,816,7093.80162
D1,Alvorada do Sul/PR,-22.7807269,-51.2307721,24,208.64122
1,Alvorada/RS,-29.9981184,-51.0772509,20271,9591.10867
D1,Alvorada/RS,-29.9981184,-51.0772509,723,342.08335
1,Alvorada/TO,-12.478465,-49.124926,1123,13375.41687
D1,Alvorada/TO,-12.478465,-49.124926,20,238.20867
1,Além Paraíba/MG,-21.8760576,-42.6810473,3119,8810.48558
D1,Além Paraíba/MG,-21.8760576,-42.6810473,142,401.11861
1,Amajari/RR,3.6523869,-61.4194315,1023,7758.81684
D1,Amajari/RR,3.6523869,-61.4194315,20,151.68752
1,Amambai/MS,-23.1082701,-55.2284854,3038,7628.18259
D1,Amambai/MS,-23.1082701,-55.2284854,74,185.80827
1,Amaporã/PR,-23.094272,-52.786597,365,5764.37145
D1,Amaporã/PR,-23.094272,-52.786597,7,110.54959
1,Amapá do Maranhão/MA,-1.6762114,-46.0109669,172,2455.38901
D1,Amapá do Maranhão/MA,-1.6762114,-46.0109669,6,85.65310
1,Amapá/AP,2.0529997,-50.7930003,1328,14455.20845
D1,Amapá/AP,2.0529997,-50.7930003,10,108.84946
1,Amaraji/PE,-8.373925,-35.4536527,583,2549.19108
D1,Amaraji/PE,-8.373925,-35.4536527,36,157.41146
1,Amaral Ferrador/RS,-30.8750633,-52.2542051,294,4149.61186
D1,Amaral Ferrador/RS,-30.8750633,-52.2542051,7,98.80028
1,Amaralina/GO,-13.9236199,-49.2962411,92,2392.71782
D1,Amaralina/GO,-13.9236199,-49.2962411,1,26.00780
1,Amarante do Maranhão/MA,-5.56913,-46.747284,1585,3798.31772
D1,Amarante do Maranhão/MA,-5.56913,-46.747284,53,127.00999
1,Amarante/PI,-6.2459374,-42.8476238,1505,8549.19337
D1,Amarante/PI,-6.2459374,-42.8476238,34,193.13792
1,Amargosa/BA,-13.03793715,-39.60796443875596,2793,7459.73665
D1,Amargosa/BA,-13.03793715,-39.60796443875596,50,133.54344
1,Amaturá/AM,-3.3640509,-68.1994689,2354,20057.94138
D1,Amaturá/AM,-3.3640509,-68.1994689,17,144.85344
1,Americana/SP,-22.7392463,-47.3306032,21777,8998.09105
D1,Americana/SP,-22.7392463,-47.3306032,664,274.35976
1,Americano do Brasil/GO,-16.2515808,-49.9806104,730,11842.95912
D1,Americano do Brasil/GO,-16.2515808,-49.9806104,22,356.91110
1,Ametista do Sul/RS,-27.3617341,-53.1826575,754,10185.06011
D1,Ametista do Sul/RS,-27.3617341,-53.1826575,20,270.16075
1,Amontada/CE,-3.3634586,-39.8284791,2867,6541.33108
D1,Amontada/CE,-3.3634586,-39.8284791,54,123.20610
1,Amorinópolis/GO,-16.6211308,-51.0949921,246,8015.64027
D1,Amorinópolis/GO,-16.6211308,-51.0949921,4,130.33561
1,Amparo de São Francisco/SE,-10.1299754,-36.9269099,253,10630.25210
D1,Amparo de São Francisco/SE,-10.1299754,-36.9269099,5,210.08403
1,Amparo do Serra/MG,-20.5070255,-42.8028462,150,3206.49850
D1,Amparo do Serra/MG,-20.5070255,-42.8028462,8,171.01325
1,Amparo/PB,-7.56394725,-37.04652873235175,164,7285.65082
D1,Amparo/PB,-7.56394725,-37.04652873235175,4,177.69880
1,Amparo/SP,-22.70111,-46.76444,6309,8680.87566
D1,Amparo/SP,-22.70111,-46.76444,133,183.00150
1,Ampére/PR,-25.9168712,-53.4742414,2013,10424.11061
D1,Ampére/PR,-25.9168712,-53.4742414,41,212.31423
1,Amélia Rodrigues/BA,-12.4015388,-38.7516971,2245,8962.79144
D1,Amélia Rodrigues/BA,-12.4015388,-38.7516971,45,179.65506
1,América Dourada/BA,-11.4515262,-41.4357517,915,5686.76196
D1,América Dourada/BA,-11.4515262,-41.4357517,12,74.58048
1,Américo Brasiliense/SP,-21.7297099,-48.1052092,3764,9173.32813
D1,Américo Brasiliense/SP,-21.7297099,-48.1052092,87,212.02964
1,Américo de Campos/SP,-20.298476,-49.735904,940,15716.43538
D1,Américo de Campos/SP,-20.298476,-49.735904,25,417.99030
1,Anadia/AL,-9.6830208,-36.3052699,1397,7971.01449
D1,Anadia/AL,-9.6830208,-36.3052699,29,165.46845
1,Anagé/BA,-14.6134669,-41.1376308,863,3994.07599
D1,Anagé/BA,-14.6134669,-41.1376308,21,97.19073
1,Anahy/PR,-24.6450861,-53.1337957,350,12553.80201
D1,Anahy/PR,-24.6450861,-53.1337957,9,322.81205
1,Anajatuba/MA,-3.26441,-44.6179916,937,3471.91344
D1,Anajatuba/MA,-3.26441,-44.6179916,23,85.22306
1,Anajás/PA,-0.9878802,-49.9390114,1356,4567.50202
D1,Anajás/PA,-0.9878802,-49.9390114,22,74.10402
1,Analândia/SP,-22.128917,-47.661939,314,6210.44304
D1,Analândia/SP,-22.128917,-47.661939,4,79.11392
1,Anamã/AM,-3.5797356,-61.4049996,1785,12790.19776
D1,Anamã/AM,-3.5797356,-61.4049996,9,64.48839
1,Ananindeua/PA,-1.374035,-48.4016623,24142,4507.91434
D1,Ananindeua/PA,-1.374035,-48.4016623,802,149.75343
1,Ananás/TO,-6.3663053,-48.080238,1547,16297.93510
D1,Ananás/TO,-6.3663053,-48.080238,24,252.84450
1,Anapu/PA,-3.4668292,-51.2057035,1595,5575.55843
D1,Anapu/PA,-3.4668292,-51.2057035,38,132.83462
1,Anapurus/MA,-3.6751298,-43.1046001,829,5215.80471
D1,Anapurus/MA,-3.6751298,-43.1046001,12,75.50019
1,Anastácio/MS,-20.4832458,-55.8048448,2396,9493.99691
D1,Anastácio/MS,-20.4832458,-55.8048448,70,277.37053
1,Anaurilândia/MS,-22.185169,-52.719056,527,5806.52270
D1,Anaurilândia/MS,-22.185169,-52.719056,14,154.25297
1,Anchieta/ES,-20.8057672,-40.6454564,4765,16001.20891
D1,Anchieta/ES,-20.8057672,-40.6454564,86,288.79412
1,Anchieta/SC,-26.5350527,-53.3293938,654,11768.94008
D1,Anchieta/SC,-26.5350527,-53.3293938,9,161.95789
1,Andaraí/BA,-12.8059674,-41.3322919,877,6678.34298
D1,Andaraí/BA,-12.8059674,-41.3322919,9,68.53488
1,Andirá/PR,-23.0494761,-50.2310027,2199,11035.83258
D1,Andirá/PR,-23.0494761,-50.2310027,71,356.31838
1,Andorinha/BA,-10.3445708,-39.8334411,906,6246.98338
D1,Andorinha/BA,-10.3445708,-39.8334411,16,110.32200
1,Andradas/MG,-22.0680484,-46.5688976,3686,8904.24196
D1,Andradas/MG,-22.0680484,-46.5688976,108,260.89477
1,Andradina/SP,-20.896505,-51.3742765,6000,10489.14374
D1,Andradina/SP,-20.896505,-51.3742765,251,438.79585
1,Andrelândia/MG,-21.739722,-44.308889,206,1687.69458
D1,Andrelândia/MG,-21.739722,-44.308889,11,90.11961
1,André da Rocha/RS,-28.6309124,-51.5733328,112,8339.53835
1,Angatuba/SP,-23.4938938,-48.4110675,2568,10078.88850
D1,Angatuba/SP,-23.4938938,-48.4110675,63,247.26245
1,Angelim/PE,-8.8902038,-36.2872987,218,1941.92054
D1,Angelim/PE,-8.8902038,-36.2872987,9,80.17103
1,Angelina/SC,-27.5805287,-48.9838759,516,10879.19039
D1,Angelina/SC,-27.5805287,-48.9838759,2,42.16740
1,Angelândia/MG,-17.7253,-42.2728,122,1425.73332
D1,Angelândia/MG,-17.7253,-42.2728,1,11.68634
1,Angical do Piauí/PI,-6.0872666,-42.7366138,811,11956.36149
D1,Angical do Piauí/PI,-6.0872666,-42.7366138,12,176.91287
1,Angical/BA,-12.005623,-44.7000236,646,4634.81131
D1,Angical/BA,-12.005623,-44.7000236,15,107.61946
1,Angico/TO,-6.3893733,-47.8656722,231,6687.89809
D1,Angico/TO,-6.3893733,-47.8656722,3,86.85582
1,Angicos/RN,-5.6666344,-36.6009064,1066,9107.21914
D1,Angicos/RN,-5.6666344,-36.6009064,21,179.41051
1,Angra dos Reis/RJ,-23.0063966,-44.316326,13803,6666.69887
D1,Angra dos Reis/RJ,-23.0063966,-44.316326,475,229.41983
1,Anguera/BA,-12.1509425,-39.2452469,450,3983.35841
D1,Anguera/BA,-12.1509425,-39.2452469,2,17.70382
1,Angélica/MS,-22.1588196,-53.7728504,1244,11379.43652
D1,Angélica/MS,-22.1588196,-53.7728504,19,173.80168
1,Anhanguera/GO,-18.3338749,-48.220363,90,7758.62069
D1,Anhanguera/GO,-18.3338749,-48.220363,6,517.24138
1,Anhembi/SP,-22.7891096,-48.1316776,256,3754.21616
D1,Anhembi/SP,-22.7891096,-48.1316776,6,87.98944
1,Anhumas/SP,-22.2956478,-51.3873401,216,5212.35521
D1,Anhumas/SP,-22.2956478,-51.3873401,6,144.78764
1,Anicuns/GO,-16.4606451,-49.9572265,2756,12538.10109
D1,Anicuns/GO,-16.4606451,-49.9572265,63,286.61116
1,Anita Garibaldi/SC,-27.6855032,-51.1293873,1164,16731.34972
D1,Anita Garibaldi/SC,-27.6855032,-51.1293873,11,158.11413
1,Anitápolis/SC,-27.9041185,-49.1287395,334,10346.96406
D1,Anitápolis/SC,-27.9041185,-49.1287395,4,123.91574
1,Anori/AM,-3.7435254,-61.6605203,1887,8786.14332
D1,Anori/AM,-3.7435254,-61.6605203,31,144.34046
1,Anta Gorda/RS,-28.9718745,-52.0069187,607,10182.85523
D1,Anta Gorda/RS,-28.9718745,-52.0069187,4,67.10284
1,Antas/BA,-10.4114649,-38.3308815,1309,6720.05750
D1,Antas/BA,-10.4114649,-38.3308815,11,56.47107
1,Antonina do Norte/CE,-6.7754187,-39.9879345,699,9474.11223
D1,Antonina do Norte/CE,-6.7754187,-39.9879345,26,352.39902
1,Antonina/PR,-25.4298854,-48.7125431,2475,13061.37527
D1,Antonina/PR,-25.4298854,-48.7125431,65,343.02602
1,Antônio Almeida/PI,-7.2186016,-44.1950248,405,12776.02524
D1,Antônio Almeida/PI,-7.2186016,-44.1950248,10,315.45741
1,Antônio Cardoso/BA,-12.4363122,-39.1200307,521,4461.76244
D1,Antônio Cardoso/BA,-12.4363122,-39.1200307,10,85.63843
1,Antônio Carlos/MG,-21.318334,-43.746666,686,5986.56078
D1,Antônio Carlos/MG,-21.318334,-43.746666,15,130.90147
1,Antônio Carlos/SC,-27.5168462,-48.7684715,1568,18205.03889
D1,Antônio Carlos/SC,-27.5168462,-48.7684715,25,290.25891
1,Antônio Dias/MG,-19.6525,-42.872778,567,6113.20755
D1,Antônio Dias/MG,-19.6525,-42.872778,23,247.97844
1,Antônio Gonçalves/BA,-10.5715409,-40.2748824,856,7206.60044
D1,Antônio Gonçalves/BA,-10.5715409,-40.2748824,9,75.77033
1,Antônio João/MS,-22.1892837,-55.9508227,508,5631.92905
D1,Antônio João/MS,-22.1892837,-55.9508227,13,144.12417
1,Antônio Martins/RN,-6.2155812,-37.8890129,644,9001.95695
D1,Antônio Martins/RN,-6.2155812,-37.8890129,6,83.86916
1,Antônio Olinto/PR,-25.9849006,-50.1974516,500,6732.19335
D1,Antônio Olinto/PR,-25.9849006,-50.1974516,11,148.10825
1,Antônio Prado de Minas/MG,-21.0171988,-42.1101106,160,10081.91556
D1,Antônio Prado de Minas/MG,-21.0171988,-42.1101106,5,315.05986
1,Antônio Prado/RS,-28.8567806,-51.2801355,2617,20061.32618
D1,Antônio Prado/RS,-28.8567806,-51.2801355,28,214.64163
1,Anápolis/GO,-16.3332828,-48.9525756,39260,10021.13474
D1,Anápolis/GO,-16.3332828,-48.9525756,1414,360.92421
1,Anísio de Abreu/PI,-9.185643,-43.04941,290,2918.09217
D1,Anísio de Abreu/PI,-9.185643,-43.04941,12,120.74864
1,Aparecida d'Oeste/SP,-20.4498109,-50.8808706,722,17364.11736
D1,Aparecida d'Oeste/SP,-20.4498109,-50.8808706,13,312.65031
1,Aparecida de Goiânia/GO,-16.8226769,-49.2452546,68722,11644.91499
D1,Aparecida de Goiânia/GO,-16.8226769,-49.2452546,1400,237.22943
1,Aparecida do Rio Doce/GO,-18.2980167,-51.1491312,230,9296.68553
D1,Aparecida do Rio Doce/GO,-18.2980167,-51.1491312,3,121.26112
1,Aparecida do Rio Negro/TO,-9.9513491,-47.9773786,340,7013.20132
D1,Aparecida do Rio Negro/TO,-9.9513491,-47.9773786,8,165.01650
1,Aparecida do Taboado/MS,-20.0840304,-51.1013943,3511,13468.10388
D1,Aparecida do Taboado/MS,-20.0840304,-51.1013943,51,195.63466
1,Aparecida/PB,-6.7859598, -38.0831353,914,10860.26616
D1,Aparecida/PB,-6.7859598, -38.0831353,13,154.46768
1,Aparecida/SP,-22.851552,-45.2340924,2230,6162.77463
D1,Aparecida/SP,-22.851552,-45.2340924,91,251.48542
1,Aperibé/RJ,-21.6211928,-42.1028167,570,4789.51349
D1,Aperibé/RJ,-21.6211928,-42.1028167,27,226.87169
1,Apiacá/ES,-21.152272,-41.569297,818,10828.70003
D1,Apiacá/ES,-21.152272,-41.569297,33,436.85465
1,Apiacás/MT,-9.5678422,-57.394852,1756,17076.72858
D1,Apiacás/MT,-9.5678422,-57.394852,16,155.59662
1,Apiaí/SP,-24.5076527,-48.8461582,1350,5572.52539
D1,Apiaí/SP,-24.5076527,-48.8461582,70,288.94576
1,Apicum-Açu/MA,-1.5279295,-45.082278,509,2923.10343
D1,Apicum-Açu/MA,-1.5279295,-45.082278,5,28.71418
1,Apiúna/SC,-27.0374658,-49.3885037,819,7549.77876
D1,Apiúna/SC,-27.0374658,-49.3885037,15,138.27434
1,Apodi/RN,-5.6631109,-37.796927,6140,17115.45966
D1,Apodi/RN,-5.6631109,-37.796927,94,262.02821
1,Aporá/BA,-11.6599747,-38.0794757,553,3108.83742
D1,Aporá/BA,-11.6599747,-38.0794757,19,106.81358
1,Aporé/GO,-18.9642193,-51.92804,359,8482.98677
D1,Aporé/GO,-18.9642193,-51.92804,10,236.29490
1,Apuarema/BA,-13.8517897,-39.7457126,696,9531.63517
D1,Apuarema/BA,-13.8517897,-39.7457126,9,123.25390
1,Apucarana/PR,-23.5525327,-51.4610764,9771,7172.21839
D1,Apucarana/PR,-23.5525327,-51.4610764,397,291.41037
1,Apuiarés/CE,-3.9460303,-39.4313298,1220,8315.15812
D1,Apuiarés/CE,-3.9460303,-39.4313298,25,170.39258
1,Apuí/AM,-7.1940195,-59.8830192,1390,6216.73599
D1,Apuí/AM,-7.1940195,-59.8830192,31,138.64663
1,Aquidabã/SE,-10.2837579,-37.0188687,2251,10382.36244
D1,Aquidabã/SE,-10.2837579,-37.0188687,39,179.88100
1,Aquidauana/MS,-20.473969,-55.7821375,5209,10845.53083
D1,Aquidauana/MS,-20.473969,-55.7821375,145,301.90093
1,Aquiraz/CE,-3.9063117,-38.387504,6442,7959.47365
D1,Aquiraz/CE,-3.9063117,-38.387504,86,106.25811
1,Arabutã/SC,-27.1587028,-52.1438142,414,9702.36700
D1,Arabutã/SC,-27.1587028,-52.1438142,8,187.48535
1,Aracaju/SE,-10.9162061,-37.0774655,120118,18065.35641
D1,Aracaju/SE,-10.9162061,-37.0774655,2303,346.36371
1,Aracati/CE,-4.558259,-37.767894,7633,10180.72691
D1,Aracati/CE,-4.558259,-37.767894,155,206.73558
1,Aracatu/BA,-14.4274236,-41.4604105,799,6124.95209
D1,Aracatu/BA,-14.4274236,-41.4604105,15,114.98658
1,Araci/BA,-11.3356065,-38.9573261,3488,6382.66725
D1,Araci/BA,-11.3356065,-38.9573261,46,84.17508
1,Aracitaba/MG,-21.3425,-43.378611,86,4176.78485
D1,Aracitaba/MG,-21.3425,-43.378611,8,388.53813
1,Aracoiaba/CE,-4.3702577,-38.8084313,4067,15326.92670
D1,Aracoiaba/CE,-4.3702577,-38.8084313,31,116.82683
1,Aracruz/ES,-19.8245218,-40.2735025,15763,15288.89148
D1,Aracruz/ES,-19.8245218,-40.2735025,221,214.35292
1,Aragarças/GO,-15.8957166,-52.2514538,2501,12336.60534
D1,Aragarças/GO,-15.8957166,-52.2514538,55,271.29680
1,Aragoiânia/GO,-16.9146388,-49.4499148,1031,9822.78963
D1,Aragoiânia/GO,-16.9146388,-49.4499148,21,200.07622
1,Aragominas/TO,-7.1654101,-48.525488,539,9404.99040
D1,Aragominas/TO,-7.1654101,-48.525488,9,157.04066
1,Araguacema/TO,-8.8067391,-49.5560969,639,8930.81761
D1,Araguacema/TO,-8.8067391,-49.5560969,11,153.73864
1,Araguaiana/MT,-15.729144,-51.834112,286,9199.09939
D1,Araguaiana/MT,-15.729144,-51.834112,6,192.98810
1,Araguainha/MT,-16.857016,-53.031778,29,3065.53911
1,Araguanã/MA,-2.9508403,-45.6651986,806,5182.94643
D1,Araguanã/MA,-2.9508403,-45.6651986,5,32.15227
1,Araguanã/TO,-6.5799107,-48.6428482,555,9580.52822
D1,Araguanã/TO,-6.5799107,-48.6428482,14,241.67098
1,Araguapaz/GO,-15.0937927,-50.626417,584,7503.53334
D1,Araguapaz/GO,-15.0937927,-50.626417,21,269.81884
1,Araguari/MG,-18.6511256,-48.1933764,15426,13092.29790
D1,Araguari/MG,-18.6511256,-48.1933764,391,331.84808
1,Araguatins/TO,-5.6522925,-48.1158973,2372,6557.92093
D1,Araguatins/TO,-5.6522925,-48.1158973,59,163.11861
1,Araguaçu/TO,-12.928934,-49.823134,832,9826.38479
D1,Araguaçu/TO,-12.928934,-49.823134,19,224.40061
1,Araguaína/TO,-7.193241,-48.2018597,33632,18339.95888
D1,Araguaína/TO,-7.193241,-48.2018597,464,253.02512
1,Araioses/MA,-2.890914,-41.904993,652,1394.02621
D1,Araioses/MA,-2.890914,-41.904993,14,29.93308
1,Aral Moreira/MS,-22.951141,-55.6268421,523,4240.99903
D1,Aral Moreira/MS,-22.951141,-55.6268421,11,89.19883
1,Aramari/BA,-12.0907897,-38.4985065,600,5235.14528
D1,Aramari/BA,-12.0907897,-38.4985065,12,104.70291
1,Arambaré/RS,-30.9132252,-51.4994625,180,5053.34082
D1,Arambaré/RS,-30.9132252,-51.4994625,8,224.59293
1,Arame/MA,-4.8858769,-46.0102484,1537,4691.12440
D1,Arame/MA,-4.8858769,-46.0102484,36,109.87669
1,Aramina/SP,-20.0876144,-47.789201,315,5570.29178
D1,Aramina/SP,-20.0876144,-47.789201,16,282.93546
1,Arandu/SP,-23.1345103,-49.0545651,500,7855.45954
D1,Arandu/SP,-23.1345103,-49.0545651,12,188.53103
1,Arantina/MG,-21.911667,-44.255833,156,5597.41658
D1,Arantina/MG,-21.911667,-44.255833,3,107.64263
1,Arapeí/SP,-22.6738889,-44.4477778,210,8536.58537
D1,Arapeí/SP,-22.6738889,-44.4477778,3,121.95122
1,Arapiraca/AL,-9.754866,-36.661471,28566,12257.61327
D1,Arapiraca/AL,-9.754866,-36.661471,451,193.52319
1,Arapoema/TO,-7.6575001,-49.0641484,487,7360.94317
D1,Arapoema/TO,-7.6575001,-49.0641484,11,166.26360
1,Araponga/MG,-20.666667,-42.520556,468,5536.49592
D1,Araponga/MG,-20.666667,-42.520556,7,82.81084
1,Arapongas/PR,-23.415296,-51.42592,13200,10576.07563
D1,Arapongas/PR,-23.415296,-51.42592,472,378.17483
1,Araporã/MG,-18.4318188,-49.188313,1858,26807.09854
D1,Araporã/MG,-18.4318188,-49.188313,28,403.98211
1,Arapoti/PR,-24.1457957,-49.8224605,2927,10342.75618
D1,Arapoti/PR,-24.1457957,-49.8224605,54,190.81272
1,Araputanga/MT,-15.4710868,-58.346796,1936,11421.15509
D1,Araputanga/MT,-15.4710868,-58.346796,53,312.66592
1,Arapuá/MG,-19.034444,-46.155556,264,9312.16931
D1,Arapuá/MG,-19.034444,-46.155556,2,70.54674
1,Arapuã/PR,-24.3079525,-51.7901941,211,7012.29644
D1,Arapuã/PR,-24.3079525,-51.7901941,5,166.16816
1,Araquari/SC,-26.3703324,-48.7210994,3532,8936.34248
D1,Araquari/SC,-26.3703324,-48.7210994,74,187.22801
1,Arara/PB,-6.8271895,-35.7605703,974,7192.43834
D1,Arara/PB,-6.8271895,-35.7605703,28,206.76414
1,Araranguá/SC,-28.9348832,-49.4858389,10286,14936.03613
D1,Araranguá/SC,-28.9348832,-49.4858389,237,344.14161
1,Araraquara/SP,-21.7886713,-48.1773096,21144,8871.39746
D1,Araraquara/SP,-21.7886713,-48.1773096,431,180.83486
1,Araras/SP,-22.3569477,-47.3838889,15627,11532.33067
D1,Araras/SP,-22.3569477,-47.3838889,345,254.60127
1,Ararendá/CE,-4.7504395,-40.8303611,1275,11634.27320
D1,Ararendá/CE,-4.7504395,-40.8303611,20,182.49840
1,Arari/MA,-3.4547602,-44.7772723,711,2375.38420
D1,Arari/MA,-3.4547602,-44.7772723,31,103.56809
1,Araricá/RS,-29.6168543,-50.929121,990,17154.73921
D1,Araricá/RS,-29.6168543,-50.929121,24,415.87247
1,Araripe/CE,-7.212861,-40.1359222,1309,6045.07250
D1,Araripe/CE,-7.212861,-40.1359222,17,78.50744
1,Araripina/PE,-7.5768582,-40.5038509,6597,7773.61425
D1,Araripina/PE,-7.5768582,-40.5038509,146,172.03997
1,Araruama/RJ,-22.8733203,-42.3428897,6053,4507.30865
D1,Araruama/RJ,-22.8733203,-42.3428897,413,307.53651
1,Araruna/PB,-6.5321155,-35.7397595,650,3176.46484
D1,Araruna/PB,-6.5321155,-35.7397595,16,78.18990
1,Araruna/PR,-23.9320308,-52.4976047,1927,13764.28571
D1,Araruna/PR,-23.9320308,-52.4976047,29,207.14286
1,Arataca/BA,-15.2617424,-39.4122943,770,7024.90649
D1,Arataca/BA,-15.2617424,-39.4122943,15,136.84883
1,Aratiba/RS,-27.3955734,-52.3024325,366,5913.71789
D1,Aratiba/RS,-27.3955734,-52.3024325,6,96.94619
1,Aratuba/CE,-4.4195958,-39.0463737,1380,11692.93340
D1,Aratuba/CE,-4.4195958,-39.0463737,8,67.78512
1,Aratuípe/BA,-13.077137,-39.0010786,421,4764.06020
D1,Aratuípe/BA,-13.077137,-39.0010786,9,101.84452
1,Araucária/PR,-25.5861107,-49.4051209,24983,17086.59909
D1,Araucária/PR,-25.5861107,-49.4051209,389,266.04839
1,Arauá/SE,-11.2644014,-37.6181058,1222,12285.11109
D1,Arauá/SE,-11.2644014,-37.6181058,20,201.06565
1,Araxá/MG,-19.5928536,-46.940241,12729,11858.91165
D1,Araxá/MG,-19.5928536,-46.940241,202,188.19233
1,Araçagi/PB,-6.8519969,-35.3835602,1462,8640.15129
D1,Araçagi/PB,-6.8519969,-35.3835602,19,112.28651
1,Araçariguama/SP,-23.438611,-47.061389,1754,7672.79090
D1,Araçariguama/SP,-23.438611,-47.061389,59,258.09274
1,Araçatuba/SP,-21.207992,-50.4390225,25603,12922.38895
D1,Araçatuba/SP,-21.207992,-50.4390225,763,385.10264
1,Araçaí/MG,-19.200833,-44.2475,72,3058.62362
D1,Araçaí/MG,-19.200833,-44.2475,1,42.48088
1,Araçoiaba da Serra/SP,-23.5045367,-47.6168158,2704,7775.47734
D1,Araçoiaba da Serra/SP,-23.5045367,-47.6168158,67,192.66161
1,Araçoiaba/PE,-7.7856903,-35.0898881,643,3101.33603
D1,Araçoiaba/PE,-7.7856903,-35.0898881,29,139.87363
1,Araçu/GO,-16.3561579,-49.6815269,422,12105.56512
D1,Araçu/GO,-16.3561579,-49.6815269,17,487.66495
1,Araçuaí/MG,-16.8484451,-42.0661868,1692,4608.84724
D1,Araçuaí/MG,-16.8484451,-42.0661868,45,122.57572
1,Araçás/BA,-12.2139176,-38.2026159,652,5340.76016
D1,Araçás/BA,-12.2139176,-38.2026159,11,90.10485
1,Araújos/MG,-19.948055,-45.165556,808,8594.83034
D1,Araújos/MG,-19.948055,-45.165556,10,106.37166
1,Arceburgo/MG,-21.364444,-46.939722,1104,10144.26169
D1,Arceburgo/MG,-21.364444,-46.939722,28,257.28200
1,Arco-Íris/SP,-21.7741308,-50.4668814,144,8121.82741
D1,Arco-Íris/SP,-21.7741308,-50.4668814,8,451.21263
1,Arcos/MG,-20.282223,-45.539444,4947,12251.11441
D1,Arcos/MG,-20.282223,-45.539444,110,272.41209
1,Arcoverde/PE,-8.415192,-37.057748,5734,7663.52142
D1,Arcoverde/PE,-8.415192,-37.057748,127,169.73617
1,Areado/MG,-21.3582771,-46.1476688,995,6554.24544
D1,Areado/MG,-21.3582771,-46.1476688,19,125.15645
1,Areal/RJ,-22.2314922,-43.1056264,1270,10024.46918
D1,Areal/RJ,-22.2314922,-43.1056264,46,363.09101
1,Arealva/SP,-22.0301906,-48.9111936,919,10669.91757
D1,Arealva/SP,-22.0301906,-48.9111936,14,162.54499
1,Areia Branca/RN,-4.9506652,-37.1263312,2747,9822.29056
D1,Areia Branca/RN,-4.9506652,-37.1263312,93,332.53477
1,Areia Branca/SE,-10.7591455,-37.3148072,2032,10874.45146
D1,Areia Branca/SE,-10.7591455,-37.3148072,46,246.17361
1,Areia de Baraúnas/PB,-7.1233949,-36.9446216,190,8979.20605
D1,Areia de Baraúnas/PB,-7.1233949,-36.9446216,4,189.03592
1,Areia/PB,-6.9680243,-35.6994783,1625,7172.49294
D1,Areia/PB,-6.9680243,-35.6994783,27,119.17373
1,Areial/PB,-7.0501306,-35.9245244,348,4952.32674
D1,Areial/PB,-7.0501306,-35.9245244,10,142.30824
1,Areias/SP,-22.5800929,-44.6975127,321,8239.21971
D1,Areias/SP,-22.5800929,-44.6975127,1,25.66735
1,Areiópolis/SP,-22.6758064,-48.6673653,1234,11059.32963
D1,Areiópolis/SP,-22.6758064,-48.6673653,18,161.31923
1,Arenápolis/MT,-14.4610369,-56.8432806,1774,18669.75374
D1,Arenápolis/MT,-14.4610369,-56.8432806,32,336.77121
1,Arenópolis/GO,-16.3859286,-51.55937,208,8201.89274
D1,Arenópolis/GO,-16.3859286,-51.55937,8,315.45741
1,Argirita/MG,-21.612761,-42.8371922,255,9430.47337
D1,Argirita/MG,-21.612761,-42.8371922,7,258.87574
1,Aricanduva/MG,-17.8678,-42.5569,110,2087.68267
1,Arinos/MG,-15.917223,-46.106111,700,3918.93405
D1,Arinos/MG,-15.917223,-46.106111,22,123.16650
1,Aripuanã/MT,-10.175806,-59.4439663,2860,12591.35335
D1,Aripuanã/MT,-10.175806,-59.4439663,43,189.31056
1,Ariquemes/RO,-9.9076522,-63.033069,21600,19721.88490
D1,Ariquemes/RO,-9.9076522,-63.033069,461,420.91615
1,Ariranha do Ivaí/PR,-24.3834527,-51.5876772,177,8567.27977
D1,Ariranha do Ivaí/PR,-24.3834527,-51.5876772,3,145.20813
1,Ariranha/SP,-21.18716,-48.790418,864,8851.55210
D1,Ariranha/SP,-21.18716,-48.790418,23,235.63160
1,Armazém/SC,-28.2624996,-49.0190126,1389,15857.97465
D1,Armazém/SC,-28.2624996,-49.0190126,30,342.50485
1,Armação dos Búzios/RJ,-22.7597805,-41.8875267,4505,13066.68214
D1,Armação dos Búzios/RJ,-22.7597805,-41.8875267,56,162.42713
1,Arneiroz/CE,-6.3235099,-40.1603859,641,8171.85110
D1,Arneiroz/CE,-6.3235099,-40.1603859,16,203.97756
1,Aroazes/PI,-6.1108814,-41.7886137,578,9919.34100
D1,Aroazes/PI,-6.1108814,-41.7886137,12,205.93788
1,Aroeiras do Itaim/PI,-7.2797031,-41.5629681,125,4900.03920
D1,Aroeiras do Itaim/PI,-7.2797031,-41.5629681,2,78.40063
1,Aroeiras/PB,-7.5462904,-35.7080002,1644,8600.12555
D1,Aroeiras/PB,-7.5462904,-35.7080002,11,57.54342
1,Arraial do Cabo/RJ,-22.9662839,-42.024427,712,2327.32978
D1,Arraial do Cabo/RJ,-22.9662839,-42.024427,38,124.21142
1,Arraial/PI,-6.6541632,-42.5335332,154,3262.71186
D1,Arraial/PI,-6.6541632,-42.5335332,3,63.55932
1,Arraias/TO,-12.9287788,-46.9437231,918,8714.63831
D1,Arraias/TO,-12.9287788,-46.9437231,7,66.45149
1,Arroio Grande/RS,-32.2384246,-53.0866661,1816,9957.23215
D1,Arroio Grande/RS,-32.2384246,-53.0866661,52,285.11898
1,Arroio Trinta/SC,-26.9301976,-51.334928,592,16680.75514
D1,Arroio Trinta/SC,-26.9301976,-51.334928,13,366.30037
1,Arroio do Meio/RS,-29.4020392,-51.9444993,3042,14508.51338
D1,Arroio do Meio/RS,-29.4020392,-51.9444993,43,205.08418
1,Arroio do Padre/RS,-31.4428773,-52.4228985,221,7488.98678
D1,Arroio do Padre/RS,-31.4428773,-52.4228985,3,101.66045
1,Arroio do Sal/RS,-29.549852,-49.8874395,1104,10740.34439
D1,Arroio do Sal/RS,-29.549852,-49.8874395,36,350.22862
1,Arroio do Tigre/RS,-29.334158,-53.0888935,1151,8581.22717
D1,Arroio do Tigre/RS,-29.334158,-53.0888935,19,141.65362
1,Arroio dos Ratos/RS,-30.0894524,-51.7265541,968,6827.96078
D1,Arroio dos Ratos/RS,-30.0894524,-51.7265541,32,225.71771
1,Artur Nogueira/SP,-22.572737,-47.172679,4533,8191.18179
D1,Artur Nogueira/SP,-22.572737,-47.172679,114,205.99928
1,Aruanã/GO,-14.9162439,-51.0715692,535,5291.79031
D1,Aruanã/GO,-14.9162439,-51.0715692,13,128.58556
1,Arujá/SP,-23.396266,-46.3175449,7156,7850.19252
D1,Arujá/SP,-23.396266,-46.3175449,288,315.93844
1,Arvoredo/SC,-27.0752908,-52.4571847,300,13428.82722
D1,Arvoredo/SC,-27.0752908,-52.4571847,4,179.05103
1,Arvorezinha/RS,-28.87369,-52.17808,811,7780.86923
D1,Arvorezinha/RS,-28.87369,-52.17808,26,249.44834
1,Arês/RN,-6.1969216,-35.1642968,1117,7747.79774
D1,Arês/RN,-6.1969216,-35.1642968,23,159.53388
1,Ascurra/SC,-26.9569975,-49.3767752,1144,14339.43344
D1,Ascurra/SC,-26.9569975,-49.3767752,10,125.34470
1,Aspásia/SP,-20.160028,-50.728046,174,9570.95710
D1,Aspásia/SP,-20.160028,-50.728046,5,275.02750
1,Assaré/CE,-6.8746791,-39.8741385,2094,8918.98799
D1,Assaré/CE,-6.8746791,-39.8741385,41,174.63157
1,Assaí/PR,-23.3736041,-50.8454929,1326,8867.19272
D1,Assaí/PR,-23.3736041,-50.8454929,42,280.86131
1,Assis Brasil/AC,-10.9409203,-69.5672108,1763,23400.58402
D1,Assis Brasil/AC,-10.9409203,-69.5672108,24,318.55588
1,Assis Chateaubriand/PR,-24.4054826,-53.5120468,4238,12711.45771
D1,Assis Chateaubriand/PR,-24.4054826,-53.5120468,92,275.94481
1,Assis/SP,-22.6620892,-50.420623,10541,10030.73644
D1,Assis/SP,-22.6620892,-50.420623,365,347.33126
1,Assunção do Piauí/PI,-5.8610212,-41.0485091,330,4196.87142
D1,Assunção do Piauí/PI,-5.8610212,-41.0485091,8,101.74234
1,Assunção/PB,-7.073396,-36.7274003,397,9853.56168
D1,Assunção/PB,-7.073396,-36.7274003,5,124.10027
1,Astolfo Dutra/MG,-21.3132636,-42.8624102,1308,9166.08269
D1,Astolfo Dutra/MG,-21.3132636,-42.8624102,22,154.16959
1,Astorga/PR,-23.2350184,-51.6647074,3144,11995.87928
D1,Astorga/PR,-23.2350184,-51.6647074,73,278.53028
1,Atalaia do Norte/AM,-4.3658547,-70.1908742,2795,13702.32376
D1,Atalaia do Norte/AM,-4.3658547,-70.1908742,9,44.12197
1,Atalaia/AL,-9.5029595,-36.0219316,1160,2449.06577
D1,Atalaia/AL,-9.5029595,-36.0219316,47,99.22939
1,Atalaia/PR,-23.1513833,-52.0529697,434,11182.68488
D1,Atalaia/PR,-23.1513833,-52.0529697,18,463.79799
1,Atalanta/SC,-27.421916,-49.778863,430,13458.52895
D1,Atalanta/SC,-27.421916,-49.778863,11,344.28795
1,Ataléia/MG,-18.04432,-41.1110524,1085,8558.13220
D1,Ataléia/MG,-18.04432,-41.1110524,8,63.10144
1,Atibaia/SP,-23.1177393,-46.5547861,10510,7294.15357
D1,Atibaia/SP,-23.1177393,-46.5547861,242,167.95292
1,Atilio Vivacqua/ES,-20.9139369,-41.1947519,1479,12218.09170
D1,Atilio Vivacqua/ES,-20.9139369,-41.1947519,28,231.30938
1,Augustinópolis/TO,-5.4662267,-47.8897519,1490,7992.27592
D1,Augustinópolis/TO,-5.4662267,-47.8897519,27,144.82648
1,Augusto Corrêa/PA,-1.0229335,-46.6404029,1996,4295.15182
D1,Augusto Corrêa/PA,-1.0229335,-46.6404029,44,94.68271
1,Augusto Pestana/RS,-28.5148413,-53.9906433,737,11163.28385
D1,Augusto Pestana/RS,-28.5148413,-53.9906433,13,196.91003
1,Augusto de Lima/MG,-18.1092963,-44.2651945,273,5627.70563
D1,Augusto de Lima/MG,-18.1092963,-44.2651945,10,206.14306
1,Aurelino Leal/BA,-14.3167137,-39.3256107,987,8735.28631
D1,Aurelino Leal/BA,-14.3167137,-39.3256107,28,247.80954
1,Auriflama/SP,-20.6840418,-50.5554616,1869,12253.32721
D1,Auriflama/SP,-20.6840418,-50.5554616,68,445.81394
1,Aurilândia/GO,-16.6772599,-50.4641231,193,6311.31458
D1,Aurilândia/GO,-16.6772599,-50.4641231,7,228.90778
1,Aurora do Pará/PA,-2.1323199,-47.558436,1533,4824.85129
D1,Aurora do Pará/PA,-2.1323199,-47.558436,14,44.06257
1,Aurora do Tocantins/TO,-12.71045,-46.407604,188,4969.60085
D1,Aurora do Tocantins/TO,-12.71045,-46.407604,5,132.17024
1,Aurora/CE,-6.9426019,-38.9693765,1691,6871.19057
D1,Aurora/CE,-6.9426019,-38.9693765,37,150.34539
1,Aurora/SC,-27.3166417,-49.6368502,819,14411.40243
D1,Aurora/SC,-27.3166417,-49.6368502,15,263.94510
1,Autazes/AM,-3.5833283,-59.1301518,2867,7115.90966
D1,Autazes/AM,-3.5833283,-59.1301518,95,235.79052
1,Avanhandava/SP,-21.4603331,-49.9465156,936,6753.73404
D1,Avanhandava/SP,-21.4603331,-49.9465156,35,252.54347
1,Avaré/SP,-23.1045215,-48.9259103,9929,10883.24272
D1,Avaré/SP,-23.1045215,-48.9259103,219,240.04735
1,Avaí/SP,-22.1564662,-49.3316395,436,8020.60338
D1,Avaí/SP,-22.1564662,-49.3316395,12,220.75055
1,Aveiro/PA,-3.6049239,-55.3310742,650,3962.44818
D1,Aveiro/PA,-3.6049239,-55.3310742,12,73.15289
1,Avelino Lopes/PI,-10.1346855,-43.9489525,405,3575.84319
D1,Avelino Lopes/PI,-10.1346855,-43.9489525,19,167.75561
1,Avelinópolis/GO,-16.4672409,-49.7578661,286,11872.14612
D1,Avelinópolis/GO,-16.4672409,-49.7578661,14,581.15401
1,Axixá do Tocantins/TO,-5.612747,-47.77007,1028,10503.72944
D1,Axixá do Tocantins/TO,-5.612747,-47.77007,19,194.13508
1,Axixá/MA,-2.8379465,-44.0561053,191,1567.75835
D1,Axixá/MA,-2.8379465,-44.0561053,7,57.45711
1,Açailândia/MA,-4.9514278,-47.4844564,5381,4756.85328
D1,Açailândia/MA,-4.9514278,-47.4844564,214,189.17796
1,Açu/RN,-5.5836157,-36.9139541,7558,12945.32749
D1,Açu/RN,-5.5836157,-36.9139541,143,244.93012
1,Açucena/MG,-19.073056,-42.546666,753,8038.00171
D1,Açucena/MG,-19.073056,-42.546666,30,320.23911
1,Babaçulândia/TO,-7.2034355,-47.761613,809,7584.84905
D1,Babaçulândia/TO,-7.2034355,-47.761613,5,46.87793
1,Bacabal/MA,-4.2318132,-44.781167,5138,4903.13961
D1,Bacabal/MA,-4.2318132,-44.781167,185,176.54356
1,Bacabeira/MA,-2.9775747,-44.3155943,342,1982.37885
D1,Bacabeira/MA,-2.9775747,-44.3155943,9,52.16786
1,Bacuri/MA,-1.728894,-45.1417148,580,3109.25271
D1,Bacuri/MA,-1.728894,-45.1417148,4,21.44312
1,Bacurituba/MA,-2.7082587,-44.7381309,117,2063.49206
D1,Bacurituba/MA,-2.7082587,-44.7381309,2,35.27337
1,Bady Bassitt/SP,-20.9178969,-49.4517911,3486,19627.27324
D1,Bady Bassitt/SP,-20.9178969,-49.4517911,68,382.86133
1,Baependi/MG,-21.959162,-44.8899249,1440,7500.39065
D1,Baependi/MG,-21.959162,-44.8899249,12,62.50326
1,Bagre/PA,-1.8994498,-50.2103844,911,2908.22027
D1,Bagre/PA,-1.8994498,-50.2103844,12,38.30806
1,Bagé/RS,-31.3314264,-54.1062808,10077,8305.10570
D1,Bagé/RS,-31.3314264,-54.1062808,270,222.52442
1,Baianópolis/BA,-12.3067564,-44.5383591,831,5965.97028
D1,Baianópolis/BA,-12.3067564,-44.5383591,11,78.97193
1,Baixa Grande do Ribeiro/PI,-7.862861,-45.2113289,2494,21369.20572
D1,Baixa Grande do Ribeiro/PI,-7.862861,-45.2113289,29,248.47914
1,Baixa Grande/BA,-11.9630941,-40.1657537,749,3662.77080
D1,Baixa Grande/BA,-11.9630941,-40.1657537,13,63.57279
1,Baixio/CE,-6.7303544,-38.7170095,560,8884.65810
D1,Baixio/CE,-6.7303544,-38.7170095,11,174.52007
1,Baixo Guandu/ES,-19.5138322,-41.0182089,3458,11107.54208
D1,Baixo Guandu/ES,-19.5138322,-41.0182089,71,228.06116
1,Baião/PA,-2.7903479,-49.6702845,742,1531.19132
D1,Baião/PA,-2.7903479,-49.6702845,34,70.16241
1,Balbinos/SP,-21.9006253,-49.3583966,343,5780.24941
D1,Balbinos/SP,-21.9006253,-49.3583966,4,67.40816
1,Baldim/MG,-19.2913568,-43.9558262,623,7984.10868
D1,Baldim/MG,-19.2913568,-43.9558262,19,243.49609
1,Baliza/GO,-16.1978119,-52.542789,324,6136.36364
D1,Baliza/GO,-16.1978119,-52.542789,9,170.45455
1,Balneário Arroio do Silva/SC,-28.9815269,-49.4189932,2034,15145.19732
D1,Balneário Arroio do Silva/SC,-28.9815269,-49.4189932,54,402.08488
1,Balneário Barra do Sul/SC,-26.459842,-48.6061471,1399,12677.84323
D1,Balneário Barra do Sul/SC,-26.459842,-48.6061471,40,362.48301
1,Balneário Camboriú/SC,-26.9924395,-48.6339782,24086,16520.34349
D1,Balneário Camboriú/SC,-26.9924395,-48.6339782,360,246.92035
1,Balneário Gaivota/SC,-29.1553098,-49.5808712,1247,11074.60036
D1,Balneário Gaivota/SC,-29.1553098,-49.5808712,34,301.95382
1,Balneário Pinhal/RS,-30.2482978,-50.234585,708,4929.33231
D1,Balneário Pinhal/RS,-30.2482978,-50.234585,44,306.34269
1,Balneário Piçarras/SC,-26.7638889,-48.6716667,4685,19708.05990
D1,Balneário Piçarras/SC,-26.7638889,-48.6716667,52,218.74474
1,Balneário Rincão/SC,-28.8235718,-49.2241642,1372,10597.86807
D1,Balneário Rincão/SC,-28.8235718,-49.2241642,43,332.14893
1,Balsa Nova/PR,-25.5842234,-49.6312741,1549,11831.65292
D1,Balsa Nova/PR,-25.5842234,-49.6312741,28,213.87107
1,Balsas/MA,-7.53214,-46.037163,9835,10252.37415
D1,Balsas/MA,-7.53214,-46.037163,187,194.93584
1,Bambuí/MG,-20.0131996,-45.9777034,1610,6736.96544
D1,Bambuí/MG,-20.0131996,-45.9777034,25,104.61126
1,Banabuiú/CE,-5.3046404,-38.919766,2096,11481.15688
D1,Banabuiú/CE,-5.3046404,-38.919766,20,109.55302
1,Bananal/SP,-22.6828195,-44.3221095,958,8714.63659
D1,Bananal/SP,-22.6828195,-44.3221095,3,27.29009
1,Bananeiras/PB,-6.7537682,-35.6338343,1414,6648.17340
D1,Bananeiras/PB,-6.7537682,-35.6338343,25,117.54196
1,Bandeira do Sul/MG,-21.728056,-46.385555,546,9449.63655
D1,Bandeira do Sul/MG,-21.728056,-46.385555,12,207.68432
1,Bandeira/MG,-15.884444,-40.559167,454,9525.80781
D1,Bandeira/MG,-15.884444,-40.559167,9,188.83760
1,Bandeirante/SC,-26.7677402,-53.6397596,364,13746.22356
D1,Bandeirante/SC,-26.7677402,-53.6397596,4,151.05740
1,Bandeirantes do Tocantins/TO,-7.7635698,-48.579148,471,13112.47216
D1,Bandeirantes do Tocantins/TO,-7.7635698,-48.579148,7,194.87751
1,Bandeirantes/MS,-19.9179623,-54.3646768,573,7886.04459
D1,Bandeirantes/MS,-19.9179623,-54.3646768,10,137.62731
1,Bandeirantes/PR,-23.107788,-50.370407,4716,15110.05735
D1,Bandeirantes/PR,-23.107788,-50.370407,117,374.86784
1,Bannach/PA,-7.3508505,-50.4064531,647,19834.45739
D1,Bannach/PA,-7.3508505,-50.4064531,3,91.96812
1,Banzaê/BA,-10.5827616,-38.6122305,1089,8225.07553
D1,Banzaê/BA,-10.5827616,-38.6122305,8,60.42296
1,Baraúna/PB,-6.643394,-36.2531932,674,13577.75987
D1,Baraúna/PB,-6.643394,-36.2531932,9,181.30540
1,Baraúna/RN,-5.0775002,-37.61752,122,424.39211
D1,Baraúna/RN,-5.0775002,-37.61752,25,86.96560
1,Barbacena/MG,-21.2254524,-43.7735087,8020,5803.01583
D1,Barbacena/MG,-21.2254524,-43.7735087,257,185.95699
1,Barbalha/CE,-7.3121067,-39.3036427,6506,10625.85745
D1,Barbalha/CE,-7.3121067,-39.3036427,148,241.71947
1,Barbosa Ferraz/PR,-24.0287182,-52.00811,1173,10266.05986
D1,Barbosa Ferraz/PR,-24.0287182,-52.00811,31,271.31104
1,Barbosa/SP,-21.265661,-49.951816,537,7190.68024
D1,Barbosa/SP,-21.265661,-49.951816,12,160.68559
1,Barcarena/PA,-1.5107945,-48.6190679,11161,8786.32102
D1,Barcarena/PA,-1.5107945,-48.6190679,215,169.25536
1,Barcelona/RN,-5.9514918,-35.9260284,163,4081.12168
D1,Barcelona/RN,-5.9514918,-35.9260284,4,100.15023
1,Barcelos/AM,-0.9729214,-62.925635,4338,15695.78117
D1,Barcelos/AM,-0.9729214,-62.925635,59,213.47420
1,Bariri/SP,-22.0746355,-48.7394852,2837,7978.51398
D1,Bariri/SP,-22.0746355,-48.7394852,117,329.03988
1,Barra Bonita/SC,-26.6526364,-53.4419581,184,11144.76075
D1,Barra Bonita/SC,-26.6526364,-53.4419581,2,121.13870
1,Barra Bonita/SP,-22.490859,-48.558349,3171,8777.61169
D1,Barra Bonita/SP,-22.490859,-48.558349,92,254.66423
1,Barra D'Alcântara/PI,-6.5209258,-42.1071089,151,3820.85020
D1,Barra D'Alcântara/PI,-6.5209258,-42.1071089,4,101.21457
1,Barra Funda/RS,-27.9230048,-53.0401045,571,22383.37907
D1,Barra Funda/RS,-27.9230048,-53.0401045,12,470.40376
1,Barra Longa/MG,-20.2833541,-43.0423516,386,7696.90927
D1,Barra Longa/MG,-20.2833541,-43.0423516,9,179.46162
1,Barra Mansa/RJ,-22.5394843,-44.1735129,15345,8302.08891
D1,Barra Mansa/RJ,-22.5394843,-44.1735129,582,314.87884
1,Barra Velha/SC,-26.6338203,-48.6835001,4119,13794.37374
D1,Barra Velha/SC,-26.6338203,-48.6835001,97,324.84930
1,Barra da Estiva/BA,-13.6269662,-41.3278287,2315,11352.49117
D1,Barra da Estiva/BA,-13.6269662,-41.3278287,25,122.59710
1,Barra de Guabiraba/PE,-8.4173522,-35.6626669,402,2770.50310
D1,Barra de Guabiraba/PE,-8.4173522,-35.6626669,15,103.37698
1,Barra de Santa Rosa/PB,-6.7218007,-36.0564638,1622,10466.54191
D1,Barra de Santa Rosa/PB,-6.7218007,-36.0564638,12,77.43434
1,Barra de Santana/PB,-7.5230865,-35.9988518,532,6372.02060
D1,Barra de Santana/PB,-7.5230865,-35.9988518,6,71.86489
1,Barra de Santo Antônio/AL,-9.4038098,-35.5117693,437,2719.69131
D1,Barra de Santo Antônio/AL,-9.4038098,-35.5117693,28,174.25940
1,Barra de São Francisco/ES,-18.7570902,-40.8916119,4711,10473.77665
D1,Barra de São Francisco/ES,-18.7570902,-40.8916119,192,426.86587
1,Barra de São Miguel/AL,-9.8261357,-35.8837777,553,6600.62067
D1,Barra de São Miguel/AL,-9.8261357,-35.8837777,7,83.55216
1,Barra de São Miguel/PB,-7.7528088,-36.3170996,538,8870.56884
D1,Barra de São Miguel/PB,-7.7528088,-36.3170996,6,98.92828
1,Barra do Bugres/MT,-15.0683712,-57.1853688,3032,8587.53222
D1,Barra do Bugres/MT,-15.0683712,-57.1853688,71,201.09327
1,Barra do Chapéu/SP,-24.472203,-49.023784,346,6006.94444
D1,Barra do Chapéu/SP,-24.472203,-49.023784,3,52.08333
1,Barra do Choça/BA,-14.8638173,-40.5761637,2067,6623.08949
D1,Barra do Choça/BA,-14.8638173,-40.5761637,31,99.33032
1,Barra do Corda/MA,-5.496823,-45.248496,5710,6452.56068
D1,Barra do Corda/MA,-5.496823,-45.248496,58,65.54265
1,Barra do Garças/MT,-15.8916033,-52.2615413,8181,13381.85982
D1,Barra do Garças/MT,-15.8916033,-52.2615413,292,477.63147
1,Barra do Guarita/RS,-27.1888016,-53.7147086,111,3408.04421
D1,Barra do Guarita/RS,-27.1888016,-53.7147086,7,214.92171
1,Barra do Jacaré/PR,-23.1151788,-50.1813945,236,8486.15606
D1,Barra do Jacaré/PR,-23.1151788,-50.1813945,2,71.91658
1,Barra do Mendes/BA,-11.8053298,-42.057037,714,5161.57016
D1,Barra do Mendes/BA,-11.8053298,-42.057037,12,86.74908
1,Barra do Ouro/TO,-7.7113784,-47.6743925,150,3238.34197
D1,Barra do Ouro/TO,-7.7113784,-47.6743925,6,129.53368
1,Barra do Piraí/RJ,-22.4703403,-43.8263256,6080,6033.90100
D1,Barra do Piraí/RJ,-22.4703403,-43.8263256,353,350.32353
1,Barra do Quaraí/RS,-30.208947,-57.5505128,408,9652.23563
D1,Barra do Quaraí/RS,-30.208947,-57.5505128,6,141.94464
1,Barra do Ribeiro/RS,-30.2930206,-51.301437,1029,7590.73473
D1,Barra do Ribeiro/RS,-30.2930206,-51.301437,47,346.70994
1,Barra do Rio Azul/RS,-27.4101581,-52.4117471,101,6102.71903
D1,Barra do Rio Azul/RS,-27.4101581,-52.4117471,1,60.42296
1,Barra do Rocha/BA,-14.2090974,-39.6004395,408,7270.13542
D1,Barra do Rocha/BA,-14.2090974,-39.6004395,7,124.73272
1,Barra do Turvo/SP,-24.756421,-48.5056942,596,7809.22432
D1,Barra do Turvo/SP,-24.756421,-48.5056942,18,235.84906
1,Barra dos Coqueiros/SE,-10.9075694,-37.0386249,6841,22117.68510
D1,Barra dos Coqueiros/SE,-10.9075694,-37.0386249,90,290.97963
1,Barra/BA,-11.0892702,-43.1420453,2088,3873.12187
D1,Barra/BA,-11.0892702,-43.1420453,44,81.61751
1,Barracão/PR,-26.252395,-53.6349576,1294,12548.48720
D1,Barracão/PR,-26.252395,-53.6349576,34,329.71296
1,Barracão/RS,-27.6728964,-51.4582928,439,8352.35921
D1,Barracão/RS,-27.6728964,-51.4582928,16,304.41400
1,Barras/PI,-4.2446153,-42.2920241,4863,10306.24139
D1,Barras/PI,-4.2446153,-42.2920241,90,190.73858
1,Barreira/CE,-4.2883361,-38.641094,1491,6605.23634
D1,Barreira/CE,-4.2883361,-38.641094,39,172.77278
1,Barreiras do Piauí/PI,-9.9224524,-45.4763776,77,2297.13604
D1,Barreiras do Piauí/PI,-9.9224524,-45.4763776,1,29.83294
1,Barreiras/BA,-12.1440031,-44.9967406,18261,11633.06259
D1,Barreiras/BA,-12.1440031,-44.9967406,293,186.65393
1,Barreirinha/AM,-2.798863,-57.067897,2420,7450.05080
D1,Barreirinha/AM,-2.798863,-57.067897,62,190.86907
1,Barreirinhas/MA,-2.7541271,-42.8259693,2182,3451.60321
D1,Barreirinhas/MA,-2.7541271,-42.8259693,40,63.27412
1,Barreiros/PE,-8.8159644,-35.1831905,767,1793.56468
D1,Barreiros/PE,-8.8159644,-35.1831905,60,140.30493
1,Barretos/SP,-20.5531437,-48.5697509,14944,12166.11171
D1,Barretos/SP,-20.5531437,-48.5697509,442,359.83815
1,Barrinha/SP,-21.1898849,-48.1550642,1563,4710.66908
D1,Barrinha/SP,-21.1898849,-48.1550642,62,186.85955
1,Barro Alto/BA,-11.7618025,-41.9094904,887,5892.12170
D1,Barro Alto/BA,-11.7618025,-41.9094904,13,86.35579
1,Barro Alto/GO,-14.9696025,-48.9190985,1290,11307.85414
D1,Barro Alto/GO,-14.9696025,-48.9190985,17,149.01823
1,Barro Duro/PI,-5.8180139,-42.5106589,687,9776.57606
D1,Barro Duro/PI,-5.8180139,-42.5106589,11,156.53906
1,Barro Preto/BA,-14.8068289,-39.4727588,587,10774.59618
D1,Barro Preto/BA,-14.8068289,-39.4727588,10,183.55360
1,Barro/CE,-7.1713587,-38.7742136,1706,7496.26505
D1,Barro/CE,-7.1713587,-38.7742136,36,158.18613
1,Barrocas/BA,-11.5165,-39.099282894736845,755,4687.98510
D1,Barrocas/BA,-11.5165,-39.099282894736845,23,142.81279
1,Barrolândia/TO,-9.837246,-48.7264346,751,13289.68324
D1,Barrolândia/TO,-9.837246,-48.7264346,20,353.91966
1,Barroquinha/CE,-3.0200371,-41.1339229,1203,7996.54347
D1,Barroquinha/CE,-3.0200371,-41.1339229,25,166.17921
1,Barros Cassal/RS,-29.094938,-52.5832366,717,6412.09086
D1,Barros Cassal/RS,-29.094938,-52.5832366,12,107.31533
1,Barroso/MG,-21.187222,-43.976111,1896,9073.07269
D1,Barroso/MG,-21.187222,-43.976111,49,234.48342
1,Barueri/SP,-23.5112184,-46.8764612,29023,10478.29823
D1,Barueri/SP,-23.5112184,-46.8764612,1031,372.22635
1,Barão de Antonina/SP,-23.6295651,-49.5632104,400,11435.10577
D1,Barão de Antonina/SP,-23.6295651,-49.5632104,8,228.70212
1,Barão de Cocais/MG,-19.9452437,-43.4870298,3614,10996.16625
D1,Barão de Cocais/MG,-19.9452437,-43.4870298,64,194.73012
1,Barão de Cotegipe/RS,-27.6214694,-52.3765316,726,10966.76737
D1,Barão de Cotegipe/RS,-27.6214694,-52.3765316,8,120.84592
1,Barão de Grajaú/MA,-6.7542591,-43.0263477,455,2404.35426
D1,Barão de Grajaú/MA,-6.7542591,-43.0263477,2,10.56859
1,Barão de Melgaço/MT,-16.195776,-55.9668049,361,4421.85203
D1,Barão de Melgaço/MT,-16.195776,-55.9668049,14,171.48457
1,Barão de Monte Alto/MG,-21.244722,-42.2375,326,6088.90549
D1,Barão de Monte Alto/MG,-21.244722,-42.2375,12,224.13149
1,Barão do Triunfo/RS,-30.3909877,-51.7375349,452,6011.43769
D1,Barão do Triunfo/RS,-30.3909877,-51.7375349,6,79.79785
1,Barão/RS,-29.372474,-51.494908,607,9787.16543
D1,Barão/RS,-29.372474,-51.494908,9,145.11448
1,Bastos/SP,-21.9222474,-50.7317727,1314,6271.17835
D1,Bastos/SP,-21.9222474,-50.7317727,36,171.81311
1,Bataguassu/MS,-21.715899,-52.422058,3242,13899.24973
D1,Bataguassu/MS,-21.715899,-52.422058,41,175.77706
1,Batalha/AL,-9.6733809,-37.1265481,1102,6009.37943
D1,Batalha/AL,-9.6733809,-37.1265481,19,103.60999
1,Batalha/PI,-4.022391,-42.0780926,1089,4047.57480
D1,Batalha/PI,-4.022391,-42.0780926,32,118.93700
1,Batatais/SP,-20.892867,-47.592149,3237,5139.72690
D1,Batatais/SP,-20.892867,-47.592149,148,234.99524
1,Batayporã/MS,-22.2976466,-53.2685608,1029,9066.87814
D1,Batayporã/MS,-22.2976466,-53.2685608,19,167.41563
1,Baturité/CE,-4.3290203,-38.8821055,4080,11351.93790
D1,Baturité/CE,-4.3290203,-38.8821055,80,222.58702
1,Bauru/SP,-22.3218102,-49.0705863,45822,12080.77048
D1,Bauru/SP,-22.3218102,-49.0705863,1045,275.50969
1,Bayeux/PB,-7.1301631,-34.936532,7333,7544.00584
D1,Bayeux/PB,-7.1301631,-34.936532,232,238.67576
1,Baía Formosa/RN,-6.3691885,-35.0063741,1346,14438.96160
D1,Baía Formosa/RN,-6.3691885,-35.0063741,8,85.81849
1,Baía da Traição/PB,-6.691258,-34.9371244,1290,14182.05805
D1,Baía da Traição/PB,-6.691258,-34.9371244,12,131.92612
1,Bebedouro/SP,-20.949077,-48.479083,3921,5055.76688
D1,Bebedouro/SP,-20.949077,-48.479083,148,190.83231
1,Beberibe/CE,-4.1810469,-38.1298101,4840,8971.43599
D1,Beberibe/CE,-4.1810469,-38.1298101,101,187.21385
1,Bela Cruz/CE,-3.0529129,-40.167582,3390,10360.00244
D1,Bela Cruz/CE,-3.0529129,-40.167582,70,213.92335
1,Bela Vista da Caroba/PR,-25.8792818,-53.6672545,181,5235.75354
D1,Bela Vista da Caroba/PR,-25.8792818,-53.6672545,6,173.56089
1,Bela Vista de Goiás/GO,-16.9692949,-48.9513071,2512,8238.22642
D1,Bela Vista de Goiás/GO,-16.9692949,-48.9513071,67,219.72977
1,Bela Vista de Minas/MG,-19.8289721,-43.0973688,798,7776.26194
D1,Bela Vista de Minas/MG,-19.8289721,-43.0973688,22,214.38316
1,Bela Vista do Maranhão/MA,-3.7416367,-45.2514192,218,1932.79546
D1,Bela Vista do Maranhão/MA,-3.7416367,-45.2514192,18,159.58862
1,Bela Vista do Paraíso/PR,-22.9948493,-51.1907996,1889,12267.03033
D1,Bela Vista do Paraíso/PR,-22.9948493,-51.1907996,60,389.63569
1,Bela Vista do Piauí/PI,-7.9716353,-41.8715061,262,6501.24069
D1,Bela Vista do Piauí/PI,-7.9716353,-41.8715061,6,148.88337
1,Bela Vista do Toldo/SC,-26.274625,-50.466354,79,1241.74788
D1,Bela Vista do Toldo/SC,-26.274625,-50.466354,3,47.15498
1,Bela Vista/MS,-22.107327,-56.5317344,994,4018.59713
D1,Bela Vista/MS,-22.107327,-56.5317344,29,117.24277
1,Belford Roxo/RJ,-22.7667284,-43.4033603,20499,3994.98751
D1,Belford Roxo/RJ,-22.7667284,-43.4033603,699,136.22598
1,Belmiro Braga/MG,-21.9486291,-43.413564,199,5810.21898
D1,Belmiro Braga/MG,-21.9486291,-43.413564,3,87.59124
1,Belmonte/BA,-15.8630837,-38.8792845,1103,4706.23373
D1,Belmonte/BA,-15.8630837,-38.8792845,23,98.13543
1,Belmonte/SC,-26.8448262,-53.578916,263,9708.37948
D1,Belmonte/SC,-26.8448262,-53.578916,5,184.56995
1,Belo Campo/BA,-15.0338286,-41.2585109,887,5184.40587
D1,Belo Campo/BA,-15.0338286,-41.2585109,14,81.82828
1,Belo Horizonte/MG,-19.9227318,-43.9450948,234329,9293.00228
D1,Belo Horizonte/MG,-19.9227318,-43.9450948,5691,225.69326
1,Belo Jardim/PE,-8.3338293,-36.4176419,3801,4956.51153
D1,Belo Jardim/PE,-8.3338293,-36.4176419,116,151.26423
1,Belo Monte/AL,-9.8269944,-37.2787165,445,6631.89270
D1,Belo Monte/AL,-9.8269944,-37.2787165,9,134.12817
1,Belo Oriente/MG,-19.2232523,-42.4807033,2574,9535.45232
D1,Belo Oriente/MG,-19.2232523,-42.4807033,65,240.79425
1,Belo Vale/MG,-20.407778,-44.024167,878,11374.53038
D1,Belo Vale/MG,-20.407778,-44.024167,10,129.55046
1,Belterra/PA,-2.636091,-54.937392,1454,8150.68109
D1,Belterra/PA,-2.636091,-54.937392,26,145.74808
1,Belágua/MA,-3.1604031,-43.5085052,410,5446.33369
D1,Belágua/MA,-3.1604031,-43.5085052,3,39.85122
1,Belém de Maria/PE,-8.6242497,-35.8388934,251,2070.61541
D1,Belém de Maria/PE,-8.6242497,-35.8388934,6,49.49678
1,Belém do Brejo do Cruz/PB,-6.1880727,-37.5332267,510,6939.71969
D1,Belém do Brejo do Cruz/PB,-6.1880727,-37.5332267,5,68.03647
1,Belém do Piauí/PI,-7.3767305,-40.9712156,459,12796.20853
D1,Belém do Piauí/PI,-7.3767305,-40.9712156,7,195.14915
1,Belém do São Francisco/PE,-8.7517707,-38.9625715,863,4163.04872
D1,Belém do São Francisco/PE,-8.7517707,-38.9625715,10,48.23927
1,Belém/AL,-9.5715351,-36.492841,119,2777.77778
D1,Belém/AL,-9.5715351,-36.492841,7,163.39869
1,Belém/PA,-1.45056,-48.4682453,102906,6862.04232
D1,Belém/PA,-1.45056,-48.4682453,4933,328.94539
1,Belém/PB,-6.6967586,-35.5369626,2147,12126.51793
D1,Belém/PB,-6.6967586,-35.5369626,45,254.16549
1,Beneditinos/PI,-5.4565671,-42.3605061,1228,11725.38910
D1,Beneditinos/PI,-5.4565671,-42.3605061,38,362.83777
1,Benedito Leite/MA,-7.2173453,-44.5523331,314,5569.35083
D1,Benedito Leite/MA,-7.2173453,-44.5523331,2,35.47357
1,Benedito Novo/SC,-26.7840657,-49.3629511,1015,8619.95754
D1,Benedito Novo/SC,-26.7840657,-49.3629511,18,152.86624
1,Benevides/PA,-1.3555577,-48.252235,3882,6087.69289
D1,Benevides/PA,-1.3555577,-48.252235,101,158.38665
1,Benjamin Constant do Sul/RS,-27.5105555,-52.6007689,167,8529.11134
1,Benjamin Constant/AM,-4.3782748,-70.0290603,2694,6131.78559
D1,Benjamin Constant/AM,-4.3782748,-70.0290603,87,198.01980
1,Bento Fernandes/RN,-5.6926846,-35.8207423,291,5266.96833
D1,Bento Fernandes/RN,-5.6926846,-35.8207423,3,54.29864
1,Bento Gonçalves/RS,-29.1654014,-51.5197627,18038,14809.15905
D1,Bento Gonçalves/RS,-29.1654014,-51.5197627,318,261.07731
1,Bento de Abreu/SP,-21.2707225,-50.8120444,315,10482.52912
D1,Bento de Abreu/SP,-21.2707225,-50.8120444,2,66.55574
1,Bequimão/MA,-2.4495376,-44.7884889,278,1305.22560
D1,Bequimão/MA,-2.4495376,-44.7884889,20,93.90112
1,Berilo/MG,-16.9515764,-42.4643732,153,1288.74663
D1,Berilo/MG,-16.9515764,-42.4643732,1,8.42318
1,Berizal/MG,-15.6118785,-41.7417382,191,4009.23594
D1,Berizal/MG,-15.6118785,-41.7417382,1,20.99076
1,Bernardino Batista/PB,-6.4532173,-38.5495418,272,7692.30769
1,Bernardino de Campos/SP,-23.0140216,-49.4760724,755,6766.44560
D1,Bernardino de Campos/SP,-23.0140216,-49.4760724,18,161.31923
1,Bernardo Sayão/TO,-7.8794244,-48.8968905,618,13893.88489
D1,Bernardo Sayão/TO,-7.8794244,-48.8968905,11,247.30216
1,Bernardo do Mearim/MA,-4.6315929,-44.7617508,292,4808.16730
D1,Bernardo do Mearim/MA,-4.6315929,-44.7617508,6,98.79796
1,Bertioga/SP,-23.848568,-46.139586,5445,8412.77444
D1,Bertioga/SP,-23.848568,-46.139586,148,228.66678
1,Bertolínia/PI,-7.6372159,-43.9540611,855,15525.69457
D1,Bertolínia/PI,-7.6372159,-43.9540611,10,181.58707
1,Bertópolis/MG,-17.063333,-40.573889,368,7987.84458
D1,Bertópolis/MG,-17.063333,-40.573889,2,43.41220
1,Beruri/AM,-3.9007135,-61.3717319,2232,11108.34619
D1,Beruri/AM,-3.9007135,-61.3717319,34,169.21316
1,Betim/MG,-19.968056,-44.198333,29529,6638.95284
D1,Betim/MG,-19.968056,-44.198333,1206,271.14285
1,Betânia do Piauí/PI,-8.1460635,-40.7961387,173,2785.82931
D1,Betânia do Piauí/PI,-8.1460635,-40.7961387,2,32.20612
1,Betânia/PE,-8.2742779,-38.0351767,487,3815.11947
D1,Betânia/PE,-8.2742779,-38.0351767,15,117.50881
1,Bezerros/PE,-8.2372132,-35.7558262,3771,6194.15243
D1,Bezerros/PE,-8.2372132,-35.7558262,115,188.89619
1,Bias Fortes/MG,-21.605833,-43.756944,111,3334.33464
D1,Bias Fortes/MG,-21.605833,-43.756944,3,90.11715
1,Bicas/MG,-21.7213723,-43.0604327,1399,9612.47767
D1,Bicas/MG,-21.7213723,-43.0604327,43,295.45142
1,Biguaçu/SC,-27.4961277,-48.6542432,10945,15751.37438
D1,Biguaçu/SC,-27.4961277,-48.6542432,162,233.14049
1,Bilac/SP,-21.403962,-50.47464,853,10508.80867
D1,Bilac/SP,-21.403962,-50.47464,13,160.15769
1,Biquinhas/MG,-18.783611,-45.502222,119,4763.81105
D1,Biquinhas/MG,-18.783611,-45.502222,1,40.03203
1,Birigui/SP,-21.2908491,-50.34144,14892,11924.76158
D1,Birigui/SP,-21.2908491,-50.34144,497,397.97250
1,Biritiba Mirim/SP,-23.5697765,-46.0407456,1387,4211.19747
D1,Biritiba Mirim/SP,-23.5697765,-46.0407456,89,270.22103
1,Biritinga/BA,-11.6227908,-38.8066738,505,3159.40941
D1,Biritinga/BA,-11.6227908,-38.8066738,7,43.79379
1,Bituruna/PR,-26.161281,-51.5533319,1174,7158.53659
D1,Bituruna/PR,-26.161281,-51.5533319,16,97.56098
1,Blumenau/SC,-26.9195567,-49.0658025,50968,14085.19987
D1,Blumenau/SC,-26.9195567,-49.0658025,557,153.92906
1,Boa Esperança do Iguaçu/PR,-25.6362851,-53.2139114,161,6518.21862
1,Boa Esperança do Sul/SP,-21.9930206,-48.3917372,1105,7357.83726
D1,Boa Esperança do Sul/SP,-21.9930206,-48.3917372,17,113.19750
1,Boa Esperança/ES,-18.5395472,-40.2904088,1578,10455.87066
D1,Boa Esperança/ES,-18.5395472,-40.2904088,40,265.04108
1,Boa Esperança/MG,-21.0901253,-45.5660195,4215,10480.12134
D1,Boa Esperança/MG,-21.0901253,-45.5660195,113,280.96173
1,Boa Esperança/PR,-24.2411024,-52.7860277,398,9834.44527
D1,Boa Esperança/PR,-24.2411024,-52.7860277,15,370.64492
1,Boa Hora/PI,-4.4094627,-42.1255341,550,8070.43287
D1,Boa Hora/PI,-4.4094627,-42.1255341,6,88.04109
1,Boa Nova/BA,-14.365907,-40.2063056,908,7364.74978
D1,Boa Nova/BA,-14.365907,-40.2063056,17,137.88628
1,Boa Ventura de São Roque/PR,-24.88177,-51.5441292,451,7085.62451
D1,Boa Ventura de São Roque/PR,-24.88177,-51.5441292,5,78.55460
1,Boa Ventura/PB,-7.4202462,-38.2156782,508,9572.26305
D1,Boa Ventura/PB,-7.4202462,-38.2156782,8,150.74430
1,Boa Viagem/CE,-5.1261877,-39.7300055,3991,7312.60421
D1,Boa Viagem/CE,-5.1261877,-39.7300055,97,177.73055
1,Boa Vista da Aparecida/PR,-25.4357216,-53.4067721,899,11923.07692
D1,Boa Vista da Aparecida/PR,-25.4357216,-53.4067721,26,344.82759
1,Boa Vista das Missões/RS,-27.6677983,-53.3127622,215,10277.24665
D1,Boa Vista das Missões/RS,-27.6677983,-53.3127622,6,286.80688
1,Boa Vista do Buricá/RS,-27.6687782,-54.1111913,836,12455.30393
D1,Boa Vista do Buricá/RS,-27.6687782,-54.1111913,9,134.08820
1,Boa Vista do Cadeado/RS,-28.5783827,-53.8123759,188,7617.50405
D1,Boa Vista do Cadeado/RS,-28.5783827,-53.8123759,2,81.03728
1,Boa Vista do Gurupi/MA,-1.7981168,-46.3071882,15,178.95490
D1,Boa Vista do Gurupi/MA,-1.7981168,-46.3071882,4,47.72131
1,Boa Vista do Incra/RS,-28.8195551,-53.3866624,292,11162.07951
D1,Boa Vista do Incra/RS,-28.8195551,-53.3866624,4,152.90520
1,Boa Vista do Ramos/AM,-2.9716927,-57.5869819,957,4876.18465
D1,Boa Vista do Ramos/AM,-2.9716927,-57.5869819,11,56.04810
1,Boa Vista do Sul/RS,-29.3510488,-51.6779679,299,10763.13895
D1,Boa Vista do Sul/RS,-29.3510488,-51.6779679,3,107.99136
1,Boa Vista do Tupim/BA,-12.6605988,-40.6083594,260,1403.05434
D1,Boa Vista do Tupim/BA,-12.6605988,-40.6083594,8,43.17090
1,Boa Vista/PB,-7.2620711,-36.2415161,770,10790.35874
D1,Boa Vista/PB,-7.2620711,-36.2415161,14,196.18834
1,Boa Vista/RR,2.8208478,-60.6719582,86059,20507.22980
D1,Boa Vista/RR,2.8208478,-60.6719582,1337,318.59731
1,Boca da Mata/AL,-9.6452054,-36.2116658,1811,6620.11990
D1,Boca da Mata/AL,-9.6452054,-36.2116658,44,160.84223
1,Boca do Acre/AM,-8.7553487,-67.3930873,2632,7599.24931
D1,Boca do Acre/AM,-8.7553487,-67.3930873,26,75.06857
1,Bocaina de Minas/MG,-22.167778,-44.394722,178,3497.74022
D1,Bocaina de Minas/MG,-22.167778,-44.394722,7,137.55158
1,Bocaina do Sul/SC,-27.745494,-49.942279,375,10751.14679
D1,Bocaina do Sul/SC,-27.745494,-49.942279,3,86.00917
1,Bocaina/PI,-6.9445939,-41.3224599,274,6082.13097
D1,Bocaina/PI,-6.9445939,-41.3224599,4,88.79023
1,Bocaina/SP,-22.1421831,-48.522276,1228,9861.86958
D1,Bocaina/SP,-22.1421831,-48.522276,30,240.92515
1,Bocaiúva do Sul/PR,-25.206591,-49.114131,1842,14030.00990
D1,Bocaiúva do Sul/PR,-25.206591,-49.114131,15,114.25089
1,Bocaiúva/MG,-17.1160208,-43.8122678,2295,4566.61891
D1,Bocaiúva/MG,-17.1160208,-43.8122678,60,119.38873
1,Bodocó/PE,-7.777592,-39.933797,1923,5010.68320
D1,Bodocó/PE,-7.777592,-39.933797,31,80.77544
1,Bodoquena/MS,-20.5508775,-56.6769653,518,6608.82878
D1,Bodoquena/MS,-20.5508775,-56.6769653,15,191.37535
1,Bodó/RN,-5.9866104,-36.4134824,183,8329.54028
1,Bofete/SP,-23.1019554,-48.2610535,747,6266.25283
D1,Bofete/SP,-23.1019554,-48.2610535,13,109.05125
1,Boituva/SP,-23.2838893,-47.6738231,5884,9464.37188
D1,Boituva/SP,-23.2838893,-47.6738231,162,260.57584
1,Bom Conselho/PE,-9.169191,-36.685683,1935,3967.84711
D1,Bom Conselho/PE,-9.169191,-36.685683,63,129.18572
1,Bom Despacho/MG,-19.7375242,-45.2517288,4413,8648.19315
D1,Bom Despacho/MG,-19.7375242,-45.2517288,76,148.93784
1,Bom Jardim da Serra/SC,-28.3380324,-49.625588,604,12657.16681
D1,Bom Jardim da Serra/SC,-28.3380324,-49.625588,4,83.82230
1,Bom Jardim de Goiás/GO,-16.2062659,-52.172793,836,9426.09088
D1,Bom Jardim de Goiás/GO,-16.2062659,-52.172793,15,169.12842
1,Bom Jardim de Minas/MG,-21.9476466,-44.1906033,466,7214.73912
D1,Bom Jardim de Minas/MG,-21.9476466,-44.1906033,3,46.44682
1,Bom Jardim/MA,-3.54129,-45.606004,1401,3349.91153
D1,Bom Jardim/MA,-3.54129,-45.606004,48,114.77213
1,Bom Jardim/PE,-7.7961572,-35.5871696,1665,4164.26981
D1,Bom Jardim/PE,-7.7961572,-35.5871696,69,172.57334
1,Bom Jardim/RJ,-22.1515328,-42.4186683,1626,5887.89108
D1,Bom Jardim/RJ,-22.1515328,-42.4186683,45,162.94902
1,Bom Jesus da Lapa/BA,-13.250571,-43.410754,5522,7926.84677
D1,Bom Jesus da Lapa/BA,-13.250571,-43.410754,76,109.09822
1,Bom Jesus da Penha/MG,-21.0165299,-46.5226644,645,15197.92648
D1,Bom Jesus da Penha/MG,-21.0165299,-46.5226644,14,329.87747
1,Bom Jesus da Serra/BA,-14.3724084,-40.5047119,435,4428.38237
D1,Bom Jesus da Serra/BA,-14.3724084,-40.5047119,9,91.62170
1,Bom Jesus das Selvas/MA,-4.4878075,-46.8526639,3245,9387.56618
D1,Bom Jesus das Selvas/MA,-4.4878075,-46.8526639,24,69.43038
1,Bom Jesus de Goiás/GO,-18.2174587,-49.739721,2760,10761.07299
D1,Bom Jesus de Goiás/GO,-18.2174587,-49.739721,106,413.28759
1,Bom Jesus do Amparo/MG,-19.7045132,-43.4752911,239,3896.95092
D1,Bom Jesus do Amparo/MG,-19.7045132,-43.4752911,7,114.13664
1,Bom Jesus do Araguaia/MT,-12.1725897,-51.5074425,1030,15359.37966
D1,Bom Jesus do Araguaia/MT,-12.1725897,-51.5074425,16,238.59231
1,Bom Jesus do Galho/MG,-19.8283191,-42.3162256,658,4427.39874
D1,Bom Jesus do Galho/MG,-19.8283191,-42.3162256,30,201.85709
1,Bom Jesus do Itabapoana/RJ,-21.1341025,-41.680095,3345,8991.21039
D1,Bom Jesus do Itabapoana/RJ,-21.1341025,-41.680095,85,228.47620
1,Bom Jesus do Norte/ES,-21.1254776,-41.6711646,1060,10640.43365
D1,Bom Jesus do Norte/ES,-21.1254776,-41.6711646,26,260.99177
1,Bom Jesus do Oeste/SC,-26.6929713,-53.0967453,183,8555.39972
D1,Bom Jesus do Oeste/SC,-26.6929713,-53.0967453,6,280.50491
1,Bom Jesus do Sul/PR,-26.1922507,-53.6002033,471,13434.11295
D1,Bom Jesus do Sul/PR,-26.1922507,-53.6002033,5,142.61266
1,Bom Jesus do Tocantins/PA,-5.0471796,-48.5978362,761,4445.61281
D1,Bom Jesus do Tocantins/PA,-5.0471796,-48.5978362,25,146.04510
1,Bom Jesus do Tocantins/TO,-8.96306,-48.165043,135,2695.68690
D1,Bom Jesus do Tocantins/TO,-8.96306,-48.165043,3,59.90415
1,Bom Jesus dos Perdões/SP,-23.1353864,-46.4648052,1994,7673.65788
D1,Bom Jesus dos Perdões/SP,-23.1353864,-46.4648052,23,88.51260
1,Bom Jesus/PB,-6.8156725,-38.6551841,160,6213.59223
D1,Bom Jesus/PB,-6.8156725,-38.6551841,3,116.50485
1,Bom Jesus/PI,-9.0711644,-44.3583926,3481,13711.74223
D1,Bom Jesus/PI,-9.0711644,-44.3583926,40,157.56096
1,Bom Jesus/RN,-5.9887544,-35.5821149,855,8327.65170
D1,Bom Jesus/RN,-5.9887544,-35.5821149,15,146.09915
1,Bom Jesus/RS,-28.6692723,-50.4346894,873,7719.51543
D1,Bom Jesus/RS,-28.6692723,-50.4346894,20,176.85030
1,Bom Jesus/SC,-26.7350604,-52.3916519,436,14262.34871
D1,Bom Jesus/SC,-26.7350604,-52.3916519,8,261.69447
1,Bom Lugar/MA,-4.3728019,-45.0366054,473,2877.47901
D1,Bom Lugar/MA,-4.3728019,-45.0366054,7,42.58426
1,Bom Princípio do Piauí/PI,-3.1912777,-41.6430185,131,2318.17377
D1,Bom Princípio do Piauí/PI,-3.1912777,-41.6430185,13,230.04778
1,Bom Princípio/RS,-29.489788,-51.3566782,1909,13391.79235
D1,Bom Princípio/RS,-29.489788,-51.3566782,27,189.40723
1,Bom Progresso/RS,-27.5490948,-53.8655601,147,7740.91627
D1,Bom Progresso/RS,-27.5490948,-53.8655601,3,157.97788
1,Bom Repouso/MG,-22.4657069,-46.1485376,961,9120.24295
D1,Bom Repouso/MG,-22.4657069,-46.1485376,20,189.80735
1,Bom Retiro do Sul/RS,-29.6000007,-51.9359243,1010,8151.73527
D1,Bom Retiro do Sul/RS,-29.6000007,-51.9359243,28,225.98870
1,Bom Retiro/SC,-27.798993,-49.486994,784,7793.24056
D1,Bom Retiro/SC,-27.798993,-49.486994,17,168.98608
1,Bom Sucesso de Itararé/SP,-24.3190016,-49.1446207,186,4668.67470
D1,Bom Sucesso de Itararé/SP,-24.3190016,-49.1446207,5,125.50201
1,Bom Sucesso do Sul/PR,-26.0749256,-52.8348629,496,15242.77812
D1,Bom Sucesso do Sul/PR,-26.0749256,-52.8348629,7,215.11985
1,Bom Sucesso/MG,-21.0323516,-44.7598082,1061,6026.01238
D1,Bom Sucesso/MG,-21.0323516,-44.7598082,17,96.55251
1,Bom Sucesso/PB,-6.4458948,-37.9297662,465,9382.56659
D1,Bom Sucesso/PB,-6.4458948,-37.9297662,4,80.71025
1,Bom Sucesso/PR,-23.7088019,-51.7651297,1117,15803.62196
D1,Bom Sucesso/PR,-23.7088019,-51.7651297,16,226.37238
1,Bombinhas/SC,-27.1519159,-48.4875691,3426,16847.79936
D1,Bombinhas/SC,-27.1519159,-48.4875691,56,275.38726
1,Bonfim do Piauí/PI,-9.1648678,-42.8734415,382,6719.43712
D1,Bonfim do Piauí/PI,-9.1648678,-42.8734415,7,123.13105
1,Bonfim/MG,-20.3266626, -44.2386157,397,5787.17201
D1,Bonfim/MG,-20.3266626, -44.2386157,14,204.08163
1,Bonfim/RR,3.3613818,-59.8427241,2278,18141.27578
D1,Bonfim/RR,3.3613818,-59.8427241,26,207.05583
1,Bonfinópolis de Minas/MG,-16.5660011,-45.98645,496,9110.94783
D1,Bonfinópolis de Minas/MG,-16.5660011,-45.98645,13,238.79500
1,Bonfinópolis/GO,-16.6172709,-48.9615701,456,4597.23762
D1,Bonfinópolis/GO,-16.6172709,-48.9615701,21,211.71489
1,Boninal/BA,-12.7095183,-41.8299984,616,4264.15617
D1,Boninal/BA,-12.7095183,-41.8299984,7,48.45632
1,Bonito de Minas/MG,-15.3191266,-44.7544,77,677.28032
1,Bonito de Santa Fé/PB,-7.3143332,-38.5146677,453,3768.09183
D1,Bonito de Santa Fé/PB,-7.3143332,-38.5146677,11,91.49892
1,Bonito/BA,-11.9665473,-41.2649896,861,5099.50249
D1,Bonito/BA,-11.9665473,-41.2649896,13,76.99597
1,Bonito/MS,-21.1264766,-56.4902208,2973,13397.92699
D1,Bonito/MS,-21.1264766,-56.4902208,63,283.91167
1,Bonito/PA,-1.3605722,-47.3049907,386,2335.14822
D1,Bonito/PA,-1.3605722,-47.3049907,13,78.64489
1,Bonito/PE,-8.4721161,-35.7314591,946,2481.83225
D1,Bonito/PE,-8.4721161,-35.7314591,40,104.94005
1,Bonópolis/GO,-13.649331,-49.8329113,185,4117.51614
D1,Bonópolis/GO,-13.649331,-49.8329113,1,22.25684
1,Boqueirão do Leão/RS,-29.30332,-52.4296817,572,7426.64243
D1,Boqueirão do Leão/RS,-29.30332,-52.4296817,31,402.49286
1,Boqueirão do Piauí/PI,-4.4850148,-42.1095161,674,10488.63990
D1,Boqueirão do Piauí/PI,-4.4850148,-42.1095161,10,155.61780
1,Boqueirão/PB,-7.487004,-36.130887,1871,10470.06156
D1,Boqueirão/PB,-7.487004,-36.130887,36,201.45495
1,Boquim/SE,-11.1450175,-37.6204228,2588,9621.17551
D1,Boquim/SE,-11.1450175,-37.6204228,63,234.20945
1,Boquira/BA,-12.8184859,-42.7270883,640,2977.15960
D1,Boquira/BA,-12.8184859,-42.7270883,12,55.82174
1,Boracéia/SP,-22.195355,-48.7801925,910,18693.50863
D1,Boracéia/SP,-22.195355,-48.7801925,22,451.93098
1,Borba/AM,-4.3934778,-59.5947721,2196,5260.13222
D1,Borba/AM,-4.3934778,-59.5947721,65,155.69608
1,Borborema/PB,-6.8066718,-35.5990191,385,7282.01248
D1,Borborema/PB,-6.8066718,-35.5990191,13,245.88614
1,Borborema/SP,-21.6212706,-49.074135,1550,9589.21059
D1,Borborema/SP,-21.6212706,-49.074135,48,296.95620
1,Borda da Mata/MG,-22.274167,-46.165278,1621,8264.50495
D1,Borda da Mata/MG,-22.274167,-46.165278,45,229.42796
1,Borebi/SP,-22.5700178,-48.9714871,250,9317.92769
D1,Borebi/SP,-22.5700178,-48.9714871,3,111.81513
1,Borrazópolis/PR,-23.9393362,-51.5850786,806,12517.47166
D1,Borrazópolis/PR,-23.9393362,-51.5850786,23,357.19832
1,Borá/SP,-22.2701088,-50.544407,112,13365.15513
D1,Borá/SP,-22.2701088,-50.544407,1,119.33174
1,Bossoroca/RS,-28.7278885,-54.9120278,402,6478.64625
D1,Bossoroca/RS,-28.7278885,-54.9120278,22,354.55278
1,Botelhos/MG,-21.65,-46.394722,1678,11224.83109
D1,Botelhos/MG,-21.65,-46.394722,22,147.16703
1,Botucatu/SP,-22.8879628,-48.4410712,14450,9754.94498
D1,Botucatu/SP,-22.8879628,-48.4410712,268,180.92216
1,Botumirim/MG,-16.862778,-43.011111,231,3673.66412
D1,Botumirim/MG,-16.862778,-43.011111,4,63.61323
1,Botuporã/BA,-13.3744752,-42.5198469,215,2122.61822
D1,Botuporã/BA,-13.3744752,-42.5198469,3,29.61793
1,Botuverá/SC,-27.200749,-49.068892,901,16929.72567
D1,Botuverá/SC,-27.200749,-49.068892,8,150.31943
1,Bozano/RS,-28.3669953,-53.7705165,244,11558.50308
D1,Bozano/RS,-28.3669953,-53.7705165,7,331.59640
1,Braga/RS,-27.617348,-53.740514,357,10782.24101
D1,Braga/RS,-27.617348,-53.740514,9,271.82120
1,Braganey/PR,-24.8179919,-53.118506,469,8714.23263
D1,Braganey/PR,-24.8179919,-53.118506,7,130.06317
1,Bragança Paulista/SP,-22.9520235,-46.5418586,16967,9949.39396
D1,Bragança Paulista/SP,-22.9520235,-46.5418586,463,271.50170
1,Bragança/PA,-1.0573967,-46.7635406,4129,3202.91047
D1,Bragança/PA,-1.0573967,-46.7635406,143,110.92666
1,Branquinha/AL,-9.2478057,-36.0152009,535,5114.72275
D1,Branquinha/AL,-9.2478057,-36.0152009,9,86.04207
1,Brasil Novo/PA,-3.3055853,-52.539198,1870,12480.81159
D1,Brasil Novo/PA,-3.3055853,-52.539198,42,280.31769
1,Brasileira/PI,-4.131182,-41.7824969,595,7128.30957
D1,Brasileira/PI,-4.131182,-41.7824969,15,179.70528
1,Brasilândia de Minas/MG,-17.0096469,-46.0087183,1235,7374.01481
D1,Brasilândia de Minas/MG,-17.0096469,-46.0087183,19,113.44638
1,Brasilândia do Sul/PR,-24.1975793,-53.527551,388,15009.67118
D1,Brasilândia do Sul/PR,-24.1975793,-53.527551,9,348.16248
1,Brasilândia do Tocantins/TO,-8.3886619,-48.4842729,241,10900.04523
D1,Brasilândia do Tocantins/TO,-8.3886619,-48.4842729,6,271.37042
1,Brasilândia/MS,-21.255575,-52.0365617,1172,9887.79212
D1,Brasilândia/MS,-21.255575,-52.0365617,20,168.73365
1,Brasiléia/AC,-11.0010413,-68.7487894,2897,10849.37458
D1,Brasiléia/AC,-11.0010413,-68.7487894,38,142.31144
1,Brasnorte/MT,-12.1227151,-58.0050109,1960,9731.87686
D1,Brasnorte/MT,-12.1227151,-58.0050109,35,173.78352
1,Brasília de Minas/MG,-16.2075114,-44.430559,1082,3338.99090
D1,Brasília de Minas/MG,-16.2075114,-44.430559,8,24.68755
1,Brasília/DF,-15.7934036,-47.8823172,429018,14042.45750
D1,Brasília/DF,-15.7934036,-47.8823172,9206,301.32737
1,Brazabrantes/GO,-16.4291635,-49.3858216,455,12146.28938
D1,Brazabrantes/GO,-16.4291635,-49.3858216,3,80.08542
1,Brazópolis/MG,-22.4742842,-45.6165577,801,5558.63983
D1,Brazópolis/MG,-22.4742842,-45.6165577,29,201.24913
1,Braço do Norte/SC,-28.2728633,-49.1622712,8245,24338.76491
D1,Braço do Norte/SC,-28.2728633,-49.1622712,98,289.29035
1,Braço do Trombudo/SC,-27.358578,-49.882145,640,16980.63147
D1,Braço do Trombudo/SC,-27.358578,-49.882145,5,132.66118
1,Braúna/SP,-21.5015319,-50.3175246,560,9754.39819
D1,Braúna/SP,-21.5015319,-50.3175246,21,365.78993
1,Braúnas/MG,-19.055556,-42.716111,228,4780.87649
D1,Braúnas/MG,-19.055556,-42.716111,9,188.71881
1,Brejetuba/ES,-20.1465817,-41.2902303,1629,13108.55396
D1,Brejetuba/ES,-20.1465817,-41.2902303,14,112.65792
1,Brejinho de Nazaré/TO,-11.0205883,-48.5722906,592,10726.58090
D1,Brejinho de Nazaré/TO,-11.0205883,-48.5722906,14,253.66914
1,Brejinho/PE,-7.3482153,-37.28538,649,8667.20085
D1,Brejinho/PE,-7.3482153,-37.28538,20,267.09402
1,Brejinho/RN,-6.1957907,-35.3583019,1481,11582.07555
D1,Brejinho/RN,-6.1957907,-35.3583019,15,117.30664
1,Brejo Alegre/SP,-21.1671191,-50.1850393,353,12218.76082
D1,Brejo Alegre/SP,-21.1671191,-50.1850393,13,449.98269
1,Brejo Grande do Araguaia/PA,-5.7011449,-48.4037308,812,11020.62975
D1,Brejo Grande do Araguaia/PA,-5.7011449,-48.4037308,4,54.28882
1,Brejo Grande/SE,-10.4287358,-36.4667918,448,5363.34251
D1,Brejo Grande/SE,-10.4287358,-36.4667918,13,155.63271
1,Brejo Santo/CE,-7.4909841,-38.9859152,8207,16466.03266
D1,Brejo Santo/CE,-7.4909841,-38.9859152,153,306.97003
1,Brejo da Madre de Deus/PE,-8.1409718,-36.3712527,2044,3990.23914
D1,Brejo da Madre de Deus/PE,-8.1409718,-36.3712527,49,95.65642
1,Brejo de Areia/MA,-4.3316785,-45.5833334,306,3394.71933
D1,Brejo de Areia/MA,-4.3316785,-45.5833334,10,110.93854
1,Brejo do Cruz/PB,-6.32926065,-37.48746163303929,1705,12001.97100
D1,Brejo do Cruz/PB,-6.32926065,-37.48746163303929,21,147.82486
1,Brejo do Piauí/PI,-8.207583,-42.8359849,129,3352.39085
D1,Brejo do Piauí/PI,-8.207583,-42.8359849,4,103.95010
1,Brejo dos Santos/PB,-6.3769367,-37.8243125,695,10751.85644
D1,Brejo dos Santos/PB,-6.3769367,-37.8243125,7,108.29208
1,Brejo/MA,-3.6804397,-42.7529313,893,2436.49559
D1,Brejo/MA,-3.6804397,-42.7529313,19,51.84033
1,Brejolândia/BA,-12.4843845,-43.9611861,143,1346.76964
D1,Brejolândia/BA,-12.4843845,-43.9611861,11,103.59766
1,Brejão/PE,-9.029146,-36.566034,470,5229.77634
D1,Brejão/PE,-9.029146,-36.566034,9,100.14465
1,Brejões/BA,-13.1033754,-39.7909837,768,5400.08438
D1,Brejões/BA,-13.1033754,-39.7909837,11,77.34496
1,Breu Branco/PA,-3.7785073,-49.5684795,771,1145.07218
D1,Breu Branco/PA,-3.7785073,-49.5684795,44,65.34783
1,Breves/PA,-1.68036,-50.479085,4039,3902.52858
D1,Breves/PA,-1.68036,-50.479085,117,113.04675
1,Britânia/GO,-15.2427599,-51.1602061,575,9918.92358
D1,Britânia/GO,-15.2427599,-51.1602061,5,86.25151
1,Brochier/RS,-29.556766,-51.5963047,415,8130.87774
D1,Brochier/RS,-29.556766,-51.5963047,5,97.96238
1,Brodowski/SP,-20.984532,-47.657217,2619,10361.19793
D1,Brodowski/SP,-20.984532,-47.657217,65,257.15077
1,Brotas de Macaúbas/BA,-12.0019007,-42.6257506,139,1372.16190
D1,Brotas de Macaúbas/BA,-12.0019007,-42.6257506,3,29.61500
1,Brotas/SP,-22.2840884,-48.1267265,1292,5244.35785
D1,Brotas/SP,-22.2840884,-48.1267265,45,182.65952
1,Brumadinho/MG,-20.143611,-44.2,3559,8751.78282
D1,Brumadinho/MG,-20.143611,-44.2,77,189.34737
1,Brumado/BA,-14.29507325,-41.659307508575985,9011,13382.34202
D1,Brumado/BA,-14.29507325,-41.659307508575985,182,270.29034
1,Brunópolis/SC,-27.310953,-50.837585,265,11190.87838
D1,Brunópolis/SC,-27.310953,-50.837585,8,337.83784
1,Brusque/SC,-27.0964628,-48.9136323,26804,19467.05982
D1,Brusque/SC,-27.0964628,-48.9136323,276,200.45174
1,Brás Pires/MG,-20.8483109,-43.2430524,218,5078.03401
D1,Brás Pires/MG,-20.8483109,-43.2430524,7,163.05614
1,Bueno Brandão/MG,-22.441976,-46.3517971,842,7660.81339
D1,Bueno Brandão/MG,-22.441976,-46.3517971,26,236.55718
1,Buenos Aires/PE,-7.7218931,-35.326587,342,2592.87339
D1,Buenos Aires/PE,-7.7218931,-35.326587,23,174.37453
1,Buenópolis/MG,-17.8756607,-44.1749365,305,2946.00599
D1,Buenópolis/MG,-17.8756607,-44.1749365,11,106.24940
1,Buerarema/BA,-14.9571177,-39.3008035,1319,7205.28788
D1,Buerarema/BA,-14.9571177,-39.3008035,41,223.97028
1,Bugre/MG,-19.4257687,-42.2556,365,9163.94677
D1,Bugre/MG,-19.4257687,-42.2556,12,301.28044
1,Bujari/AC,-9.8309656,-67.9520886,1136,10902.11132
D1,Bujari/AC,-9.8309656,-67.9520886,17,163.14779
1,Bujaru/PA,-1.5169239,-48.0410699,1420,4825.50039
D1,Bujaru/PA,-1.5169239,-48.0410699,38,129.13311
1,Buri/SP,-23.79849,-48.598924,2445,12246.43125
D1,Buri/SP,-23.79849,-48.598924,77,385.67493
1,Buritama/SP,-21.0664017,-50.1448077,2288,13239.97454
D1,Buritama/SP,-21.0664017,-50.1448077,62,358.77553
1,Buriti Alegre/GO,-18.1377879,-49.0404411,964,10164.48756
D1,Buriti Alegre/GO,-18.1377879,-49.0404411,30,316.32223
1,Buriti Bravo/MA,-5.8391884,-43.8367876,1538,6424.66268
D1,Buriti Bravo/MA,-5.8391884,-43.8367876,16,66.83654
1,Buriti de Goiás/GO,-16.180644,-50.4287479,221,8925.68659
D1,Buriti de Goiás/GO,-16.180644,-50.4287479,8,323.10178
1,Buriti do Tocantins/TO,-5.3187439,-48.2256609,923,8028.18126
D1,Buriti do Tocantins/TO,-5.3187439,-48.2256609,17,147.86466
1,Buriti dos Lopes/PI,-3.1776723,-41.8707444,1279,6457.31307
D1,Buriti dos Lopes/PI,-3.1776723,-41.8707444,32,161.55904
1,Buriti dos Montes/PI,-5.3136171,-41.0971256,631,7635.52759
D1,Buriti dos Montes/PI,-5.3136171,-41.0971256,8,96.80542
1,Buriti/MA,-3.9430944,-42.9244281,779,2705.04896
D1,Buriti/MA,-3.9430944,-42.9244281,8,27.77971
1,Buriticupu/MA,-4.3227472,-46.4516989,3419,4684.65259
D1,Buriticupu/MA,-4.3227472,-46.4516989,53,72.61965
1,Buritinópolis/GO,-14.4589282,-46.4293104,174,5300.03046
D1,Buritinópolis/GO,-14.4589282,-46.4293104,3,91.37984
1,Buritirama/BA,-10.7148421,-43.6362327,846,3976.31134
D1,Buritirama/BA,-10.7148421,-43.6362327,23,108.10303
1,Buritirana/MA,-5.5897455,-47.0148915,446,2883.55854
D1,Buritirana/MA,-5.5897455,-47.0148915,24,155.16907
1,Buritis/MG,-15.621389,-46.423889,1719,6872.42634
D1,Buritis/MG,-15.621389,-46.423889,36,143.92516
1,Buritis/RO,-10.2054937,-63.8281954,4663,11554.66349
D1,Buritis/RO,-10.2054937,-63.8281954,74,183.36802
1,Buritizal/SP,-20.1933264,-47.7097165,301,6668.14355
D1,Buritizal/SP,-20.1933264,-47.7097165,10,221.53301
1,Buritizeiro/MG,-17.3667765,-44.9647781,1301,4626.43576
D1,Buritizeiro/MG,-17.3667765,-44.9647781,31,110.23790
1,Butiá/RS,-30.1256795,-51.9692224,2049,9779.49599
D1,Butiá/RS,-30.1256795,-51.9692224,54,257.73196
1,Buíque/PE,-8.6239732,-37.157296,2343,3976.64590
D1,Buíque/PE,-8.6239732,-37.157296,43,72.98155
1,Bálsamo/SP,-20.7343722,-49.5807484,1621,17737.17037
D1,Bálsamo/SP,-20.7343722,-49.5807484,61,667.46909
0,CASO SEM LOCALIZAÇÃO DEFINIDA/BA,-13.415069300066518,-38.14174656569957,10805,72.64811
D0,CASO SEM LOCALIZAÇÃO DEFINIDA/BA,-13.415069300066518,-38.14174656569957,256,1.72123
0,CASO SEM LOCALIZAÇÃO DEFINIDA/CE,-3.3445126297392798,-38.624961942434304,10643,116.54522
0,CASO SEM LOCALIZAÇÃO DEFINIDA/ES,-20.30989267097039,-39.81745156645774,4092,101.82524
D0,CASO SEM LOCALIZAÇÃO DEFINIDA/ES,-20.30989267097039,-39.81745156645774,209,5.20075
0,CASO SEM LOCALIZAÇÃO DEFINIDA/MG,-19.97049116501593,-43.8852149072783,4266,20.15231
D0,CASO SEM LOCALIZAÇÃO DEFINIDA/MG,-19.97049116501593,-43.8852149072783,318,1.50221
0,CASO SEM LOCALIZAÇÃO DEFINIDA/MT,-15.54791153961863,-56.17143998972475,2655,76.19532
D0,CASO SEM LOCALIZAÇÃO DEFINIDA/MT,-15.54791153961863,-56.17143998972475,203,5.82586
0,CASO SEM LOCALIZAÇÃO DEFINIDA/PR,-25.69415946385943,-48.10141676336737,21941,191.89332
D0,CASO SEM LOCALIZAÇÃO DEFINIDA/PR,-25.69415946385943,-48.10141676336737,239,2.09026
0,CASO SEM LOCALIZAÇÃO DEFINIDA/RR,2.813328208465927,-60.663338675861986,2612,431.19316
D0,CASO SEM LOCALIZAÇÃO DEFINIDA/RR,2.813328208465927,-60.663338675861986,15,2.47622
0,CASO SEM LOCALIZAÇÃO DEFINIDA/SP,-24.30968974555485,-46.21366504207253,924,2.01224
1,Caapiranga/AM,-3.3188884,-61.2096404,668,5028.98442
D1,Caapiranga/AM,-3.3188884,-61.2096404,22,165.62524
1,Caaporã/PB,-7.510234,-34.9154114,1935,8813.48212
D1,Caaporã/PB,-7.510234,-34.9154114,32,145.75268
1,Caarapó/MS,-22.6349267,-54.8240903,4001,13078.15513
D1,Caarapó/MS,-22.6349267,-54.8240903,52,169.97352
1,Caatiba/BA,-14.9782759,-40.4092325,894,13779.28483
D1,Caatiba/BA,-14.9782759,-40.4092325,12,184.95684
1,Cabaceiras do Paraguaçu/BA,-12.5377868,-39.1901339,590,3119.87732
D1,Cabaceiras do Paraguaçu/BA,-12.5377868,-39.1901339,4,21.15171
1,Cabaceiras/PB,-7.4899156,-36.2860501,388,6853.91274
D1,Cabaceiras/PB,-7.4899156,-36.2860501,3,52.99417
1,Cabeceira Grande/MG,-16.0297,-47.0906,406,5809.95993
D1,Cabeceira Grande/MG,-16.0297,-47.0906,5,71.55123
1,Cabeceiras do Piauí/PI,-4.4733665,-42.3098716,565,5315.14581
D1,Cabeceiras do Piauí/PI,-4.4733665,-42.3098716,11,103.48071
1,Cabeceiras/GO,-15.7995459,-46.9264991,352,4374.84464
D1,Cabeceiras/GO,-15.7995459,-46.9264991,16,198.85657
1,Cabedelo/PB,-6.97324,-34.8351609,8885,12920.44149
D1,Cabedelo/PB,-6.97324,-34.8351609,192,279.20369
1,Cabixi/RO,-13.4956065,-60.5424442,821,15824.98072
D1,Cabixi/RO,-13.4956065,-60.5424442,20,385.50501
1,Cabo Frio/RJ,-22.8804369,-42.0189227,12956,5623.80088
D1,Cabo Frio/RJ,-22.8804369,-42.0189227,675,292.99673
1,Cabo Verde/MG,-21.4743338,-46.3964995,658,4674.95560
D1,Cabo Verde/MG,-21.4743338,-46.3964995,9,63.94316
1,Cabo de Santo Agostinho/PE,-8.2838945,-35.0320984,7991,3824.46971
D1,Cabo de Santo Agostinho/PE,-8.2838945,-35.0320984,479,229.24803
1,Cabreúva/SP,-23.3075813,-47.1324417,3541,7021.75336
D1,Cabreúva/SP,-23.3075813,-47.1324417,89,176.48575
1,Cabrobó/PE,-8.5083701,-39.3106961,2220,6434.22311
D1,Cabrobó/PE,-8.5083701,-39.3106961,27,78.25406
1,Cabrália Paulista/SP,-22.4562909,-49.3385645,397,9356.58732
D1,Cabrália Paulista/SP,-22.4562909,-49.3385645,6,141.40938
1,Cacaulândia/RO,-10.3380043,-62.9007231,815,13000.47855
D1,Cacaulândia/RO,-10.3380043,-62.9007231,10,159.51507
1,Cacequi/RS,-29.8838059,-54.8273443,640,5151.73469
D1,Cacequi/RS,-29.8838059,-54.8273443,7,56.34710
1,Cachoeira Alta/GO,-18.7618269,-50.9432431,1511,11929.57524
D1,Cachoeira Alta/GO,-18.7618269,-50.9432431,24,189.48366
1,Cachoeira Dourada/GO,-18.4934204,-49.481062,538,6699.04122
D1,Cachoeira Dourada/GO,-18.4934204,-49.481062,26,323.74549
1,Cachoeira Dourada/MG,-18.517136,-49.5002062,154,5691.05691
D1,Cachoeira Dourada/MG,-18.517136,-49.5002062,2,73.90983
1,Cachoeira Grande/MA,-2.9290492,-44.0573223,305,3217.97848
D1,Cachoeira Grande/MA,-2.9290492,-44.0573223,7,73.85524
1,Cachoeira Paulista/SP,-22.666498,-45.015384,2384,7099.25255
D1,Cachoeira Paulista/SP,-22.666498,-45.015384,36,107.20348
1,Cachoeira da Prata/MG,-19.524723,-44.453056,226,6293.51156
D1,Cachoeira da Prata/MG,-19.524723,-44.453056,11,306.32136
1,Cachoeira de Goiás/GO,-16.6688414,-50.6435997,77,5737.70492
D1,Cachoeira de Goiás/GO,-16.6688414,-50.6435997,2,149.03130
1,Cachoeira de Minas/MG,-22.3554043,-45.7796324,703,6071.33604
D1,Cachoeira de Minas/MG,-22.3554043,-45.7796324,10,86.36324
1,Cachoeira de Pajeú/MG,-15.965833,-41.496666,498,5274.30629
D1,Cachoeira de Pajeú/MG,-15.965833,-41.496666,10,105.90976
1,Cachoeira do Arari/PA,-1.0143572,-48.9621089,493,2048.70346
D1,Cachoeira do Arari/PA,-1.0143572,-48.9621089,23,95.57846
1,Cachoeira do Piriá/PA,-1.7599443,-46.5446954,894,2583.14311
D1,Cachoeira do Piriá/PA,-1.7599443,-46.5446954,5,14.44711
1,Cachoeira do Sul/RS,-30.0474778,-52.8905413,10063,12291.58778
D1,Cachoeira do Sul/RS,-30.0474778,-52.8905413,168,205.20588
1,Cachoeira dos Índios/PB,-6.9259193,-38.6742159,839,8141.67880
D1,Cachoeira dos Índios/PB,-6.9259193,-38.6742159,14,135.85638
1,Cachoeira/BA,-12.5998256,-38.9665918,1569,4674.23362
D1,Cachoeira/BA,-12.5998256,-38.9665918,26,77.45703
1,Cachoeiras de Macacu/RJ,-22.4626861,-42.6534414,2905,4898.57174
D1,Cachoeiras de Macacu/RJ,-22.4626861,-42.6534414,93,156.82175
1,Cachoeirinha/PE,-8.4906364,-36.2338963,604,2946.19775
D1,Cachoeirinha/PE,-8.4906364,-36.2338963,29,141.45651
1,Cachoeirinha/RS,-29.9493353,-51.0898927,14262,10867.11368
D1,Cachoeirinha/RS,-29.9493353,-51.0898927,410,312.40475
1,Cachoeirinha/TO,-6.118647,-47.9208885,119,5210.15762
D1,Cachoeirinha/TO,-6.118647,-47.9208885,2,87.56567
1,Cachoeiro de Itapemirim/ES,-20.848084,-41.11129,26338,12506.82609
D1,Cachoeiro de Itapemirim/ES,-20.848084,-41.11129,560,265.92082
1,Cacimba de Areia/PB,-7.1288513,-37.1575194,53,1434.37077
D1,Cacimba de Areia/PB,-7.1288513,-37.1575194,4,108.25440
1,Cacimba de Dentro/PB,-6.6425101,-35.7929304,1144,6659.68099
D1,Cacimba de Dentro/PB,-6.6425101,-35.7929304,33,192.10618
1,Cacimbas/PB,-7.2125451,-37.0593398,234,3250.45145
D1,Cacimbas/PB,-7.2125451,-37.0593398,8,111.12655
1,Cacimbinhas/AL,-9.401212,-36.991082,738,6777.48186
D1,Cacimbinhas/AL,-9.401212,-36.991082,10,91.83580
1,Cacique Doble/RS,-27.7700117,-51.6616409,529,10425.69965
D1,Cacique Doble/RS,-27.7700117,-51.6616409,10,197.08317
1,Cacoal/RO,-11.4333,-61.4420502,13504,15721.88653
D1,Cacoal/RO,-11.4333,-61.4420502,278,323.65851
1,Caconde/SP,-21.527995,-46.643659,1276,6712.60982
D1,Caconde/SP,-21.527995,-46.643659,33,173.60198
1,Caculé/BA,-14.4990734,-42.2233006,1806,7754.06809
D1,Caculé/BA,-14.4990734,-42.2233006,14,60.10905
1,Caetanos/BA,-14.3387456,-40.9085971,662,4531.76342
D1,Caetanos/BA,-14.3387456,-40.9085971,10,68.45564
1,Caetanópolis/MG,-19.2947496,-44.4138386,941,8009.19227
D1,Caetanópolis/MG,-19.2947496,-44.4138386,15,127.67044
1,Caetité/BA,-14.0691776,-42.4852428,2597,5084.08214
D1,Caetité/BA,-14.0691776,-42.4852428,28,54.81490
1,Caeté/MG,-19.897777,-43.670278,1921,4264.43492
D1,Caeté/MG,-19.897777,-43.670278,60,133.19422
1,Caetés/PE,-8.7728788,-36.6255835,1557,5386.79768
D1,Caetés/PE,-8.7728788,-36.6255835,20,69.19458
1,Cafarnaum/BA,-11.691399,-41.468823,890,4807.43261
D1,Cafarnaum/BA,-11.691399,-41.468823,21,113.43380
1,Cafeara/PR,-22.78905,-51.714195,357,12085.30806
D1,Cafeara/PR,-22.78905,-51.714195,11,372.37644
1,Cafelândia/PR,-24.6176963,-53.3218057,2228,12071.95492
D1,Cafelândia/PR,-24.6176963,-53.3218057,18,97.52926
1,Cafelândia/SP,-21.8054355,-49.6030627,730,4091.24026
D1,Cafelândia/SP,-21.8054355,-49.6030627,35,196.15536
1,Cafezal do Sul/PR,-23.900508,-53.512418,419,10451.48416
D1,Cafezal do Sul/PR,-23.900508,-53.512418,4,99.77551
1,Caiabu/SP,-22.0143038,-51.2356597,243,5795.37324
D1,Caiabu/SP,-22.0143038,-51.2356597,7,166.94491
1,Caiana/MG,-20.695555,-41.924723,144,2598.80888
D1,Caiana/MG,-20.695555,-41.924723,7,126.33099
1,Caiapônia/GO,-16.9538779,-51.8090761,1158,6060.60606
D1,Caiapônia/GO,-16.9538779,-51.8090761,35,183.17894
1,Caibaté/RS,-28.290475,-54.645407,295,6116.52498
D1,Caibaté/RS,-28.290475,-54.645407,7,145.13788
1,Caibi/SC,-27.0751925,-53.2502133,622,10146.81892
D1,Caibi/SC,-27.0751925,-53.2502133,12,195.75856
1,Caicó/RN,-6.4594544,-37.0971911,11097,16237.21522
D1,Caicó/RN,-6.4594544,-37.0971911,134,196.06982
1,Caieiras/SP,-23.3644621,-46.7484765,8093,7874.48309
D1,Caieiras/SP,-23.3644621,-46.7484765,287,279.25079
1,Cairu/BA,-13.4860505,-39.0455744,1345,7299.07201
D1,Cairu/BA,-13.4860505,-39.0455744,16,86.82911
1,Caiuá/SP,-21.8319357,-51.9887179,336,5650.85772
D1,Caiuá/SP,-21.8319357,-51.9887179,6,100.90817
1,Caiçara do Norte/RN,-5.0645017,-36.0561226,508,7742.72215
D1,Caiçara do Norte/RN,-5.0645017,-36.0561226,10,152.41579
1,Caiçara do Rio do Vento/RN,-5.757968,-36.00089,345,9286.67564
D1,Caiçara do Rio do Vento/RN,-5.757968,-36.00089,8,215.34320
1,Caiçara/PB,-6.6146866,-35.4681434,770,10707.82923
D1,Caiçara/PB,-6.6146866,-35.4681434,14,194.68780
1,Caiçara/RS,-27.2750478,-53.4310053,571,12148.93617
D1,Caiçara/RS,-27.2750478,-53.4310053,8,170.21277
1,Cajamar/SP,-23.3561111,-46.8769444,4459,5721.50794
D1,Cajamar/SP,-23.3561111,-46.8769444,219,281.00701
1,Cajapió/MA,-2.8778715,-44.6746871,128,1141.22682
D1,Cajapió/MA,-2.8778715,-44.6746871,7,62.41084
1,Cajari/MA,-3.3213076,-45.0118757,233,1197.88186
D1,Cajari/MA,-3.3213076,-45.0118757,8,41.12899
1,Cajati/SP,-24.7272376,-48.1077914,3212,11272.54861
D1,Cajati/SP,-24.7272376,-48.1077914,96,336.91303
1,Cajazeiras do Piauí/PI,-6.794271,-42.3935024,62,1735.23650
D1,Cajazeiras do Piauí/PI,-6.794271,-42.3935024,1,27.98769
1,Cajazeiras/PB,-6.8897849,-38.5570389,9077,14572.39641
D1,Cajazeiras/PB,-6.8897849,-38.5570389,141,226.36421
1,Cajazeirinhas/PB,-6.961442,-37.7993733,168,5241.80967
D1,Cajazeirinhas/PB,-6.961442,-37.7993733,1,31.20125
1,Cajobi/SP,-20.8776238,-48.8106972,959,9050.58513
D1,Cajobi/SP,-20.8776238,-48.8106972,29,273.68818
1,Cajueiro da Praia/PI,-2.931114,-41.340801,477,6215.79359
D1,Cajueiro da Praia/PI,-2.931114,-41.340801,20,260.62028
1,Cajueiro/AL,-9.399589,-36.1524309,592,2775.30355
D1,Cajueiro/AL,-9.399589,-36.1524309,26,121.88833
1,Cajuri/MG,-20.7901414,-42.7954489,398,10015.09814
D1,Cajuri/MG,-20.7901414,-42.7954489,2,50.32713
1,Cajuru/SP,-21.2759978,-47.3046035,1067,4042.73860
D1,Cajuru/SP,-21.2759978,-47.3046035,36,136.39980
1,Caldas Brandão/PB,-7.1027959,-35.3254676,558,9229.24247
D1,Caldas Brandão/PB,-7.1027959,-35.3254676,10,165.39861
1,Caldas Novas/GO,-17.745,-48.625,8619,9248.25100
D1,Caldas Novas/GO,-17.745,-48.625,211,226.40457
1,Caldas/MG,-21.923611,-46.386111,897,6168.76418
D1,Caldas/MG,-21.923611,-46.386111,32,220.06740
1,Caldazinha/GO,-16.7116649,-49.0012601,307,7978.17048
D1,Caldazinha/GO,-16.7116649,-49.0012601,6,155.92516
1,Caldeirão Grande do Piauí/PI,-7.3310393,-40.6374433,399,6901.92008
D1,Caldeirão Grande do Piauí/PI,-7.3310393,-40.6374433,2,34.59609
1,Caldeirão Grande/BA,-11.0208483,-40.3041387,565,4219.25174
D1,Caldeirão Grande/BA,-11.0208483,-40.3041387,6,44.80621
1,Califórnia/PR,-23.6672543,-51.3554556,1215,14118.05717
D1,Califórnia/PR,-23.6672543,-51.3554556,28,325.35440
1,Calmon/SC,-26.6023644,-51.0992893,35,1049.47526
D1,Calmon/SC,-26.6023644,-51.0992893,4,119.94003
1,Calumbi/PE,-7.9389746,-38.1516871,672,11693.05725
D1,Calumbi/PE,-7.9389746,-38.1516871,4,69.60153
1,Calçado/PE,-8.7413446,-36.3351787,492,4465.42022
D1,Calçado/PE,-8.7413446,-36.3351787,5,45.38029
1,Calçoene/AP,2.4981757,-50.9539503,1645,14549.79657
D1,Calçoene/AP,2.4981757,-50.9539503,10,88.44861
1,Camacan/BA,-15.4166631,-39.4930088,2904,9073.29876
D1,Camacan/BA,-15.4166631,-39.4930088,79,246.82872
1,Camacho/MG,-20.625556,-45.156667,107,3729.52248
D1,Camacho/MG,-20.625556,-45.156667,2,69.71070
1,Camalaú/PB,-7.885031,-36.824191,433,7179.57221
D1,Camalaú/PB,-7.885031,-36.824191,6,99.48599
1,Camamu/BA,-13.9438142,-39.1060917,2273,6424.17048
D1,Camamu/BA,-13.9438142,-39.1060917,51,144.14109
1,Camanducaia/MG,-22.755278,-46.144444,3074,14100.27063
D1,Camanducaia/MG,-22.755278,-46.144444,61,279.80368
1,Camapuã/MS,-19.5291747,-54.0434641,835,6098.00628
D1,Camapuã/MS,-19.5291747,-54.0434641,30,219.09005
1,Camaquã/RS,-30.8524752,-51.8075619,6756,10162.76061
D1,Camaquã/RS,-30.8524752,-51.8075619,136,204.57896
1,Camaragibe/PE,-8.0213832,-34.9810768,6749,4247.35209
D1,Camaragibe/PE,-8.0213832,-34.9810768,392,246.69759
1,Camargo/RS,-28.5865661,-52.2031474,427,15572.57476
D1,Camargo/RS,-28.5865661,-52.2031474,6,218.81838
1,Camaçari/BA,-12.6998188,-38.3260762,23461,7709.77516
D1,Camaçari/BA,-12.6998188,-38.3260762,595,195.52944
1,Cambará do Sul/RS,-29.0489517,-50.145412,294,4589.44739
D1,Cambará do Sul/RS,-29.0489517,-50.145412,10,156.10365
1,Cambará/PR,-23.042273,-50.075281,2679,10519.90890
D1,Cambará/PR,-23.042273,-50.075281,48,188.48661
1,Cambira/PR,-23.600265,-51.581045,972,12277.37779
D1,Cambira/PR,-23.600265,-51.581045,23,290.51408
1,Camboriú/SC,-27.0273601,-48.6535657,12312,14466.83509
D1,Camboriú/SC,-27.0273601,-48.6535657,153,179.77792
1,Cambuci/RJ,-21.5749919,-41.9107833,955,6155.73031
D1,Cambuci/RJ,-21.5749919,-41.9107833,33,212.71110
1,Cambuquira/MG,-21.853056,-45.2953619,722,5635.34187
D1,Cambuquira/MG,-21.853056,-45.2953619,20,156.10365
1,Cambuí/MG,-22.6122501,-46.0572137,3514,11786.40907
D1,Cambuí/MG,-22.6122501,-46.0572137,55,184.47709
1,Cambé/PR,-23.2782035,-51.2779583,10773,10036.23965
D1,Cambé/PR,-23.2782035,-51.2779583,235,218.92846
1,Cametá/PA,-2.242949,-49.497885,8782,6301.48388
D1,Cametá/PA,-2.242949,-49.497885,241,172.92845
1,Camocim de São Félix/PE,-8.3616757,-35.7638903,533,2820.10582
D1,Camocim de São Félix/PE,-8.3616757,-35.7638903,17,89.94709
1,Camocim/CE,-2.9009918,-40.8427389,6042,9454.36337
D1,Camocim/CE,-2.9009918,-40.8427389,162,253.49336
1,Campanha/MG,-21.8361108,-45.401986,1735,10350.79346
D1,Campanha/MG,-21.8361108,-45.401986,32,190.90801
1,Campanário/MG,-18.2398144,-41.7271768,225,6032.17158
D1,Campanário/MG,-18.2398144,-41.7271768,5,134.04826
1,Campestre da Serra/RS,-28.7966535,-51.0958149,248,7304.86009
D1,Campestre da Serra/RS,-28.7966535,-51.0958149,2,58.91016
1,Campestre de Goiás/GO,-16.7624179,-49.69497,508,13921.62236
D1,Campestre de Goiás/GO,-16.7624179,-49.69497,14,383.66676
1,Campestre do Maranhão/MA,-6.1729113,-47.3640512,1061,7341.03646
D1,Campestre do Maranhão/MA,-6.1729113,-47.3640512,44,304.43507
1,Campestre/AL,-8.8481634,-35.5660033,250,3595.05321
D1,Campestre/AL,-8.8481634,-35.5660033,6,86.28128
1,Campestre/MG,-19.6142116,-43.219378,1672,7941.48380
D1,Campestre/MG,-19.6142116,-43.219378,36,170.98889
1,Campina Grande do Sul/PR,-25.3046032,-49.0545355,5135,11754.60684
D1,Campina Grande do Sul/PR,-25.3046032,-49.0545355,116,265.53737
1,Campina Grande/PB,-7.2246743,-35.8771292,36513,8866.53214
D1,Campina Grande/PB,-7.2246743,-35.8771292,1003,243.56070
1,Campina Verde/MG,-19.535277,-49.486389,1161,5877.88578
