type,name,lat,lon,total,total_per_100k_inhabitants
1,Abadia de Goiás/GO,-16.7572644,-49.4412205,1395,15572.67247
D1,Abadia de Goiás/GO,-16.7572644,-49.4412205,31,346.05939
1,Abadia dos Dourados/MG,-18.4911191,-47.4063589,384,5481.01627
D1,Abadia dos Dourados/MG,-18.4911191,-47.4063589,14,199.82872
1,Abadiânia/GO,-16.1940946,-48.7067767,412,2013.58682
D1,Abadiânia/GO,-16.1940946,-48.7067767,28,136.84571
1,Abaetetuba/PA,-1.721828,-48.878843,8148,5121.95122
D1,Abaetetuba/PA,-1.721828,-48.878843,216,135.78074
1,Abaeté/MG,-19.1566833,-45.4481213,1077,4632.25806
D1,Abaeté/MG,-19.1566833,-45.4481213,25,107.52688
1,Abaiara/CE,-7.3607808,-39.0487878,524,4420.82173
D1,Abaiara/CE,-7.3607808,-39.0487878,13,109.67688
1,Abaré/BA,-8.7239913,-39.1139689,880,4324.96191
D1,Abaré/BA,-8.7239913,-39.1139689,11,54.06202
1,Abatiá/PR,-23.3052967,-50.3102532,819,11055.61555
D1,Abatiá/PR,-23.3052967,-50.3102532,12,161.98704
1,Abaíra/BA,-13.2503296,-41.6640342,264,3030.99885
D1,Abaíra/BA,-13.2503296,-41.6640342,10,114.81056
1,Abdon Batista/SC,-27.612419,-51.022992,372,14599.68603
D1,Abdon Batista/SC,-27.612419,-51.022992,3,117.73940
1,Abel Figueiredo/PA,-4.953001,-48.3958485,918,12262.89073
D1,Abel Figueiredo/PA,-4.953001,-48.3958485,10,133.58269
1,Abelardo Luz/SC,-26.5705893,-52.3280339,1389,7733.85301
D1,Abelardo Luz/SC,-26.5705893,-52.3280339,43,239.42094
1,Abre Campo/MG,-20.2976097,-42.4764741,965,7177.92324
D1,Abre Campo/MG,-20.2976097,-42.4764741,16,119.01220
1,Abreu e Lima/PE,-7.900719,-34.898389,2843,2833.19714
D1,Abreu e Lima/PE,-7.900719,-34.898389,205,204.29315
1,Abreulândia/TO,-9.6221526,-49.1558343,268,10331.53431
D1,Abreulândia/TO,-9.6221526,-49.1558343,6,231.30301
1,Acaiaca/MG,-20.3621646,-43.1444162,221,5533.29995
D1,Acaiaca/MG,-20.3621646,-43.1444162,11,275.41312
1,Acajutiba/BA,-11.6609659,-38.0186381,486,3200.10535
D1,Acajutiba/BA,-11.6609659,-38.0186381,16,105.35326
1,Acarape/CE,-4.2237866,-38.7071663,2646,17597.76536
D1,Acarape/CE,-4.2237866,-38.7071663,27,179.56903
1,Acaraú/CE,-2.8869514,-40.1194713,4667,7395.72769
D1,Acaraú/CE,-2.8869514,-40.1194713,98,155.29919
1,Acari/RN,-6.4364689,-36.6394777,946,8506.42928
D1,Acari/RN,-6.4364689,-36.6394777,14,125.88796
1,Acará/PA,-1.961388,-48.1987043,1258,2259.78552
D1,Acará/PA,-1.961388,-48.1987043,28,50.29729
1,Acauã/PI,-8.219542,-41.083059,189,2661.22219
D1,Acauã/PI,-8.219542,-41.083059,1,14.08054
1,Aceguá/RS,-31.8695131,-54.1615593,316,6394.17240
D1,Aceguá/RS,-31.8695131,-54.1615593,4,80.93889
1,Acopiara/CE,-6.0936464,-39.4543204,3266,5994.75046
D1,Acopiara/CE,-6.0936464,-39.4543204,128,234.94429
1,Acorizal/MT,-15.2001544,-56.3668953,476,8923.88451
D1,Acorizal/MT,-15.2001544,-56.3668953,18,337.45782
1,Acrelândia/AC,-10.0759167,-67.0526898,1579,10193.67334
D1,Acrelândia/AC,-10.0759167,-67.0526898,33,213.04067
1,Acreúna/GO,-17.3959899,-50.3749031,1768,7841.74576
D1,Acreúna/GO,-17.3959899,-50.3749031,44,195.15657
1,Adamantina/SP,-21.6866517,-51.0762975,2856,8134.20296
D1,Adamantina/SP,-21.6866517,-51.0762975,85,242.08937
1,Adelândia/GO,-16.4155077,-50.1665834,171,6796.50238
D1,Adelândia/GO,-16.4155077,-50.1665834,4,158.98251
1,Adolfo/SP,-21.2356597,-49.6441918,447,12577.37760
D1,Adolfo/SP,-21.2356597,-49.6441918,11,309.51041
1,Adrianópolis/PR,-24.6557863,-48.9912769,1186,20249.27437
D1,Adrianópolis/PR,-24.6557863,-48.9912769,24,409.76609
1,Adustina/BA,-10.5358875,-38.114479,778,4542.80042
D1,Adustina/BA,-10.5358875,-38.114479,16,93.42520
1,Afogados da Ingazeira/PE,-7.750429,-37.6356375,4431,11846.32660
D1,Afogados da Ingazeira/PE,-7.750429,-37.6356375,62,165.75767
1,Afonso Bezerra/RN,-5.4745,-36.57625071327935,647,5866.35234
D1,Afonso Bezerra/RN,-5.4745,-36.57625071327935,16,145.07208
1,Afonso Cláudio/ES,-20.077841,-41.12606,3286,10789.68971
D1,Afonso Cláudio/ES,-20.077841,-41.12606,56,183.87785
1,Afonso Cunha/MA,-4.1326105,-43.3230026,171,2599.57434
D1,Afonso Cunha/MA,-4.1326105,-43.3230026,2,30.40438
1,Afrânio/PE,-8.5198919,-41.0070197,819,4134.27562
D1,Afrânio/PE,-8.5198919,-41.0070197,14,70.67138
1,Afuá/PA,-0.1535664,-50.3879223,2916,7369.77785
D1,Afuá/PA,-0.1535664,-50.3879223,14,35.38302
1,Agrestina/PE,-8.4558021,-35.9442663,1471,5868.74127
D1,Agrestina/PE,-8.4558021,-35.9442663,53,211.45023
1,Agricolândia/PI,-5.7967843,-42.6605131,443,8633.79458
D1,Agricolândia/PI,-5.7967843,-42.6605131,5,97.44689
1,Agrolândia/SC,-27.4122212,-49.8295774,1351,12267.32044
D1,Agrolândia/SC,-27.4122212,-49.8295774,19,172.52338
1,Agronômica/SC,-27.2660744,-49.7104753,595,10800.50826
D1,Agronômica/SC,-27.2660744,-49.7104753,13,235.97749
1,Aguanil/MG,-20.9424533,-45.3927152,554,12251.21628
D1,Aguanil/MG,-20.9424533,-45.3927152,8,176.91287
1,Aguaí/SP,-22.0592036,-46.979384,2522,6881.68522
D1,Aguaí/SP,-22.0592036,-46.979384,80,218.29295
1,Agudo/RS,-29.6423259,-53.2494005,1489,9078.71471
D1,Agudo/RS,-29.6423259,-53.2494005,24,146.33254
1,Agudos do Sul/PR,-25.9890808,-49.3328175,520,5491.02429
D1,Agudos do Sul/PR,-25.9890808,-49.3328175,19,200.63358
1,Agudos/SP,-22.471162,-48.987822,3210,8582.65822
D1,Agudos/SP,-22.471162,-48.987822,74,197.85567
1,Aguiar/PB,-7.0928404,-38.1727215,349,6198.93428
D1,Aguiar/PB,-7.0928404,-38.1727215,5,88.80995
1,Aguiarnópolis/TO,-6.5600452,-47.4721189,565,8197.91062
D1,Aguiarnópolis/TO,-6.5600452,-47.4721189,12,174.11492
1,Aimorés/MG,-19.4917754,-41.0615603,1822,7247.12621
D1,Aimorés/MG,-19.4917754,-41.0615603,57,226.72129
1,Aiquara/BA,-14.126918,-39.8887574,454,10280.79710
D1,Aiquara/BA,-14.126918,-39.8887574,11,249.09420
1,Aiuaba/CE,-6.5710836,-40.1212278,596,3407.07712
D1,Aiuaba/CE,-6.5710836,-40.1212278,11,62.88230
1,Aiuruoca/MG,-21.9759554,-44.6036637,261,4367.46988
D1,Aiuruoca/MG,-21.9759554,-44.6036637,6,100.40161
1,Ajuricaba/RS,-28.239654,-53.7693013,975,13954.48690
D1,Ajuricaba/RS,-28.239654,-53.7693013,24,343.49506
1,Alagoa Grande/PB,-7.0415212,-35.6285322,3464,12180.45642
D1,Alagoa Grande/PB,-7.0415212,-35.6285322,63,221.52678
1,Alagoa Nova/PB,-7.0653703,-35.76695977336711,866,4139.38148
D1,Alagoa Nova/PB,-7.0653703,-35.76695977336711,17,81.25807
1,Alagoa/MG,-22.1697202,-44.6400042,432,16210.13133
D1,Alagoa/MG,-22.1697202,-44.6400042,6,225.14071
1,Alagoinha do Piauí/PI,-7.0090952,-40.939675,329,4292.23744
D1,Alagoinha do Piauí/PI,-7.0090952,-40.939675,10,130.46314
1,Alagoinha/PB,-6.97063215,-35.51490901897793,1697,11655.21978
D1,Alagoinha/PB,-6.97063215,-35.51490901897793,24,164.83516
1,Alagoinha/PE,-8.50355635,-36.77701174370496,987,6706.07419
D1,Alagoinha/PE,-8.50355635,-36.77701174370496,20,135.88803
1,Alagoinhas/BA,-12.133526,-38.420772,11783,7735.33254
D1,Alagoinhas/BA,-12.133526,-38.420772,231,151.64744
1,Alambari/SP,-23.550338,-47.897971,488,7962.14717
D1,Alambari/SP,-23.550338,-47.897971,10,163.15875
1,Albertina/MG,-20.66164,-43.784039,210,6974.42710
D1,Albertina/MG,-20.66164,-43.784039,7,232.48090
1,Alcantil/PB,-7.7425491,-36.0609604,387,7024.86840
D1,Alcantil/PB,-7.7425491,-36.0609604,6,108.91269
1,Alcinópolis/MS,-18.3264121,-53.7094463,265,4892.00665
D1,Alcinópolis/MS,-18.3264121,-53.7094463,7,129.22282
1,Alcobaça/BA,-17.5215875,-39.1965474,1385,6158.29257
D1,Alcobaça/BA,-17.5215875,-39.1965474,25,111.16052
1,Alcântara/MA,-2.4038956,-44.4154241,266,1202.96671
D1,Alcântara/MA,-2.4038956,-44.4154241,16,72.35890
1,Alcântaras/CE,-3.586247,-40.5457641,1547,13131.31313
D1,Alcântaras/CE,-3.586247,-40.5457641,19,161.27663
1,Aldeias Altas/MA,-4.6291957,-43.4708622,975,3643.90627
D1,Aldeias Altas/MA,-4.6291957,-43.4708622,13,48.58542
1,Alecrim/RS,-27.6566142,-54.7653195,266,4564.95624
D1,Alecrim/RS,-27.6566142,-54.7653195,11,188.77639
1,Alegre/ES,-20.7625787,-41.5318886,2161,7209.34112
D1,Alegre/ES,-20.7625787,-41.5318886,48,160.13344
1,Alegrete do Piauí/PI,-7.2440138,-40.8602296,483,9821.06547
D1,Alegrete do Piauí/PI,-7.2440138,-40.8602296,5,101.66734
1,Alegrete/RS,-29.790166,-55.794862,8328,11403.84510
D1,Alegrete/RS,-29.790166,-55.794862,240,328.64107
1,Alegria/RS,-27.8332103,-54.0574959,342,10136.33669
D1,Alegria/RS,-27.8332103,-54.0574959,2,59.27682
1,Alenquer/PA,-1.946229,-54.738355,2846,4984.93659
D1,Alenquer/PA,-1.946229,-54.738355,120,210.18707
1,Alexandria/RN,-6.414779,-38.0135516,1348,9946.13739
D1,Alexandria/RN,-6.414779,-38.0135516,19,140.19036
1,Alexânia/GO,-16.0834049,-48.5077803,2957,10556.94395
D1,Alexânia/GO,-16.0834049,-48.5077803,72,257.05105
1,Alfenas/MG,-21.4297405,-45.9479419,7412,9208.13974
D1,Alfenas/MG,-21.4297405,-45.9479419,150,186.34929
1,Alfredo Chaves/ES,-20.624970400000002,-40.75006690147988,2236,15277.39820
D1,Alfredo Chaves/ES,-20.624970400000002,-40.75006690147988,32,218.63897
1,Alfredo Marcondes/SP,-21.9527,-51.413956,218,5210.32505
D1,Alfredo Marcondes/SP,-21.9527,-51.413956,9,215.10516
1,Alfredo Vasconcelos/MG,-21.145833,-43.776389,376,5386.04784
D1,Alfredo Vasconcelos/MG,-21.145833,-43.776389,12,171.89514
1,Alfredo Wagner/SC,-27.6961513,-49.3326734,659,6533.80924
D1,Alfredo Wagner/SC,-27.6961513,-49.3326734,7,69.40313
1,Algodão de Jandaíra/PB,-6.9040175,-36.0089879,149,5781.91696
1,Alhandra/PB,-7.4304246,-34.9106103,1941,9839.30653
D1,Alhandra/PB,-7.4304246,-34.9106103,34,172.35261
1,Aliança do Tocantins/TO,-11.3055927,-48.9409096,562,10512.53273
D1,Aliança do Tocantins/TO,-11.3055927,-48.9409096,20,374.11149
1,Aliança/PE,-7.60398,-35.222696,592,1541.78712
D1,Aliança/PE,-7.60398,-35.222696,55,143.24036
1,Almadina/BA,-14.70466,-39.6381994,596,11106.96981
D1,Almadina/BA,-14.70466,-39.6381994,9,167.72270
1,Almas/TO,-11.5681309,-47.1702803,220,3152.31409
D1,Almas/TO,-11.5681309,-47.1702803,5,71.64350
1,Almeirim/PA,-1.5290377,-52.5788111,3345,9816.29299
D1,Almeirim/PA,-1.5290377,-52.5788111,42,123.25390
1,Almenara/MG,-16.1740678,-40.6904907,3717,8819.97010
D1,Almenara/MG,-16.1740678,-40.6904907,44,104.40643
1,Almino Afonso/RN,-6.1544208,-37.7649018,407,8641.18896
D1,Almino Afonso/RN,-6.1544208,-37.7649018,11,233.54565
1,Almirante Tamandaré do Sul/RS,-28.1141129,-52.9134874,292,14982.04207
D1,Almirante Tamandaré do Sul/RS,-28.1141129,-52.9134874,3,153.92509
1,Almirante Tamandaré/PR,-25.3133048,-49.2997838,8621,7181.71291
D1,Almirante Tamandaré/PR,-25.3133048,-49.2997838,329,274.07303
1,Aloândia/GO,-17.7277983,-49.4809338,230,11581.06747
D1,Aloândia/GO,-17.7277983,-49.4809338,6,302.11480
1,Alpercata/MG,-18.9803616,-41.9827637,450,6051.64067
D1,Alpercata/MG,-18.9803616,-41.9827637,18,242.06563
1,Alpestre/RS,-27.2512339,-53.0349646,283,4664.57887
D1,Alpestre/RS,-27.2512339,-53.0349646,7,115.37828
1,Alpinópolis/MG,-20.863611,-46.387777,1100,5511.57431
D1,Alpinópolis/MG,-20.863611,-46.387777,25,125.26305
1,Alta Floresta D'Oeste/RO,-11.9296917,-61.9961284,3737,16442.27385
D1,Alta Floresta D'Oeste/RO,-11.9296917,-61.9961284,63,277.19113
1,Alta Floresta/MT,-9.8715018,-56.0839881,7901,15206.22029
D1,Alta Floresta/MT,-9.8715018,-56.0839881,117,225.17754
1,Altair/SP,-20.5238955,-49.0606135,158,3774.48638
D1,Altair/SP,-20.5238955,-49.0606135,12,286.66985
1,Altamira do Maranhão/MA,-4.1643006,-45.4674574,308,3761.14300
D1,Altamira do Maranhão/MA,-4.1643006,-45.4674574,10,122.11503
1,Altamira do Paraná/PR,-24.799114,-52.7128633,191,11355.52913
D1,Altamira do Paraná/PR,-24.799114,-52.7128633,7,416.17122
1,Altamira/PA,-3.204065,-52.209961,12933,11152.11824
D1,Altamira/PA,-3.204065,-52.209961,276,237.99464
1,Altaneira/CE,-6.9980933,-39.7385742,475,6209.15033
D1,Altaneira/CE,-6.9980933,-39.7385742,16,209.15033
1,Alterosa/MG,-21.249166,-46.143055,635,4374.18199
D1,Alterosa/MG,-21.249166,-46.143055,31,213.54274
1,Altinho/PE,-8.4904095,-36.0607494,1023,4450.92238
D1,Altinho/PE,-8.4904095,-36.0607494,20,87.01706
1,Altinópolis/SP,-21.021364,-47.3712,778,4801.57995
D1,Altinópolis/SP,-21.021364,-47.3712,39,240.69617
1,Alto Alegre do Maranhão/MA,-4.2055693,-44.4525287,1123,4031.15802
D1,Alto Alegre do Maranhão/MA,-4.2055693,-44.4525287,25,89.74083
1,Alto Alegre do Pindaré/MA,-3.6698186,-45.8462153,1863,5832.26372
D1,Alto Alegre do Pindaré/MA,-3.6698186,-45.8462153,45,140.87594
1,Alto Alegre dos Parecis/RO,-12.1314515,-61.856265,1402,10577.14070
D1,Alto Alegre dos Parecis/RO,-12.1314515,-61.856265,41,309.31724
1,Alto Alegre/RR,2.98858,-61.307167,1306,8491.54746
D1,Alto Alegre/RR,2.98858,-61.307167,30,195.05852
1,Alto Alegre/RS,-31.780844700000003,-52.81311114489171,188,11655.30068
D1,Alto Alegre/RS,-31.780844700000003,-52.81311114489171,1,61.99628
1,Alto Alegre/SP,-21.5820592,-50.1661976,311,7607.63209
D1,Alto Alegre/SP,-21.5820592,-50.1661976,14,342.46575
1,Alto Araguaia/MT,-17.3156528,-53.2169365,1100,5674.49059
D1,Alto Araguaia/MT,-17.3156528,-53.2169365,24,123.80707
1,Alto Bela Vista/SC,-27.4320737,-51.905771,161,8359.29387
D1,Alto Bela Vista/SC,-27.4320737,-51.905771,2,103.84216
1,Alto Boa Vista/MT,-11.6723985,-51.3744431,725,10452.71050
D1,Alto Boa Vista/MT,-11.6723985,-51.3744431,12,173.01038
1,Alto Caparaó/MG,-20.4405661,-41.8683799,376,6379.36885
D1,Alto Caparaó/MG,-20.4405661,-41.8683799,8,135.73125
1,Alto Feliz/RS,-29.3785943,-51.3123751,244,8036.89065
D1,Alto Feliz/RS,-29.3785943,-51.3123751,2,65.87615
1,Alto Garças/MT,-16.9469683,-53.529427,795,6542.67139
D1,Alto Garças/MT,-16.9469683,-53.529427,27,222.20393
1,Alto Horizonte/GO,-14.1954948,-49.3366993,780,11809.23543
D1,Alto Horizonte/GO,-14.1954948,-49.3366993,9,136.26041
1,Alto Jequitibá/MG,-20.423611,-41.966111,649,7818.33514
D1,Alto Jequitibá/MG,-20.423611,-41.966111,9,108.42067
1,Alto Longá/PI,-5.2549051,-42.2072388,601,4191.36620
D1,Alto Longá/PI,-5.2549051,-42.2072388,13,90.66183
1,Alto Paraguai/MT,-14.513712,-56.4936374,835,7277.95694
D1,Alto Paraguai/MT,-14.513712,-56.4936374,26,226.61902
1,Alto Paraná/PR,-23.131247,-52.318893,861,5794.46800
D1,Alto Paraná/PR,-23.131247,-52.318893,21,141.32849
1,Alto Paraíso de Goiás/GO,-14.1304779,-47.5100161,614,7986.47242
D1,Alto Paraíso de Goiás/GO,-14.1304779,-47.5100161,7,91.05099
1,Alto Paraíso/PR,-23.508137,-53.728537,181,6741.15456
D1,Alto Paraíso/PR,-23.508137,-53.728537,3,111.73184
1,Alto Paraíso/RO,-9.7240103,-63.3188123,1756,8037.71685
D1,Alto Paraíso/RO,-9.7240103,-63.3188123,44,201.40065
1,Alto Parnaíba/MA,-9.112506,-45.9310154,822,7331.43061
D1,Alto Parnaíba/MA,-9.112506,-45.9310154,9,80.27114
1,Alto Piquiri/PR,-24.0239021,-53.4417448,737,7537.32870
D1,Alto Piquiri/PR,-24.0239021,-53.4417448,18,184.08673
1,Alto Rio Doce/MG,-21.0239537,-43.4133507,324,2983.70016
D1,Alto Rio Doce/MG,-21.0239537,-43.4133507,23,211.80588
1,Alto Rio Novo/ES,-19.0577208,-41.0171518,676,8585.21717
D1,Alto Rio Novo/ES,-19.0577208,-41.0171518,21,266.70053
1,Alto Santo/CE,-5.5190371,-38.2719351,1517,8821.81903
D1,Alto Santo/CE,-5.5190371,-38.2719351,23,133.75204
1,Alto Taquari/MT,-17.8269099,-53.2831736,1385,12440.49223
D1,Alto Taquari/MT,-17.8269099,-53.2831736,26,233.53993
1,Alto do Rodrigues/RN,-5.290868,-36.7616726,1895,12866.64856
D1,Alto do Rodrigues/RN,-5.290868,-36.7616726,33,224.06301
1,Altos/PI,-5.0393915,-42.4611694,4126,10161.31018
D1,Altos/PI,-5.0393915,-42.4611694,84,206.87107
1,Altônia/PR,-23.8722004,-53.894037,970,4374.09812
D1,Altônia/PR,-23.8722004,-53.894037,18,81.16883
1,Alumínio/SP,-23.5203479,-47.2575256,1281,6825.81126
D1,Alumínio/SP,-23.5203479,-47.2575256,39,207.81158
1,Alvarenga/MG,-19.4175,-41.728334,420,10926.11863
D1,Alvarenga/MG,-19.4175,-41.728334,4,104.05827
1,Alvarães/AM,-3.214786,-64.8143124,2803,17281.13440
D1,Alvarães/AM,-3.214786,-64.8143124,44,271.27004
1,Alvinlândia/SP,-22.4431852,-49.7643596,128,3954.27865
D1,Alvinlândia/SP,-22.4431852,-49.7643596,7,216.24961
1,Alvinópolis/MG,-20.1105199,-43.0601805,599,3948.84304
D1,Alvinópolis/MG,-20.1105199,-43.0601805,20,131.84785
1,Alvorada D'Oeste/RO,-11.346271,-62.284697,1011,7167.16291
D1,Alvorada D'Oeste/RO,-11.346271,-62.284697,25,177.22955
1,Alvorada de Minas/MG,-18.7318587,-43.3641479,240,6657.42025
D1,Alvorada de Minas/MG,-18.7318587,-43.3641479,1,27.73925
1,Alvorada do Gurguéia/PI,-8.4465288,-43.8655915,333,6115.70248
D1,Alvorada do Gurguéia/PI,-8.4465288,-43.8655915,9,165.28926
1,Alvorada do Norte/GO,-14.483911,-46.4959897,675,7754.16427
D1,Alvorada do Norte/GO,-14.483911,-46.4959897,4,45.95060
1,Alvorada do Sul/PR,-22.7807269,-51.2307721,685,5954.96827
D1,Alvorada do Sul/PR,-22.7807269,-51.2307721,23,199.94784
1,Alvorada/RS,-29.9981184,-51.0772509,19321,9141.62156
D1,Alvorada/RS,-29.9981184,-51.0772509,691,326.94273
1,Alvorada/TO,-12.478465,-49.124926,1059,12613.14912
D1,Alvorada/TO,-12.478465,-49.124926,20,238.20867
1,Além Paraíba/MG,-21.8760576,-42.6810473,2939,8302.02537
D1,Além Paraíba/MG,-21.8760576,-42.6810473,137,386.99472
1,Amajari/RR,3.6523869,-61.4194315,997,7561.62306
D1,Amajari/RR,3.6523869,-61.4194315,20,151.68752
1,Amambai/MS,-23.1082701,-55.2284854,2632,6608.74805
D1,Amambai/MS,-23.1082701,-55.2284854,60,150.65535
1,Amaporã/PR,-23.094272,-52.786597,278,4390.39798
D1,Amaporã/PR,-23.094272,-52.786597,5,78.96399
1,Amapá do Maranhão/MA,-1.6762114,-46.0109669,172,2455.38901
D1,Amapá do Maranhão/MA,-1.6762114,-46.0109669,4,57.10207
1,Amapá/AP,2.0529997,-50.7930003,1289,14030.69555
D1,Amapá/AP,2.0529997,-50.7930003,10,108.84946
1,Amaraji/PE,-8.373925,-35.4536527,488,2133.79974
D1,Amaraji/PE,-8.373925,-35.4536527,29,126.80367
1,Amaral Ferrador/RS,-30.8750633,-52.2542051,280,3952.01129
D1,Amaral Ferrador/RS,-30.8750633,-52.2542051,7,98.80028
1,Amaralina/GO,-13.9236199,-49.2962411,67,1742.52276
1,Amarante do Maranhão/MA,-5.56913,-46.747284,1573,3769.56074
D1,Amarante do Maranhão/MA,-5.56913,-46.747284,55,131.80282
1,Amarante/PI,-6.2459374,-42.8476238,1464,8316.29175
D1,Amarante/PI,-6.2459374,-42.8476238,32,181.77687
1,Amargosa/BA,-13.03793715,-39.60796443875596,2476,6613.07123
D1,Amargosa/BA,-13.03793715,-39.60796443875596,47,125.53084
1,Amaturá/AM,-3.3640509,-68.1994689,2352,20040.89980
D1,Amaturá/AM,-3.3640509,-68.1994689,17,144.85344
1,Americana/SP,-22.7392463,-47.3306032,18617,7692.40304
D1,Americana/SP,-22.7392463,-47.3306032,572,236.34606
1,Americano do Brasil/GO,-16.2515808,-49.9806104,515,8354.96431
D1,Americano do Brasil/GO,-16.2515808,-49.9806104,16,259.57171
1,Ametista do Sul/RS,-27.3617341,-53.1826575,637,8604.61975
D1,Ametista do Sul/RS,-27.3617341,-53.1826575,14,189.11252
1,Amontada/CE,-3.3634586,-39.8284791,2679,6112.39134
D1,Amontada/CE,-3.3634586,-39.8284791,51,116.36131
1,Amorinópolis/GO,-16.6211308,-51.0949921,189,6158.35777
D1,Amorinópolis/GO,-16.6211308,-51.0949921,3,97.75171
1,Amparo de São Francisco/SE,-10.1299754,-36.9269099,209,8781.51261
D1,Amparo de São Francisco/SE,-10.1299754,-36.9269099,3,126.05042
1,Amparo do Serra/MG,-20.5070255,-42.8028462,141,3014.10859
D1,Amparo do Serra/MG,-20.5070255,-42.8028462,7,149.63660
1,Amparo/PB,-7.56394725,-37.04652873235175,161,7152.37672
D1,Amparo/PB,-7.56394725,-37.04652873235175,4,177.69880
1,Amparo/SP,-22.70111,-46.76444,5368,7386.10565
D1,Amparo/SP,-22.70111,-46.76444,126,173.36984
1,Ampére/PR,-25.9168712,-53.4742414,1347,6975.29905
D1,Ampére/PR,-25.9168712,-53.4742414,29,150.17348
1,Amélia Rodrigues/BA,-12.4015388,-38.7516971,2001,7988.66177
D1,Amélia Rodrigues/BA,-12.4015388,-38.7516971,39,155.70105
1,América Dourada/BA,-11.4515262,-41.4357517,830,5158.48353
D1,América Dourada/BA,-11.4515262,-41.4357517,9,55.93536
1,Américo Brasiliense/SP,-21.7297099,-48.1052092,3433,8366.64067
D1,Américo Brasiliense/SP,-21.7297099,-48.1052092,82,199.84402
1,Américo de Campos/SP,-20.298476,-49.735904,746,12472.83063
D1,Américo de Campos/SP,-20.298476,-49.735904,23,384.55108
1,Anadia/AL,-9.6830208,-36.3052699,1197,6829.85279
D1,Anadia/AL,-9.6830208,-36.3052699,29,165.46845
1,Anagé/BA,-14.6134669,-41.1376308,836,3869.11649
D1,Anagé/BA,-14.6134669,-41.1376308,18,83.30634
1,Anahy/PR,-24.6450861,-53.1337957,333,11944.04591
D1,Anahy/PR,-24.6450861,-53.1337957,8,286.94405
1,Anajatuba/MA,-3.26441,-44.6179916,850,3149.54795
D1,Anajatuba/MA,-3.26441,-44.6179916,23,85.22306
1,Anajás/PA,-0.9878802,-49.9390114,1335,4496.76637
D1,Anajás/PA,-0.9878802,-49.9390114,22,74.10402
1,Analândia/SP,-22.128917,-47.661939,288,5696.20253
D1,Analândia/SP,-22.128917,-47.661939,4,79.11392
1,Anamã/AM,-3.5797356,-61.4049996,1741,12474.92118
D1,Anamã/AM,-3.5797356,-61.4049996,9,64.48839
1,Ananindeua/PA,-1.374035,-48.4016623,22560,4212.51543
D1,Ananindeua/PA,-1.374035,-48.4016623,787,146.95256
1,Ananás/TO,-6.3663053,-48.080238,1519,16002.94985
D1,Ananás/TO,-6.3663053,-48.080238,22,231.77413
1,Anapu/PA,-3.4668292,-51.2057035,1302,4551.33359
D1,Anapu/PA,-3.4668292,-51.2057035,36,125.84333
1,Anapurus/MA,-3.6751298,-43.1046001,829,5215.80471
D1,Anapurus/MA,-3.6751298,-43.1046001,12,75.50019
1,Anastácio/MS,-20.4832458,-55.8048448,2049,8119.03158
D1,Anastácio/MS,-20.4832458,-55.8048448,60,237.74617
1,Anaurilândia/MS,-22.185169,-52.719056,438,4825.91450
D1,Anaurilândia/MS,-22.185169,-52.719056,13,143.23491
1,Anchieta/ES,-20.8057672,-40.6454564,4547,15269.14940
D1,Anchieta/ES,-20.8057672,-40.6454564,83,278.71990
1,Anchieta/SC,-26.5350527,-53.3293938,571,10275.32841
D1,Anchieta/SC,-26.5350527,-53.3293938,8,143.96257
1,Andaraí/BA,-12.8059674,-41.3322919,739,5627.47487
D1,Andaraí/BA,-12.8059674,-41.3322919,6,45.68992
1,Andirá/PR,-23.0494761,-50.2310027,1830,9183.98073
D1,Andirá/PR,-23.0494761,-50.2310027,67,336.24410
1,Andorinha/BA,-10.3445708,-39.8334411,773,5329.93174
D1,Andorinha/BA,-10.3445708,-39.8334411,13,89.63663
1,Andradas/MG,-22.0680484,-46.5688976,3089,7462.07363
D1,Andradas/MG,-22.0680484,-46.5688976,88,212.58093
1,Andradina/SP,-20.896505,-51.3742765,5309,9281.14402
D1,Andradina/SP,-20.896505,-51.3742765,223,389.84651
1,Andrelândia/MG,-21.739722,-44.308889,206,1687.69458
D1,Andrelândia/MG,-21.739722,-44.308889,7,57.34884
1,André da Rocha/RS,-28.6309124,-51.5733328,101,7520.47655
1,Angatuba/SP,-23.4938938,-48.4110675,2361,9266.45473
D1,Angatuba/SP,-23.4938938,-48.4110675,57,223.71365
1,Angelim/PE,-8.8902038,-36.2872987,197,1754.85480
D1,Angelim/PE,-8.8902038,-36.2872987,6,53.44735
1,Angelina/SC,-27.5805287,-48.9838759,487,10267.76302
D1,Angelina/SC,-27.5805287,-48.9838759,1,21.08370
1,Angelândia/MG,-17.7253,-42.2728,94,1098.51583
D1,Angelândia/MG,-17.7253,-42.2728,1,11.68634
1,Angical do Piauí/PI,-6.0872666,-42.7366138,679,10010.31992
D1,Angical do Piauí/PI,-6.0872666,-42.7366138,10,147.42739
1,Angical/BA,-12.005623,-44.7000236,565,4053.66624
D1,Angical/BA,-12.005623,-44.7000236,11,78.92094
1,Angico/TO,-6.3893733,-47.8656722,226,6543.13839
D1,Angico/TO,-6.3893733,-47.8656722,3,86.85582
1,Angicos/RN,-5.6666344,-36.6009064,768,6561.29859
D1,Angicos/RN,-5.6666344,-36.6009064,20,170.86715
1,Angra dos Reis/RJ,-23.0063966,-44.316326,12966,6262.43697
D1,Angra dos Reis/RJ,-23.0063966,-44.316326,432,208.65130
1,Anguera/BA,-12.1509425,-39.2452469,388,3434.54014
D1,Anguera/BA,-12.1509425,-39.2452469,1,8.85191
1,Angélica/MS,-22.1588196,-53.7728504,1026,9385.29089
D1,Angélica/MS,-22.1588196,-53.7728504,16,146.35931
1,Anhanguera/GO,-18.3338749,-48.220363,88,7586.20690
D1,Anhanguera/GO,-18.3338749,-48.220363,6,517.24138
1,Anhembi/SP,-22.7891096,-48.1316776,223,3270.27423
D1,Anhembi/SP,-22.7891096,-48.1316776,5,73.32453
1,Anhumas/SP,-22.2956478,-51.3873401,198,4777.99228
D1,Anhumas/SP,-22.2956478,-51.3873401,4,96.52510
1,Anicuns/GO,-16.4606451,-49.9572265,2473,11250.62554
D1,Anicuns/GO,-16.4606451,-49.9572265,57,259.31486
1,Anita Garibaldi/SC,-27.6855032,-51.1293873,1116,16041.39715
D1,Anita Garibaldi/SC,-27.6855032,-51.1293873,9,129.36611
1,Anitápolis/SC,-27.9041185,-49.1287395,314,9727.38538
D1,Anitápolis/SC,-27.9041185,-49.1287395,4,123.91574
1,Anori/AM,-3.7435254,-61.6605203,1874,8725.61345
D1,Anori/AM,-3.7435254,-61.6605203,31,144.34046
1,Anta Gorda/RS,-28.9718745,-52.0069187,575,9646.03254
D1,Anta Gorda/RS,-28.9718745,-52.0069187,4,67.10284
1,Antas/BA,-10.4114649,-38.3308815,1165,5980.79984
D1,Antas/BA,-10.4114649,-38.3308815,8,41.06987
1,Antonina do Norte/CE,-6.7754187,-39.9879345,654,8864.19084
D1,Antonina do Norte/CE,-6.7754187,-39.9879345,23,311.73760
1,Antonina/PR,-25.4298854,-48.7125431,2307,12174.78495
D1,Antonina/PR,-25.4298854,-48.7125431,59,311.36208
1,Antônio Almeida/PI,-7.2186016,-44.1950248,405,12776.02524
D1,Antônio Almeida/PI,-7.2186016,-44.1950248,10,315.45741
1,Antônio Cardoso/BA,-12.4363122,-39.1200307,400,3425.53738
D1,Antônio Cardoso/BA,-12.4363122,-39.1200307,8,68.51075
1,Antônio Carlos/MG,-21.318334,-43.746666,579,5052.79693
D1,Antônio Carlos/MG,-21.318334,-43.746666,12,104.72118
1,Antônio Carlos/SC,-27.5168462,-48.7684715,1486,17252.98967
D1,Antônio Carlos/SC,-27.5168462,-48.7684715,22,255.42784
1,Antônio Dias/MG,-19.6525,-42.872778,547,5897.57412
D1,Antônio Dias/MG,-19.6525,-42.872778,22,237.19677
1,Antônio Gonçalves/BA,-10.5715409,-40.2748824,759,6389.96464
D1,Antônio Gonçalves/BA,-10.5715409,-40.2748824,8,67.35141
1,Antônio João/MS,-22.1892837,-55.9508227,411,4556.54102
D1,Antônio João/MS,-22.1892837,-55.9508227,10,110.86475
1,Antônio Martins/RN,-6.2155812,-37.8890129,606,8470.78557
D1,Antônio Martins/RN,-6.2155812,-37.8890129,6,83.86916
1,Antônio Olinto/PR,-25.9849006,-50.1974516,365,4914.50114
D1,Antônio Olinto/PR,-25.9849006,-50.1974516,8,107.71509
1,Antônio Prado de Minas/MG,-21.0171988,-42.1101106,157,9892.87965
D1,Antônio Prado de Minas/MG,-21.0171988,-42.1101106,5,315.05986
1,Antônio Prado/RS,-28.8567806,-51.2801355,2310,17707.93407
D1,Antônio Prado/RS,-28.8567806,-51.2801355,23,176.31276
1,Anápolis/GO,-16.3332828,-48.9525756,36503,9317.40911
D1,Anápolis/GO,-16.3332828,-48.9525756,1269,323.91289
1,Anísio de Abreu/PI,-9.185643,-43.04941,284,2857.71785
D1,Anísio de Abreu/PI,-9.185643,-43.04941,10,100.62387
1,Aparecida d'Oeste/SP,-20.4498109,-50.8808706,679,16329.96633
D1,Aparecida d'Oeste/SP,-20.4498109,-50.8808706,12,288.60029
1,Aparecida de Goiânia/GO,-16.8226769,-49.2452546,65350,11073.53096
D1,Aparecida de Goiânia/GO,-16.8226769,-49.2452546,1274,215.87878
1,Aparecida do Rio Doce/GO,-18.2980167,-51.1491312,188,7599.02991
D1,Aparecida do Rio Doce/GO,-18.2980167,-51.1491312,3,121.26112
1,Aparecida do Rio Negro/TO,-9.9513491,-47.9773786,325,6703.79538
D1,Aparecida do Rio Negro/TO,-9.9513491,-47.9773786,6,123.76238
1,Aparecida do Taboado/MS,-20.0840304,-51.1013943,3090,11853.15892
D1,Aparecida do Taboado/MS,-20.0840304,-51.1013943,46,176.45479
1,Aparecida/PB,-6.7859598, -38.0831353,792,9410.64639
D1,Aparecida/PB,-6.7859598, -38.0831353,13,154.46768
1,Aparecida/SP,-22.851552,-45.2340924,2163,5977.61503
D1,Aparecida/SP,-22.851552,-45.2340924,77,212.79536
1,Aperibé/RJ,-21.6211928,-42.1028167,539,4529.03117
D1,Aperibé/RJ,-21.6211928,-42.1028167,23,193.26107
1,Apiacá/ES,-21.152272,-41.569297,748,9902.03866
D1,Apiacá/ES,-21.152272,-41.569297,31,410.37861
1,Apiacás/MT,-9.5678422,-57.394852,1590,15462.41369
D1,Apiacás/MT,-9.5678422,-57.394852,15,145.87183
1,Apiaí/SP,-24.5076527,-48.8461582,1178,4862.54437
D1,Apiaí/SP,-24.5076527,-48.8461582,66,272.43457
1,Apicum-Açu/MA,-1.5279295,-45.082278,492,2825.47522
D1,Apicum-Açu/MA,-1.5279295,-45.082278,5,28.71418
1,Apiúna/SC,-27.0374658,-49.3885037,777,7162.61062
D1,Apiúna/SC,-27.0374658,-49.3885037,15,138.27434
1,Apodi/RN,-5.6631109,-37.796927,5578,15548.86547
D1,Apodi/RN,-5.6631109,-37.796927,89,248.09054
1,Aporá/BA,-11.6599747,-38.0794757,482,2709.69193
D1,Aporá/BA,-11.6599747,-38.0794757,18,101.19181
1,Aporé/GO,-18.9642193,-51.92804,357,8435.72779
D1,Aporé/GO,-18.9642193,-51.92804,9,212.66541
1,Apuarema/BA,-13.8517897,-39.7457126,656,8983.84004
D1,Apuarema/BA,-13.8517897,-39.7457126,9,123.25390
1,Apucarana/PR,-23.5525327,-51.4610764,7964,5845.82410
D1,Apucarana/PR,-23.5525327,-51.4610764,285,209.19888
1,Apuiarés/CE,-3.9460303,-39.4313298,1010,6883.86041
D1,Apuiarés/CE,-3.9460303,-39.4313298,23,156.76118
1,Apuí/AM,-7.1940195,-59.8830192,1327,5934.97026
D1,Apuí/AM,-7.1940195,-59.8830192,29,129.70169
1,Aquidabã/SE,-10.2837579,-37.0188687,2050,9455.28343
D1,Aquidabã/SE,-10.2837579,-37.0188687,34,156.81933
1,Aquidauana/MS,-20.473969,-55.7821375,4524,9419.30917
D1,Aquidauana/MS,-20.473969,-55.7821375,126,262.34150
1,Aquiraz/CE,-3.9063117,-38.387504,6053,7478.84105
D1,Aquiraz/CE,-3.9063117,-38.387504,81,100.08031
1,Arabutã/SC,-27.1587028,-52.1438142,390,9139.91094
D1,Arabutã/SC,-27.1587028,-52.1438142,7,164.04968
1,Aracaju/SE,-10.9162061,-37.0774655,112099,16859.32490
D1,Aracaju/SE,-10.9162061,-37.0774655,2101,315.98356
1,Aracati/CE,-4.558259,-37.767894,6684,8914.97166
D1,Aracati/CE,-4.558259,-37.767894,136,181.39380
1,Aracatu/BA,-14.4274236,-41.4604105,788,6040.62859
D1,Aracatu/BA,-14.4274236,-41.4604105,14,107.32081
1,Araci/BA,-11.3356065,-38.9573261,3317,6069.75553
D1,Araci/BA,-11.3356065,-38.9573261,43,78.68540
1,Aracitaba/MG,-21.3425,-43.378611,77,3739.67946
D1,Aracitaba/MG,-21.3425,-43.378611,8,388.53813
1,Aracoiaba/CE,-4.3702577,-38.8084313,3596,13551.91257
D1,Aracoiaba/CE,-4.3702577,-38.8084313,28,105.52101
1,Aracruz/ES,-19.8245218,-40.2735025,14776,14331.57777
D1,Aracruz/ES,-19.8245218,-40.2735025,211,204.65369
1,Aragarças/GO,-15.8957166,-52.2514538,2134,10526.31579
D1,Aragarças/GO,-15.8957166,-52.2514538,51,251.56612
1,Aragoiânia/GO,-16.9146388,-49.4499148,974,9279.72561
D1,Aragoiânia/GO,-16.9146388,-49.4499148,18,171.49390
1,Aragominas/TO,-7.1654101,-48.525488,502,8759.37882
D1,Aragominas/TO,-7.1654101,-48.525488,9,157.04066
1,Araguacema/TO,-8.8067391,-49.5560969,576,8050.31447
D1,Araguacema/TO,-8.8067391,-49.5560969,11,153.73864
1,Araguaiana/MT,-15.729144,-51.834112,206,6625.92473
D1,Araguaiana/MT,-15.729144,-51.834112,5,160.82342
1,Araguainha/MT,-16.857016,-53.031778,25,2642.70613
1,Araguanã/MA,-2.9508403,-45.6651986,778,5002.89370
D1,Araguanã/MA,-2.9508403,-45.6651986,5,32.15227
1,Araguanã/TO,-6.5799107,-48.6428482,503,8682.89315
D1,Araguanã/TO,-6.5799107,-48.6428482,13,224.40877
1,Araguapaz/GO,-15.0937927,-50.626417,502,6449.95503
D1,Araguapaz/GO,-15.0937927,-50.626417,19,244.12180
1,Araguari/MG,-18.6511256,-48.1933764,13794,11707.19287
D1,Araguari/MG,-18.6511256,-48.1933764,367,311.47889
1,Araguatins/TO,-5.6522925,-48.1158973,2187,6046.44733
D1,Araguatins/TO,-5.6522925,-48.1158973,54,149.29500
1,Araguaçu/TO,-12.928934,-49.823134,795,9389.39412
D1,Araguaçu/TO,-12.928934,-49.823134,18,212.59006
1,Araguaína/TO,-7.193241,-48.2018597,30969,16887.79099
D1,Araguaína/TO,-7.193241,-48.2018597,407,221.94230
1,Araioses/MA,-2.890914,-41.904993,650,1389.75006
D1,Araioses/MA,-2.890914,-41.904993,13,27.79500
1,Aral Moreira/MS,-22.951141,-55.6268421,463,3754.45994
D1,Aral Moreira/MS,-22.951141,-55.6268421,9,72.98086
1,Aramari/BA,-12.0907897,-38.4985065,557,4859.95986
D1,Aramari/BA,-12.0907897,-38.4985065,12,104.70291
1,Arambaré/RS,-30.9132252,-51.4994625,174,4884.89613
D1,Arambaré/RS,-30.9132252,-51.4994625,7,196.51881
1,Arame/MA,-4.8858769,-46.0102484,1233,3763.27677
D1,Arame/MA,-4.8858769,-46.0102484,36,109.87669
1,Aramina/SP,-20.0876144,-47.789201,275,4862.95314
D1,Aramina/SP,-20.0876144,-47.789201,10,176.83466
1,Arandu/SP,-23.1345103,-49.0545651,407,6394.34407
D1,Arandu/SP,-23.1345103,-49.0545651,11,172.82011
1,Arantina/MG,-21.911667,-44.255833,156,5597.41658
D1,Arantina/MG,-21.911667,-44.255833,3,107.64263
1,Arapeí/SP,-22.6738889,-44.4477778,190,7723.57724
D1,Arapeí/SP,-22.6738889,-44.4477778,3,121.95122
1,Arapiraca/AL,-9.754866,-36.661471,24590,10551.51965
D1,Arapiraca/AL,-9.754866,-36.661471,400,171.63920
1,Arapoema/TO,-7.6575001,-49.0641484,450,6801.69287
D1,Arapoema/TO,-7.6575001,-49.0641484,9,136.03386
1,Araponga/MG,-20.666667,-42.520556,383,4530.93576
D1,Araponga/MG,-20.666667,-42.520556,6,70.98072
1,Arapongas/PR,-23.415296,-51.42592,11076,8874.28892
D1,Arapongas/PR,-23.415296,-51.42592,427,342.12002
1,Araporã/MG,-18.4318188,-49.188313,1724,24873.75559
D1,Araporã/MG,-18.4318188,-49.188313,26,375.12624
1,Arapoti/PR,-24.1457957,-49.8224605,2563,9056.53710
D1,Arapoti/PR,-24.1457957,-49.8224605,48,169.61131
1,Araputanga/MT,-15.4710868,-58.346796,1833,10813.52133
D1,Araputanga/MT,-15.4710868,-58.346796,50,294.96785
1,Arapuá/MG,-19.034444,-46.155556,222,7830.68783
D1,Arapuá/MG,-19.034444,-46.155556,2,70.54674
1,Arapuã/PR,-24.3079525,-51.7901941,189,6281.15653
D1,Arapuã/PR,-24.3079525,-51.7901941,5,166.16816
1,Araquari/SC,-26.3703324,-48.7210994,3371,8528.99504
D1,Araquari/SC,-26.3703324,-48.7210994,70,177.10758
1,Arara/PB,-6.8271895,-35.7605703,894,6601.68365
D1,Arara/PB,-6.8271895,-35.7605703,21,155.07311
1,Araranguá/SC,-28.9348832,-49.4858389,9447,13717.74580
D1,Araranguá/SC,-28.9348832,-49.4858389,220,319.45634
1,Araraquara/SP,-21.7886713,-48.1773096,18470,7749.46610
D1,Araraquara/SP,-21.7886713,-48.1773096,409,171.60431
1,Araras/SP,-22.3569477,-47.3838889,14454,10666.68635
D1,Araras/SP,-22.3569477,-47.3838889,324,239.10380
1,Ararendá/CE,-4.7504395,-40.8303611,1038,9471.66712
D1,Ararendá/CE,-4.7504395,-40.8303611,17,155.12364
1,Arari/MA,-3.4547602,-44.7772723,681,2275.15702
D1,Arari/MA,-3.4547602,-44.7772723,30,100.22718
1,Araricá/RS,-29.6168543,-50.929121,970,16808.17883
D1,Araricá/RS,-29.6168543,-50.929121,24,415.87247
1,Araripe/CE,-7.212861,-40.1359222,1048,4839.75247
D1,Araripe/CE,-7.212861,-40.1359222,13,60.03510
1,Araripina/PE,-7.5768582,-40.5038509,6152,7249.24585
D1,Araripina/PE,-7.5768582,-40.5038509,129,152.00792
1,Araruama/RJ,-22.8733203,-42.3428897,5468,4071.69398
D1,Araruama/RJ,-22.8733203,-42.3428897,330,245.73135
1,Araruna/PB,-6.5321155,-35.7397595,606,2961.44260
D1,Araruna/PB,-6.5321155,-35.7397595,16,78.18990
1,Araruna/PR,-23.9320308,-52.4976047,1399,9992.85714
D1,Araruna/PR,-23.9320308,-52.4976047,20,142.85714
1,Arataca/BA,-15.2617424,-39.4122943,646,5893.62284
D1,Arataca/BA,-15.2617424,-39.4122943,15,136.84883
1,Aratiba/RS,-27.3955734,-52.3024325,360,5816.77169
D1,Aratiba/RS,-27.3955734,-52.3024325,6,96.94619
1,Aratuba/CE,-4.4195958,-39.0463737,1240,10506.69378
D1,Aratuba/CE,-4.4195958,-39.0463737,8,67.78512
1,Aratuípe/BA,-13.077137,-39.0010786,356,4028.51646
D1,Aratuípe/BA,-13.077137,-39.0010786,9,101.84452
1,Araucária/PR,-25.5861107,-49.4051209,22095,15111.41204
D1,Araucária/PR,-25.5861107,-49.4051209,341,233.21980
1,Arauá/SE,-11.2644014,-37.6181058,1109,11149.09018
D1,Arauá/SE,-11.2644014,-37.6181058,19,191.01237
1,Araxá/MG,-19.5928536,-46.940241,11397,10617.96026
D1,Araxá/MG,-19.5928536,-46.940241,169,157.44804
1,Araçagi/PB,-6.8519969,-35.3835602,1128,6666.27268
D1,Araçagi/PB,-6.8519969,-35.3835602,14,82.73743
1,Araçariguama/SP,-23.438611,-47.061389,1459,6382.32721
D1,Araçariguama/SP,-23.438611,-47.061389,48,209.97375
1,Araçatuba/SP,-21.207992,-50.4390225,23465,11843.29402
D1,Araçatuba/SP,-21.207992,-50.4390225,695,350.78156
1,Araçaí/MG,-19.200833,-44.2475,70,2973.66185
1,Araçoiaba da Serra/SP,-23.5045367,-47.6168158,2256,6487.23257
D1,Araçoiaba da Serra/SP,-23.5045367,-47.6168158,51,146.65286
1,Araçoiaba/PE,-7.7856903,-35.0898881,580,2797.47263
D1,Araçoiaba/PE,-7.7856903,-35.0898881,28,135.05040
1,Araçu/GO,-16.3561579,-49.6815269,392,11244.97992
D1,Araçu/GO,-16.3561579,-49.6815269,15,430.29260
1,Araçuaí/MG,-16.8484451,-42.0661868,1418,3862.49728
D1,Araçuaí/MG,-16.8484451,-42.0661868,32,87.16496
1,Araçás/BA,-12.2139176,-38.2026159,587,4808.32241
D1,Araçás/BA,-12.2139176,-38.2026159,7,57.33945
1,Araújos/MG,-19.948055,-45.165556,656,6977.98107
D1,Araújos/MG,-19.948055,-45.165556,9,95.73450
1,Arceburgo/MG,-21.364444,-46.939722,929,8536.24920
D1,Arceburgo/MG,-21.364444,-46.939722,24,220.52743
1,Arco-Íris/SP,-21.7741308,-50.4668814,114,6429.78003
D1,Arco-Íris/SP,-21.7741308,-50.4668814,6,338.40948
1,Arcos/MG,-20.282223,-45.539444,4568,11312.53096
D1,Arcos/MG,-20.282223,-45.539444,106,262.50619
1,Arcoverde/PE,-8.415192,-37.057748,5259,7028.68140
D1,Arcoverde/PE,-8.415192,-37.057748,111,148.35209
1,Areado/MG,-21.3582771,-46.1476688,686,4518.80640
D1,Areado/MG,-21.3582771,-46.1476688,17,111.98208
1,Areal/RJ,-22.2314922,-43.1056264,1081,8532.63872
D1,Areal/RJ,-22.2314922,-43.1056264,40,315.73131
1,Arealva/SP,-22.0301906,-48.9111936,740,8591.66376
D1,Arealva/SP,-22.0301906,-48.9111936,10,116.10356
1,Areia Branca/RN,-4.9506652,-37.1263312,2257,8070.22562
D1,Areia Branca/RN,-4.9506652,-37.1263312,88,314.65656
1,Areia Branca/SE,-10.7591455,-37.3148072,1748,9354.59702
D1,Areia Branca/SE,-10.7591455,-37.3148072,42,224.76721
1,Areia de Baraúnas/PB,-7.1233949,-36.9446216,131,6190.92628
D1,Areia de Baraúnas/PB,-7.1233949,-36.9446216,3,141.77694
1,Areia/PB,-6.9680243,-35.6994783,1152,5084.74576
D1,Areia/PB,-6.9680243,-35.6994783,22,97.10452
1,Areial/PB,-7.0501306,-35.9245244,288,4098.47730
D1,Areial/PB,-7.0501306,-35.9245244,8,113.84659
1,Areias/SP,-22.5800929,-44.6975127,257,6596.50924
D1,Areias/SP,-22.5800929,-44.6975127,1,25.66735
1,Areiópolis/SP,-22.6758064,-48.6673653,1094,9804.62448
D1,Areiópolis/SP,-22.6758064,-48.6673653,14,125.47051
1,Arenápolis/MT,-14.4610369,-56.8432806,1504,15828.24668
D1,Arenápolis/MT,-14.4610369,-56.8432806,25,263.10250
1,Arenópolis/GO,-16.3859286,-51.55937,175,6900.63091
D1,Arenópolis/GO,-16.3859286,-51.55937,8,315.45741
1,Argirita/MG,-21.612761,-42.8371922,249,9208.57988
D1,Argirita/MG,-21.612761,-42.8371922,5,184.91124
1,Aricanduva/MG,-17.8678,-42.5569,83,1575.25147
1,Arinos/MG,-15.917223,-46.106111,583,3263.91222
D1,Arinos/MG,-15.917223,-46.106111,14,78.37868
1,Aripuanã/MT,-10.175806,-59.4439663,2426,10680.63749
D1,Aripuanã/MT,-10.175806,-59.4439663,41,180.50542
1,Ariquemes/RO,-9.9076522,-63.033069,20185,18429.91883
D1,Ariquemes/RO,-9.9076522,-63.033069,441,402.65515
1,Ariranha do Ivaí/PR,-24.3834527,-51.5876772,153,7405.61471
D1,Ariranha do Ivaí/PR,-24.3834527,-51.5876772,2,96.80542
1,Ariranha/SP,-21.18716,-48.790418,458,4692.14220
D1,Ariranha/SP,-21.18716,-48.790418,17,174.16248
1,Armazém/SC,-28.2624996,-49.0190126,1357,15492.63615
D1,Armazém/SC,-28.2624996,-49.0190126,29,331.08802
1,Armação dos Búzios/RJ,-22.7597805,-41.8875267,4185,12138.52713
D1,Armação dos Búzios/RJ,-22.7597805,-41.8875267,52,150.82519
1,Arneiroz/CE,-6.3235099,-40.1603859,565,7202.95767
D1,Arneiroz/CE,-6.3235099,-40.1603859,16,203.97756
1,Aroazes/PI,-6.1108814,-41.7886137,560,9610.43419
D1,Aroazes/PI,-6.1108814,-41.7886137,12,205.93788
1,Aroeiras do Itaim/PI,-7.2797031,-41.5629681,110,4312.03450
D1,Aroeiras do Itaim/PI,-7.2797031,-41.5629681,2,78.40063
1,Aroeiras/PB,-7.5462904,-35.7080002,1180,6172.83951
D1,Aroeiras/PB,-7.5462904,-35.7080002,8,41.84976
1,Arraial do Cabo/RJ,-22.9662839,-42.024427,674,2203.11836
D1,Arraial do Cabo/RJ,-22.9662839,-42.024427,33,107.86781
1,Arraial/PI,-6.6541632,-42.5335332,152,3220.33898
D1,Arraial/PI,-6.6541632,-42.5335332,3,63.55932
1,Arraias/TO,-12.9287788,-46.9437231,595,5648.37669
D1,Arraias/TO,-12.9287788,-46.9437231,7,66.45149
1,Arroio Grande/RS,-32.2384246,-53.0866661,1720,9430.85865
D1,Arroio Grande/RS,-32.2384246,-53.0866661,50,274.15287
1,Arroio Trinta/SC,-26.9301976,-51.334928,552,15553.67709
D1,Arroio Trinta/SC,-26.9301976,-51.334928,12,338.12342
1,Arroio do Meio/RS,-29.4020392,-51.9444993,2889,13778.79525
D1,Arroio do Meio/RS,-29.4020392,-51.9444993,41,195.54538
1,Arroio do Padre/RS,-31.4428773,-52.4228985,171,5794.64588
D1,Arroio do Padre/RS,-31.4428773,-52.4228985,3,101.66045
1,Arroio do Sal/RS,-29.549852,-49.8874395,1018,9903.68713
D1,Arroio do Sal/RS,-29.549852,-49.8874395,33,321.04290
1,Arroio do Tigre/RS,-29.334158,-53.0888935,1033,7701.48364
D1,Arroio do Tigre/RS,-29.334158,-53.0888935,19,141.65362
1,Arroio dos Ratos/RS,-30.0894524,-51.7265541,872,6150.80765
D1,Arroio dos Ratos/RS,-30.0894524,-51.7265541,31,218.66403
1,Artur Nogueira/SP,-22.572737,-47.172679,3805,6875.67763
D1,Artur Nogueira/SP,-22.572737,-47.172679,108,195.15721
1,Aruanã/GO,-14.9162439,-51.0715692,501,4955.48961
D1,Aruanã/GO,-14.9162439,-51.0715692,12,118.69436
1,Arujá/SP,-23.396266,-46.3175449,6740,7393.83701
D1,Arujá/SP,-23.396266,-46.3175449,258,283.02818
1,Arvoredo/SC,-27.0752908,-52.4571847,288,12891.67413
D1,Arvoredo/SC,-27.0752908,-52.4571847,4,179.05103
1,Arvorezinha/RS,-28.87369,-52.17808,769,7377.91423
D1,Arvorezinha/RS,-28.87369,-52.17808,24,230.26000
1,Arês/RN,-6.1969216,-35.1642968,933,6471.52667
D1,Arês/RN,-6.1969216,-35.1642968,21,145.66137
1,Ascurra/SC,-26.9569975,-49.3767752,1088,13637.50313
D1,Ascurra/SC,-26.9569975,-49.3767752,9,112.81023
1,Aspásia/SP,-20.160028,-50.728046,113,6215.62156
D1,Aspásia/SP,-20.160028,-50.728046,4,220.02200
1,Assaré/CE,-6.8746791,-39.8741385,1764,7513.41682
D1,Assaré/CE,-6.8746791,-39.8741385,33,140.55712
1,Assaí/PR,-23.3736041,-50.8454929,1233,8245.28554
D1,Assaí/PR,-23.3736041,-50.8454929,39,260.79979
1,Assis Brasil/AC,-10.9409203,-69.5672108,1645,21834.35094
D1,Assis Brasil/AC,-10.9409203,-69.5672108,24,318.55588
1,Assis Chateaubriand/PR,-24.4054826,-53.5120468,3724,11169.76605
D1,Assis Chateaubriand/PR,-24.4054826,-53.5120468,82,245.95081
1,Assis/SP,-22.6620892,-50.420623,9208,8762.26365
D1,Assis/SP,-22.6620892,-50.420623,308,293.09049
1,Assunção do Piauí/PI,-5.8610212,-41.0485091,307,3904.36220
D1,Assunção do Piauí/PI,-5.8610212,-41.0485091,7,89.02455
1,Assunção/PB,-7.073396,-36.7274003,354,8786.29933
D1,Assunção/PB,-7.073396,-36.7274003,4,99.28022
1,Astolfo Dutra/MG,-21.3132636,-42.8624102,1274,8927.82060
D1,Astolfo Dutra/MG,-21.3132636,-42.8624102,20,140.15417
1,Astorga/PR,-23.2350184,-51.6647074,2691,10267.46537
D1,Astorga/PR,-23.2350184,-51.6647074,63,240.37544
1,Atalaia do Norte/AM,-4.3658547,-70.1908742,2753,13496.42122
D1,Atalaia do Norte/AM,-4.3658547,-70.1908742,8,39.21953
1,Atalaia/AL,-9.5029595,-36.0219316,1102,2326.61248
D1,Atalaia/AL,-9.5029595,-36.0219316,45,95.00686
1,Atalaia/PR,-23.1513833,-52.0529697,356,9172.89358
D1,Atalaia/PR,-23.1513833,-52.0529697,16,412.26488
1,Atalanta/SC,-27.421916,-49.778863,384,12018.77934
D1,Atalanta/SC,-27.421916,-49.778863,11,344.28795
1,Ataléia/MG,-18.04432,-41.1110524,1057,8337.27717
D1,Ataléia/MG,-18.04432,-41.1110524,8,63.10144
1,Atibaia/SP,-23.1177393,-46.5547861,9706,6736.16123
D1,Atibaia/SP,-23.1177393,-46.5547861,225,156.15457
1,Atilio Vivacqua/ES,-20.9139369,-41.1947519,1418,11714.16770
D1,Atilio Vivacqua/ES,-20.9139369,-41.1947519,27,223.04833
1,Augustinópolis/TO,-5.4662267,-47.8897519,1417,7600.70804
D1,Augustinópolis/TO,-5.4662267,-47.8897519,27,144.82648
1,Augusto Corrêa/PA,-1.0229335,-46.6404029,1964,4226.29167
D1,Augusto Corrêa/PA,-1.0229335,-46.6404029,43,92.53083
1,Augusto Pestana/RS,-28.5148413,-53.9906433,670,10148.43987
D1,Augusto Pestana/RS,-28.5148413,-53.9906433,10,151.46925
1,Augusto de Lima/MG,-18.1092963,-44.2651945,238,4906.20491
D1,Augusto de Lima/MG,-18.1092963,-44.2651945,8,164.91445
1,Aurelino Leal/BA,-14.3167137,-39.3256107,893,7903.35428
D1,Aurelino Leal/BA,-14.3167137,-39.3256107,25,221.25852
1,Auriflama/SP,-20.6840418,-50.5554616,1743,11427.26021
D1,Auriflama/SP,-20.6840418,-50.5554616,64,419.58959
1,Aurilândia/GO,-16.6772599,-50.4641231,175,5722.69457
D1,Aurilândia/GO,-16.6772599,-50.4641231,7,228.90778
1,Aurora do Pará/PA,-2.1323199,-47.558436,1451,4566.77053
D1,Aurora do Pará/PA,-2.1323199,-47.558436,14,44.06257
1,Aurora do Tocantins/TO,-12.71045,-46.407604,178,4705.26038
D1,Aurora do Tocantins/TO,-12.71045,-46.407604,3,79.30214
1,Aurora/CE,-6.9426019,-38.9693765,1484,6030.06908
D1,Aurora/CE,-6.9426019,-38.9693765,33,134.09183
1,Aurora/SC,-27.3166417,-49.6368502,730,12845.32817
D1,Aurora/SC,-27.3166417,-49.6368502,14,246.34876
1,Autazes/AM,-3.5833283,-59.1301518,2841,7051.37751
D1,Autazes/AM,-3.5833283,-59.1301518,94,233.30851
1,Avanhandava/SP,-21.4603331,-49.9465156,706,5094.16264
D1,Avanhandava/SP,-21.4603331,-49.9465156,26,187.60372
1,Avaré/SP,-23.1045215,-48.9259103,8235,9026.43809
D1,Avaré/SP,-23.1045215,-48.9259103,176,192.91477
1,Avaí/SP,-22.1564662,-49.3316395,308,5665.93083
D1,Avaí/SP,-22.1564662,-49.3316395,9,165.56291
1,Aveiro/PA,-3.6049239,-55.3310742,628,3828.33455
D1,Aveiro/PA,-3.6049239,-55.3310742,10,60.96074
1,Avelino Lopes/PI,-10.1346855,-43.9489525,358,3160.86880
D1,Avelino Lopes/PI,-10.1346855,-43.9489525,19,167.75561
1,Avelinópolis/GO,-16.4672409,-49.7578661,265,11000.41511
D1,Avelinópolis/GO,-16.4672409,-49.7578661,11,456.62100
1,Axixá do Tocantins/TO,-5.612747,-47.77007,1012,10340.24727
D1,Axixá do Tocantins/TO,-5.612747,-47.77007,17,173.69981
1,Axixá/MA,-2.8379465,-44.0561053,191,1567.75835
D1,Axixá/MA,-2.8379465,-44.0561053,6,49.24895
1,Açailândia/MA,-4.9514278,-47.4844564,5024,4441.26201
D1,Açailândia/MA,-4.9514278,-47.4844564,184,162.65769
1,Açu/RN,-5.5836157,-36.9139541,5628,9639.62730
D1,Açu/RN,-5.5836157,-36.9139541,130,222.66374
1,Açucena/MG,-19.073056,-42.546666,723,7717.76260
D1,Açucena/MG,-19.073056,-42.546666,28,298.88984
1,Babaçulândia/TO,-7.2034355,-47.761613,660,6187.88674
D1,Babaçulândia/TO,-7.2034355,-47.761613,5,46.87793
1,Bacabal/MA,-4.2318132,-44.781167,4724,4508.06375
D1,Bacabal/MA,-4.2318132,-44.781167,168,160.32064
1,Bacabeira/MA,-2.9775747,-44.3155943,320,1854.85741
D1,Bacabeira/MA,-2.9775747,-44.3155943,6,34.77858
1,Bacuri/MA,-1.728894,-45.1417148,472,2530.28841
D1,Bacuri/MA,-1.728894,-45.1417148,4,21.44312
1,Bacurituba/MA,-2.7082587,-44.7381309,117,2063.49206
D1,Bacurituba/MA,-2.7082587,-44.7381309,1,17.63668
1,Bady Bassitt/SP,-20.9178969,-49.4517911,2833,15950.67845
D1,Bady Bassitt/SP,-20.9178969,-49.4517911,66,371.60070
1,Baependi/MG,-21.959162,-44.8899249,1325,6901.40111
D1,Baependi/MG,-21.959162,-44.8899249,12,62.50326
1,Bagre/PA,-1.8994498,-50.2103844,885,2825.21947
D1,Bagre/PA,-1.8994498,-50.2103844,11,35.11572
1,Bagé/RS,-31.3314264,-54.1062808,8730,7194.95611
D1,Bagé/RS,-31.3314264,-54.1062808,240,197.79948
1,Baianópolis/BA,-12.3067564,-44.5383591,755,5420.34604
D1,Baianópolis/BA,-12.3067564,-44.5383591,9,64.61340
1,Baixa Grande do Ribeiro/PI,-7.862861,-45.2113289,2204,18884.41436
D1,Baixa Grande do Ribeiro/PI,-7.862861,-45.2113289,26,222.77440
1,Baixa Grande/BA,-11.9630941,-40.1657537,652,3188.41997
D1,Baixa Grande/BA,-11.9630941,-40.1657537,11,53.79236
1,Baixio/CE,-6.7303544,-38.7170095,438,6949.07187
D1,Baixio/CE,-6.7303544,-38.7170095,10,158.65461
1,Baixo Guandu/ES,-19.5138322,-41.0182089,3283,10545.41950
D1,Baixo Guandu/ES,-19.5138322,-41.0182089,70,224.84903
1,Baião/PA,-2.7903479,-49.6702845,728,1502.30091
D1,Baião/PA,-2.7903479,-49.6702845,31,63.97160
1,Balbinos/SP,-21.9006253,-49.3583966,328,5527.46882
D1,Balbinos/SP,-21.9006253,-49.3583966,4,67.40816
1,Baldim/MG,-19.2913568,-43.9558262,580,7433.03857
D1,Baldim/MG,-19.2913568,-43.9558262,16,205.04934
1,Baliza/GO,-16.1978119,-52.542789,250,4734.84848
D1,Baliza/GO,-16.1978119,-52.542789,6,113.63636
1,Balneário Arroio do Silva/SC,-28.9815269,-49.4189932,1912,14236.78332
D1,Balneário Arroio do Silva/SC,-28.9815269,-49.4189932,48,357.40879
1,Balneário Barra do Sul/SC,-26.459842,-48.6061471,1344,12179.42909
D1,Balneário Barra do Sul/SC,-26.459842,-48.6061471,35,317.17263
1,Balneário Camboriú/SC,-26.9924395,-48.6339782,23217,15924.30519
D1,Balneário Camboriú/SC,-26.9924395,-48.6339782,349,239.37557
1,Balneário Gaivota/SC,-29.1553098,-49.5808712,1173,10417.40675
D1,Balneário Gaivota/SC,-29.1553098,-49.5808712,31,275.31083
1,Balneário Pinhal/RS,-30.2482978,-50.234585,667,4643.87663
D1,Balneário Pinhal/RS,-30.2482978,-50.234585,40,278.49335
1,Balneário Piçarras/SC,-26.7638889,-48.6716667,4348,18290.42571
D1,Balneário Piçarras/SC,-26.7638889,-48.6716667,45,189.29833
1,Balneário Rincão/SC,-28.8235718,-49.2241642,1274,9840.87749
D1,Balneário Rincão/SC,-28.8235718,-49.2241642,39,301.25135
1,Balsa Nova/PR,-25.5842234,-49.6312741,1360,10388.02322
D1,Balsa Nova/PR,-25.5842234,-49.6312741,26,198.59456
1,Balsas/MA,-7.53214,-46.037163,9184,9573.74725
D1,Balsas/MA,-7.53214,-46.037163,169,176.17196
1,Bambuí/MG,-20.0131996,-45.9777034,1401,5862.41526
D1,Bambuí/MG,-20.0131996,-45.9777034,21,87.87346
1,Banabuiú/CE,-5.3046404,-38.919766,1688,9246.27520
D1,Banabuiú/CE,-5.3046404,-38.919766,19,104.07537
1,Bananal/SP,-22.6828195,-44.3221095,910,8277.99509
D1,Bananal/SP,-22.6828195,-44.3221095,3,27.29009
1,Bananeiras/PB,-6.7537682,-35.6338343,1133,5327.00174
D1,Bananeiras/PB,-6.7537682,-35.6338343,21,98.73525
1,Bandeira do Sul/MG,-21.728056,-46.385555,339,5867.08204
D1,Bandeira do Sul/MG,-21.728056,-46.385555,10,173.07027
1,Bandeira/MG,-15.884444,-40.559167,453,9504.82585
D1,Bandeira/MG,-15.884444,-40.559167,9,188.83760
1,Bandeirante/SC,-26.7677402,-53.6397596,253,9554.38066
D1,Bandeirante/SC,-26.7677402,-53.6397596,2,75.52870
1,Bandeirantes do Tocantins/TO,-7.7635698,-48.579148,430,11971.04677
D1,Bandeirantes do Tocantins/TO,-7.7635698,-48.579148,6,167.03786
1,Bandeirantes/MS,-19.9179623,-54.3646768,495,6812.55161
D1,Bandeirantes/MS,-19.9179623,-54.3646768,10,137.62731
1,Bandeirantes/PR,-23.107788,-50.370407,3956,12675.01842
D1,Bandeirantes/PR,-23.107788,-50.370407,107,342.82785
1,Bannach/PA,-7.3508505,-50.4064531,640,19619.86511
D1,Bannach/PA,-7.3508505,-50.4064531,3,91.96812
1,Banzaê/BA,-10.5827616,-38.6122305,973,7348.94260
D1,Banzaê/BA,-10.5827616,-38.6122305,7,52.87009
1,Baraúna/PB,-6.643394,-36.2531932,487,9810.63658
D1,Baraúna/PB,-6.643394,-36.2531932,8,161.16035
1,Baraúna/RN,-5.0775002,-37.61752,1010,3513.41009
D1,Baraúna/RN,-5.0775002,-37.61752,22,76.52972
1,Barbacena/MG,-21.2254524,-43.7735087,7029,5085.95989
D1,Barbacena/MG,-21.2254524,-43.7735087,229,165.69709
1,Barbalha/CE,-7.3121067,-39.3036427,5763,9412.36036
D1,Barbalha/CE,-7.3121067,-39.3036427,126,205.78820
1,Barbosa Ferraz/PR,-24.0287182,-52.00811,1014,8874.49676
D1,Barbosa Ferraz/PR,-24.0287182,-52.00811,30,262.55908
1,Barbosa/SP,-21.265661,-49.951816,398,5329.40546
D1,Barbosa/SP,-21.265661,-49.951816,11,147.29513
1,Barcarena/PA,-1.5107945,-48.6190679,10671,8400.57626
D1,Barcarena/PA,-1.5107945,-48.6190679,210,165.31918
1,Barcelona/RN,-5.9514918,-35.9260284,90,2253.38007
D1,Barcelona/RN,-5.9514918,-35.9260284,4,100.15023
1,Barcelos/AM,-0.9729214,-62.925635,4234,15319.48766
D1,Barcelos/AM,-0.9729214,-62.925635,58,209.85600
1,Bariri/SP,-22.0746355,-48.7394852,2437,6853.59132
D1,Bariri/SP,-22.0746355,-48.7394852,98,275.60605
1,Barra Bonita/SC,-26.6526364,-53.4419581,166,10054.51242
D1,Barra Bonita/SC,-26.6526364,-53.4419581,1,60.56935
1,Barra Bonita/SP,-22.490859,-48.558349,2864,7927.80823
D1,Barra Bonita/SP,-22.490859,-48.558349,78,215.91098
1,Barra D'Alcântara/PI,-6.5209258,-42.1071089,118,2985.82996
D1,Barra D'Alcântara/PI,-6.5209258,-42.1071089,4,101.21457
1,Barra Funda/RS,-27.9230048,-53.0401045,497,19482.55586
D1,Barra Funda/RS,-27.9230048,-53.0401045,9,352.80282
1,Barra Longa/MG,-20.2833541,-43.0423516,353,7038.88335
D1,Barra Longa/MG,-20.2833541,-43.0423516,9,179.46162
1,Barra Mansa/RJ,-22.5394843,-44.1735129,14581,7888.74281
D1,Barra Mansa/RJ,-22.5394843,-44.1735129,535,289.45048
1,Barra Velha/SC,-26.6338203,-48.6835001,3844,12873.40924
D1,Barra Velha/SC,-26.6338203,-48.6835001,88,294.70864
1,Barra da Estiva/BA,-13.6269662,-41.3278287,2051,10057.86583
D1,Barra da Estiva/BA,-13.6269662,-41.3278287,19,93.17379
1,Barra de Guabiraba/PE,-8.4173522,-35.6626669,346,2384.56237
D1,Barra de Guabiraba/PE,-8.4173522,-35.6626669,14,96.48518
1,Barra de Santa Rosa/PB,-6.7218007,-36.0564638,1240,8001.54869
D1,Barra de Santa Rosa/PB,-6.7218007,-36.0564638,8,51.62289
1,Barra de Santana/PB,-7.5230865,-35.9988518,418,5006.58762
D1,Barra de Santana/PB,-7.5230865,-35.9988518,5,59.88741
1,Barra de Santo Antônio/AL,-9.4038098,-35.5117693,387,2408.51382
D1,Barra de Santo Antônio/AL,-9.4038098,-35.5117693,25,155.58875
1,Barra de São Francisco/ES,-18.7570902,-40.8916119,4522,10053.58056
D1,Barra de São Francisco/ES,-18.7570902,-40.8916119,185,411.30305
1,Barra de São Miguel/AL,-9.8261357,-35.8837777,469,5597.99475
D1,Barra de São Miguel/AL,-9.8261357,-35.8837777,7,83.55216
1,Barra de São Miguel/PB,-7.7528088,-36.3170996,463,7633.96538
D1,Barra de São Miguel/PB,-7.7528088,-36.3170996,7,115.41632
1,Barra do Bugres/MT,-15.0683712,-57.1853688,2662,7539.58139
D1,Barra do Bugres/MT,-15.0683712,-57.1853688,62,175.60257
1,Barra do Chapéu/SP,-24.472203,-49.023784,258,4479.16667
D1,Barra do Chapéu/SP,-24.472203,-49.023784,2,34.72222
1,Barra do Choça/BA,-14.8638173,-40.5761637,1906,6107.21266
D1,Barra do Choça/BA,-14.8638173,-40.5761637,27,86.51351
1,Barra do Corda/MA,-5.496823,-45.248496,5521,6238.98205
D1,Barra do Corda/MA,-5.496823,-45.248496,56,63.28256
1,Barra do Garças/MT,-15.8916033,-52.2615413,7267,11886.80788
D1,Barra do Garças/MT,-15.8916033,-52.2615413,251,410.56678
1,Barra do Guarita/RS,-27.1888016,-53.7147086,111,3408.04421
D1,Barra do Guarita/RS,-27.1888016,-53.7147086,7,214.92171
1,Barra do Jacaré/PR,-23.1151788,-50.1813945,174,6256.74218
D1,Barra do Jacaré/PR,-23.1151788,-50.1813945,1,35.95829
1,Barra do Mendes/BA,-11.8053298,-42.057037,674,4872.40656
D1,Barra do Mendes/BA,-11.8053298,-42.057037,12,86.74908
1,Barra do Ouro/TO,-7.7113784,-47.6743925,126,2720.20725
D1,Barra do Ouro/TO,-7.7113784,-47.6743925,6,129.53368
1,Barra do Piraí/RJ,-22.4703403,-43.8263256,5727,5683.57747
D1,Barra do Piraí/RJ,-22.4703403,-43.8263256,332,329.48275
1,Barra do Quaraí/RS,-30.208947,-57.5505128,360,8516.67850
D1,Barra do Quaraí/RS,-30.208947,-57.5505128,6,141.94464
1,Barra do Ribeiro/RS,-30.2930206,-51.301437,1014,7480.08262
D1,Barra do Ribeiro/RS,-30.2930206,-51.301437,47,346.70994
1,Barra do Rio Azul/RS,-27.4101581,-52.4117471,92,5558.91239
D1,Barra do Rio Azul/RS,-27.4101581,-52.4117471,1,60.42296
1,Barra do Rocha/BA,-14.2090974,-39.6004395,405,7216.67855
D1,Barra do Rocha/BA,-14.2090974,-39.6004395,6,106.91376
1,Barra do Turvo/SP,-24.756421,-48.5056942,554,7258.90985
D1,Barra do Turvo/SP,-24.756421,-48.5056942,17,222.74633
1,Barra dos Coqueiros/SE,-10.9075694,-37.0386249,6434,20801.81054
D1,Barra dos Coqueiros/SE,-10.9075694,-37.0386249,82,265.11478
1,Barra/BA,-11.0892702,-43.1420453,1977,3667.22315
D1,Barra/BA,-11.0892702,-43.1420453,39,72.34279
1,Barracão/PR,-26.252395,-53.6349576,1116,10822.34290
D1,Barracão/PR,-26.252395,-53.6349576,30,290.92320
1,Barracão/RS,-27.6728964,-51.4582928,405,7705.47945
D1,Barracão/RS,-27.6728964,-51.4582928,14,266.36225
1,Barras/PI,-4.2446153,-42.2920241,4574,9693.75861
D1,Barras/PI,-4.2446153,-42.2920241,86,182.26131
1,Barreira/CE,-4.2883361,-38.641094,1328,5883.13472
D1,Barreira/CE,-4.2883361,-38.641094,37,163.91264
1,Barreiras do Piauí/PI,-9.9224524,-45.4763776,70,2088.30549
D1,Barreiras do Piauí/PI,-9.9224524,-45.4763776,1,29.83294
1,Barreiras/BA,-12.1440031,-44.9967406,16475,10495.30180
D1,Barreiras/BA,-12.1440031,-44.9967406,264,168.17965
1,Barreirinha/AM,-2.798863,-57.067897,2361,7268.41733
D1,Barreirinha/AM,-2.798863,-57.067897,61,187.79054
1,Barreirinhas/MA,-2.7541271,-42.8259693,1977,3127.32335
D1,Barreirinhas/MA,-2.7541271,-42.8259693,36,56.94671
1,Barreiros/PE,-8.8159644,-35.1831905,739,1728.08905
D1,Barreiros/PE,-8.8159644,-35.1831905,55,128.61285
1,Barretos/SP,-20.5531437,-48.5697509,12464,10147.11030
D1,Barretos/SP,-20.5531437,-48.5697509,377,306.92078
1,Barrinha/SP,-21.1898849,-48.1550642,1430,4309.82520
D1,Barrinha/SP,-21.1898849,-48.1550642,53,159.73478
1,Barro Alto/BA,-11.7618025,-41.9094904,789,5241.13193
D1,Barro Alto/BA,-11.7618025,-41.9094904,8,53.14202
1,Barro Alto/GO,-14.9696025,-48.9190985,1251,10965.98878
D1,Barro Alto/GO,-14.9696025,-48.9190985,16,140.25245
1,Barro Duro/PI,-5.8180139,-42.5106589,673,9577.34453
D1,Barro Duro/PI,-5.8180139,-42.5106589,11,156.53906
1,Barro Preto/BA,-14.8068289,-39.4727588,571,10480.91043
D1,Barro Preto/BA,-14.8068289,-39.4727588,10,183.55360
1,Barro/CE,-7.1713587,-38.7742136,1422,6248.35223
D1,Barro/CE,-7.1713587,-38.7742136,25,109.85148
1,Barrocas/BA,-11.5165,-39.099282894736845,718,4458.24278
D1,Barrocas/BA,-11.5165,-39.099282894736845,22,136.60354
1,Barrolândia/TO,-9.837246,-48.7264346,723,12794.19572
D1,Barrolândia/TO,-9.837246,-48.7264346,20,353.91966
1,Barroquinha/CE,-3.0200371,-41.1339229,1038,6899.76070
D1,Barroquinha/CE,-3.0200371,-41.1339229,24,159.53204
1,Barros Cassal/RS,-29.094938,-52.5832366,620,5544.62529
D1,Barros Cassal/RS,-29.094938,-52.5832366,8,71.54355
1,Barroso/MG,-21.187222,-43.976111,1579,7556.10853
D1,Barroso/MG,-21.187222,-43.976111,41,196.20041
1,Barueri/SP,-23.5112184,-46.8764612,25940,9365.22951
D1,Barueri/SP,-23.5112184,-46.8764612,933,336.84499
1,Barão de Antonina/SP,-23.6295651,-49.5632104,323,9233.84791
D1,Barão de Antonina/SP,-23.6295651,-49.5632104,7,200.11435
1,Barão de Cocais/MG,-19.9452437,-43.4870298,3443,10475.87172
D1,Barão de Cocais/MG,-19.9452437,-43.4870298,58,176.47417
1,Barão de Cotegipe/RS,-27.6214694,-52.3765316,655,9894.25982
D1,Barão de Cotegipe/RS,-27.6214694,-52.3765316,7,105.74018
1,Barão de Grajaú/MA,-6.7542591,-43.0263477,375,1981.61065
D1,Barão de Grajaú/MA,-6.7542591,-43.0263477,2,10.56859
1,Barão de Melgaço/MT,-16.195776,-55.9668049,346,4238.11857
D1,Barão de Melgaço/MT,-16.195776,-55.9668049,14,171.48457
1,Barão de Monte Alto/MG,-21.244722,-42.2375,190,3548.74860
D1,Barão de Monte Alto/MG,-21.244722,-42.2375,9,168.09862
1,Barão do Triunfo/RS,-30.3909877,-51.7375349,411,5466.15241
D1,Barão do Triunfo/RS,-30.3909877,-51.7375349,6,79.79785
1,Barão/RS,-29.372474,-51.494908,545,8787.48791
D1,Barão/RS,-29.372474,-51.494908,8,128.99065
1,Bastos/SP,-21.9222474,-50.7317727,1200,5727.10352
D1,Bastos/SP,-21.9222474,-50.7317727,34,162.26793
1,Bataguassu/MS,-21.715899,-52.422058,2705,11596.99893
D1,Bataguassu/MS,-21.715899,-52.422058,32,137.19185
1,Batalha/AL,-9.6733809,-37.1265481,1018,5551.31421
D1,Batalha/AL,-9.6733809,-37.1265481,15,81.79736
1,Batalha/PI,-4.022391,-42.0780926,993,3690.76380
D1,Batalha/PI,-4.022391,-42.0780926,30,111.50344
1,Batatais/SP,-20.892867,-47.592149,2560,4064.78247
D1,Batatais/SP,-20.892867,-47.592149,129,204.82693
1,Batayporã/MS,-22.2976466,-53.2685608,869,7657.06230
D1,Batayporã/MS,-22.2976466,-53.2685608,13,114.54754
1,Baturité/CE,-4.3290203,-38.8821055,3601,10019.19813
D1,Baturité/CE,-4.3290203,-38.8821055,72,200.32832
1,Bauru/SP,-22.3218102,-49.0705863,39841,10503.90591
D1,Bauru/SP,-22.3218102,-49.0705863,900,237.28108
1,Bayeux/PB,-7.1301631,-34.936532,6459,6644.85664
D1,Bayeux/PB,-7.1301631,-34.936532,227,233.53189
1,Baía Formosa/RN,-6.3691885,-35.0063741,321,3443.46707
D1,Baía Formosa/RN,-6.3691885,-35.0063741,8,85.81849
1,Baía da Traição/PB,-6.691258,-34.9371244,1254,13786.27968
D1,Baía da Traição/PB,-6.691258,-34.9371244,12,131.92612
1,Bebedouro/SP,-20.949077,-48.479083,3564,4595.44839
D1,Bebedouro/SP,-20.949077,-48.479083,125,161.17594
1,Beberibe/CE,-4.1810469,-38.1298101,4330,8026.09872
D1,Beberibe/CE,-4.1810469,-38.1298101,96,177.94584
1,Bela Cruz/CE,-3.0529129,-40.167582,3218,9834.36220
D1,Bela Cruz/CE,-3.0529129,-40.167582,63,192.53102
1,Bela Vista da Caroba/PR,-25.8792818,-53.6672545,166,4801.85132
D1,Bela Vista da Caroba/PR,-25.8792818,-53.6672545,5,144.63408
1,Bela Vista de Goiás/GO,-16.9692949,-48.9513071,2283,7487.20976
D1,Bela Vista de Goiás/GO,-16.9692949,-48.9513071,59,193.49338
1,Bela Vista de Minas/MG,-19.8289721,-43.0973688,734,7152.60183
D1,Bela Vista de Minas/MG,-19.8289721,-43.0973688,22,214.38316
1,Bela Vista do Maranhão/MA,-3.7416367,-45.2514192,207,1835.26908
D1,Bela Vista do Maranhão/MA,-3.7416367,-45.2514192,16,141.85655
1,Bela Vista do Paraíso/PR,-22.9948493,-51.1907996,1732,11247.48360
D1,Bela Vista do Paraíso/PR,-22.9948493,-51.1907996,59,383.14176
1,Bela Vista do Piauí/PI,-7.9716353,-41.8715061,258,6401.98511
D1,Bela Vista do Piauí/PI,-7.9716353,-41.8715061,6,148.88337
1,Bela Vista do Toldo/SC,-26.274625,-50.466354,74,1163.15624
D1,Bela Vista do Toldo/SC,-26.274625,-50.466354,3,47.15498
1,Bela Vista/MS,-22.107327,-56.5317344,844,3412.16899
D1,Bela Vista/MS,-22.107327,-56.5317344,23,92.98565
1,Belford Roxo/RJ,-22.7667284,-43.4033603,20007,3899.10313
D1,Belford Roxo/RJ,-22.7667284,-43.4033603,657,128.04072
1,Belmiro Braga/MG,-21.9486291,-43.413564,177,5167.88321
D1,Belmiro Braga/MG,-21.9486291,-43.413564,3,87.59124
1,Belmonte/BA,-15.8630837,-38.8792845,980,4181.42254
D1,Belmonte/BA,-15.8630837,-38.8792845,20,85.33515
1,Belmonte/SC,-26.8448262,-53.578916,226,8342.56183
D1,Belmonte/SC,-26.8448262,-53.578916,5,184.56995
1,Belo Campo/BA,-15.0338286,-41.2585109,772,4512.24502
D1,Belo Campo/BA,-15.0338286,-41.2585109,13,75.98340
1,Belo Horizonte/MG,-19.9227318,-43.9450948,210508,8348.31081
D1,Belo Horizonte/MG,-19.9227318,-43.9450948,5115,202.85029
1,Belo Jardim/PE,-8.3338293,-36.4176419,3203,4176.71835
D1,Belo Jardim/PE,-8.3338293,-36.4176419,99,129.09620
1,Belo Monte/AL,-9.8269944,-37.2787165,282,4202.68256
D1,Belo Monte/AL,-9.8269944,-37.2787165,9,134.12817
1,Belo Oriente/MG,-19.2232523,-42.4807033,2479,9183.52226
D1,Belo Oriente/MG,-19.2232523,-42.4807033,58,214.86256
1,Belo Vale/MG,-20.407778,-44.024167,707,9159.21752
D1,Belo Vale/MG,-20.407778,-44.024167,10,129.55046
1,Belterra/PA,-2.636091,-54.937392,1304,7309.82678
D1,Belterra/PA,-2.636091,-54.937392,24,134.53669
1,Belágua/MA,-3.1604031,-43.5085052,389,5167.37513
D1,Belágua/MA,-3.1604031,-43.5085052,3,39.85122
1,Belém de Maria/PE,-8.6242497,-35.8388934,237,1955.12292
D1,Belém de Maria/PE,-8.6242497,-35.8388934,6,49.49678
1,Belém do Brejo do Cruz/PB,-6.1880727,-37.5332267,495,6735.61029
D1,Belém do Brejo do Cruz/PB,-6.1880727,-37.5332267,5,68.03647
1,Belém do Piauí/PI,-7.3767305,-40.9712156,437,12182.88263
D1,Belém do Piauí/PI,-7.3767305,-40.9712156,7,195.14915
1,Belém do São Francisco/PE,-8.7517707,-38.9625715,629,3034.24988
D1,Belém do São Francisco/PE,-8.7517707,-38.9625715,9,43.41534
1,Belém/AL,-9.5715351,-36.492841,110,2567.69374
D1,Belém/AL,-9.5715351,-36.492841,3,70.02801
1,Belém/PA,-1.45056,-48.4682453,99801,6654.99276
D1,Belém/PA,-1.45056,-48.4682453,4772,318.20949
1,Belém/PB,-6.6967586,-35.5369626,1949,11008.18978
D1,Belém/PB,-6.6967586,-35.5369626,35,197.68427
1,Beneditinos/PI,-5.4565671,-42.3605061,1095,10455.45689
D1,Beneditinos/PI,-5.4565671,-42.3605061,35,334.19269
1,Benedito Leite/MA,-7.2173453,-44.5523331,296,5250.08868
D1,Benedito Leite/MA,-7.2173453,-44.5523331,2,35.47357
1,Benedito Novo/SC,-26.7840657,-49.3629511,937,7957.53715
D1,Benedito Novo/SC,-26.7840657,-49.3629511,17,144.37367
1,Benevides/PA,-1.3555577,-48.252235,3753,5885.39706
D1,Benevides/PA,-1.3555577,-48.252235,94,147.40936
1,Benjamin Constant do Sul/RS,-27.5105555,-52.6007689,154,7865.16854
1,Benjamin Constant/AM,-4.3782748,-70.0290603,2689,6120.40514
D1,Benjamin Constant/AM,-4.3782748,-70.0290603,85,193.46762
1,Bento Fernandes/RN,-5.6926846,-35.8207423,145,2624.43439
D1,Bento Fernandes/RN,-5.6926846,-35.8207423,3,54.29864
1,Bento Gonçalves/RS,-29.1654014,-51.5197627,16294,13377.33882
D1,Bento Gonçalves/RS,-29.1654014,-51.5197627,279,229.05840
1,Bento de Abreu/SP,-21.2707225,-50.8120444,290,9650.58236
1,Bequimão/MA,-2.4495376,-44.7884889,275,1291.14043
D1,Bequimão/MA,-2.4495376,-44.7884889,17,79.81595
1,Berilo/MG,-16.9515764,-42.4643732,131,1103.43666
D1,Berilo/MG,-16.9515764,-42.4643732,1,8.42318
1,Berizal/MG,-15.6118785,-41.7417382,125,2623.84551
D1,Berizal/MG,-15.6118785,-41.7417382,1,20.99076
1,Bernardino Batista/PB,-6.4532173,-38.5495418,233,6589.36652
1,Bernardino de Campos/SP,-23.0140216,-49.4760724,565,5063.63148
D1,Bernardino de Campos/SP,-23.0140216,-49.4760724,17,152.35705
1,Bernardo Sayão/TO,-7.8794244,-48.8968905,470,10566.54676
D1,Bernardo Sayão/TO,-7.8794244,-48.8968905,6,134.89209
1,Bernardo do Mearim/MA,-4.6315929,-44.7617508,270,4445.90812
D1,Bernardo do Mearim/MA,-4.6315929,-44.7617508,6,98.79796
1,Bertioga/SP,-23.848568,-46.139586,5151,7958.53097
D1,Bertioga/SP,-23.848568,-46.139586,138,213.21632
1,Bertolínia/PI,-7.6372159,-43.9540611,842,15289.63138
D1,Bertolínia/PI,-7.6372159,-43.9540611,10,181.58707
1,Bertópolis/MG,-17.063333,-40.573889,283,6142.82613
1,Beruri/AM,-3.9007135,-61.3717319,2195,10924.20246
D1,Beruri/AM,-3.9007135,-61.3717319,32,159.25944
1,Betim/MG,-19.968056,-44.198333,27397,6159.61905
D1,Betim/MG,-19.968056,-44.198333,1041,234.04619
1,Betânia do Piauí/PI,-8.1460635,-40.7961387,157,2528.18035
D1,Betânia do Piauí/PI,-8.1460635,-40.7961387,2,32.20612
1,Betânia/PE,-8.2742779,-38.0351767,453,3548.76616
D1,Betânia/PE,-8.2742779,-38.0351767,13,101.84097
1,Bezerros/PE,-8.2372132,-35.7558262,3583,5885.34823
D1,Bezerros/PE,-8.2372132,-35.7558262,108,177.39816
1,Bias Fortes/MG,-21.605833,-43.756944,102,3063.98318
D1,Bias Fortes/MG,-21.605833,-43.756944,3,90.11715
1,Bicas/MG,-21.7213723,-43.0604327,1329,9131.51024
D1,Bicas/MG,-21.7213723,-43.0604327,39,267.96757
1,Biguaçu/SC,-27.4961277,-48.6542432,10535,15161.32746
D1,Biguaçu/SC,-27.4961277,-48.6542432,157,225.94479
1,Bilac/SP,-21.403962,-50.47464,776,9560.18233
D1,Bilac/SP,-21.403962,-50.47464,13,160.15769
1,Biquinhas/MG,-18.783611,-45.502222,106,4243.39472
D1,Biquinhas/MG,-18.783611,-45.502222,1,40.03203
1,Birigui/SP,-21.2908491,-50.34144,12651,10130.28194
D1,Birigui/SP,-21.2908491,-50.34144,452,361.93877
1,Biritiba Mirim/SP,-23.5697765,-46.0407456,1206,3661.64683
D1,Biritiba Mirim/SP,-23.5697765,-46.0407456,77,233.78674
1,Biritinga/BA,-11.6227908,-38.8066738,414,2590.09009
D1,Biritinga/BA,-11.6227908,-38.8066738,7,43.79379
1,Bituruna/PR,-26.161281,-51.5533319,928,5658.53659
D1,Bituruna/PR,-26.161281,-51.5533319,10,60.97561
1,Blumenau/SC,-26.9195567,-49.0658025,47477,13120.44880
D1,Blumenau/SC,-26.9195567,-49.0658025,536,148.12563
1,Boa Esperança do Iguaçu/PR,-25.6362851,-53.2139114,144,5829.95951
1,Boa Esperança do Sul/SP,-21.9930206,-48.3917372,860,5726.46158
D1,Boa Esperança do Sul/SP,-21.9930206,-48.3917372,13,86.56279
1,Boa Esperança/ES,-18.5395472,-40.2904088,1409,9336.07209
D1,Boa Esperança/ES,-18.5395472,-40.2904088,38,251.78903
1,Boa Esperança/MG,-21.0901253,-45.5660195,3541,8804.29648
D1,Boa Esperança/MG,-21.0901253,-45.5660195,92,228.74761
1,Boa Esperança/PR,-24.2411024,-52.7860277,328,8104.76896
D1,Boa Esperança/PR,-24.2411024,-52.7860277,13,321.22560
1,Boa Hora/PI,-4.4094627,-42.1255341,522,7659.57447
D1,Boa Hora/PI,-4.4094627,-42.1255341,6,88.04109
1,Boa Nova/BA,-14.365907,-40.2063056,824,6683.42931
D1,Boa Nova/BA,-14.365907,-40.2063056,13,105.44245
1,Boa Ventura de São Roque/PR,-24.88177,-51.5441292,403,6331.50039
D1,Boa Ventura de São Roque/PR,-24.88177,-51.5441292,5,78.55460
1,Boa Ventura/PB,-7.4202462,-38.2156782,325,6123.98719
D1,Boa Ventura/PB,-7.4202462,-38.2156782,5,94.21519
1,Boa Viagem/CE,-5.1261877,-39.7300055,3614,6621.83704
D1,Boa Viagem/CE,-5.1261877,-39.7300055,91,166.73690
1,Boa Vista da Aparecida/PR,-25.4357216,-53.4067721,749,9933.68700
D1,Boa Vista da Aparecida/PR,-25.4357216,-53.4067721,24,318.30239
1,Boa Vista das Missões/RS,-27.6677983,-53.3127622,171,8173.99618
D1,Boa Vista das Missões/RS,-27.6677983,-53.3127622,4,191.20459
1,Boa Vista do Buricá/RS,-27.6687782,-54.1111913,720,10727.05602
D1,Boa Vista do Buricá/RS,-27.6687782,-54.1111913,9,134.08820
1,Boa Vista do Cadeado/RS,-28.5783827,-53.8123759,144,5834.68395
D1,Boa Vista do Cadeado/RS,-28.5783827,-53.8123759,2,81.03728
1,Boa Vista do Gurupi/MA,-1.7981168,-46.3071882,15,178.95490
D1,Boa Vista do Gurupi/MA,-1.7981168,-46.3071882,4,47.72131
1,Boa Vista do Incra/RS,-28.8195551,-53.3866624,248,9480.12232
D1,Boa Vista do Incra/RS,-28.8195551,-53.3866624,4,152.90520
1,Boa Vista do Ramos/AM,-2.9716927,-57.5869819,911,4641.80169
D1,Boa Vista do Ramos/AM,-2.9716927,-57.5869819,11,56.04810
1,Boa Vista do Sul/RS,-29.3510488,-51.6779679,286,10295.17639
D1,Boa Vista do Sul/RS,-29.3510488,-51.6779679,3,107.99136
1,Boa Vista do Tupim/BA,-12.6605988,-40.6083594,244,1316.71254
D1,Boa Vista do Tupim/BA,-12.6605988,-40.6083594,4,21.58545
1,Boa Vista/PB,-7.2620711,-36.2415161,616,8632.28700
D1,Boa Vista/PB,-7.2620711,-36.2415161,10,140.13453
1,Boa Vista/RR,2.8208478,-60.6719582,79620,18972.86323
D1,Boa Vista/RR,2.8208478,-60.6719582,1266,301.67853
1,Boca da Mata/AL,-9.6452054,-36.2116658,1675,6122.97119
D1,Boca da Mata/AL,-9.6452054,-36.2116658,42,153.53122
1,Boca do Acre/AM,-8.7553487,-67.3930873,2561,7394.25437
D1,Boca do Acre/AM,-8.7553487,-67.3930873,23,66.40681
1,Bocaina de Minas/MG,-22.167778,-44.394722,172,3379.83887
D1,Bocaina de Minas/MG,-22.167778,-44.394722,7,137.55158
1,Bocaina do Sul/SC,-27.745494,-49.942279,364,10435.77982
D1,Bocaina do Sul/SC,-27.745494,-49.942279,3,86.00917
1,Bocaina/PI,-6.9445939,-41.3224599,252,5593.78468
D1,Bocaina/PI,-6.9445939,-41.3224599,4,88.79023
1,Bocaina/SP,-22.1421831,-48.522276,1143,9179.24831
D1,Bocaina/SP,-22.1421831,-48.522276,26,208.80180
1,Bocaiúva do Sul/PR,-25.206591,-49.114131,1631,12422.88065
D1,Bocaiúva do Sul/PR,-25.206591,-49.114131,15,114.25089
1,Bocaiúva/MG,-17.1160208,-43.8122678,2010,3999.52245
D1,Bocaiúva/MG,-17.1160208,-43.8122678,51,101.48042
1,Bodocó/PE,-7.777592,-39.933797,1831,4770.96253
D1,Bodocó/PE,-7.777592,-39.933797,28,72.95847
1,Bodoquena/MS,-20.5508775,-56.6769653,361,4605.76678
D1,Bodoquena/MS,-20.5508775,-56.6769653,13,165.85864
1,Bodó/RN,-5.9866104,-36.4134824,140,6372.32590
1,Bofete/SP,-23.1019554,-48.2610535,625,5242.84875
D1,Bofete/SP,-23.1019554,-48.2610535,13,109.05125
1,Boituva/SP,-23.2838893,-47.6738231,4738,7621.03909
D1,Boituva/SP,-23.2838893,-47.6738231,125,201.06161
1,Bom Conselho/PE,-9.169191,-36.685683,1535,3147.62032
D1,Bom Conselho/PE,-9.169191,-36.685683,54,110.73062
1,Bom Despacho/MG,-19.7375242,-45.2517288,3553,6962.84393
D1,Bom Despacho/MG,-19.7375242,-45.2517288,68,133.26017
1,Bom Jardim da Serra/SC,-28.3380324,-49.625588,572,11986.58843
D1,Bom Jardim da Serra/SC,-28.3380324,-49.625588,4,83.82230
1,Bom Jardim de Goiás/GO,-16.2062659,-52.172793,693,7813.73323
D1,Bom Jardim de Goiás/GO,-16.2062659,-52.172793,15,169.12842
1,Bom Jardim de Minas/MG,-21.9476466,-44.1906033,444,6874.12912
D1,Bom Jardim de Minas/MG,-21.9476466,-44.1906033,3,46.44682
1,Bom Jardim/MA,-3.54129,-45.606004,1366,3266.22352
D1,Bom Jardim/MA,-3.54129,-45.606004,45,107.59887
1,Bom Jardim/PE,-7.7961572,-35.5871696,1314,3286.39672
D1,Bom Jardim/PE,-7.7961572,-35.5871696,56,140.05953
1,Bom Jardim/RJ,-22.1515328,-42.4186683,1499,5428.01275
D1,Bom Jardim/RJ,-22.1515328,-42.4186683,40,144.84357
1,Bom Jesus da Lapa/BA,-13.250571,-43.410754,4542,6520.05397
D1,Bom Jesus da Lapa/BA,-13.250571,-43.410754,61,87.56567
1,Bom Jesus da Penha/MG,-21.0165299,-46.5226644,518,12205.46654
D1,Bom Jesus da Penha/MG,-21.0165299,-46.5226644,10,235.62677
1,Bom Jesus da Serra/BA,-14.3724084,-40.5047119,419,4265.49934
D1,Bom Jesus da Serra/BA,-14.3724084,-40.5047119,8,81.44151
1,Bom Jesus das Selvas/MA,-4.4878075,-46.8526639,2985,8635.40371
D1,Bom Jesus das Selvas/MA,-4.4878075,-46.8526639,23,66.53745
1,Bom Jesus de Goiás/GO,-18.2174587,-49.739721,2536,9887.71054
D1,Bom Jesus de Goiás/GO,-18.2174587,-49.739721,100,389.89395
1,Bom Jesus do Amparo/MG,-19.7045132,-43.4752911,204,3326.26773
D1,Bom Jesus do Amparo/MG,-19.7045132,-43.4752911,6,97.83140
1,Bom Jesus do Araguaia/MT,-12.1725897,-51.5074425,943,14062.03400
D1,Bom Jesus do Araguaia/MT,-12.1725897,-51.5074425,16,238.59231
1,Bom Jesus do Galho/MG,-19.8283191,-42.3162256,575,3868.92747
D1,Bom Jesus do Galho/MG,-19.8283191,-42.3162256,26,174.94281
1,Bom Jesus do Itabapoana/RJ,-21.1341025,-41.680095,3003,8071.92968
D1,Bom Jesus do Itabapoana/RJ,-21.1341025,-41.680095,79,212.34847
1,Bom Jesus do Norte/ES,-21.1254776,-41.6711646,952,9556.31399
D1,Bom Jesus do Norte/ES,-21.1254776,-41.6711646,23,230.87733
1,Bom Jesus do Oeste/SC,-26.6929713,-53.0967453,181,8461.89808
D1,Bom Jesus do Oeste/SC,-26.6929713,-53.0967453,6,280.50491
1,Bom Jesus do Sul/PR,-26.1922507,-53.6002033,375,10695.94980
D1,Bom Jesus do Sul/PR,-26.1922507,-53.6002033,3,85.56760
1,Bom Jesus do Tocantins/PA,-5.0471796,-48.5978362,748,4369.66935
D1,Bom Jesus do Tocantins/PA,-5.0471796,-48.5978362,24,140.20329
1,Bom Jesus do Tocantins/TO,-8.96306,-48.165043,127,2535.94249
D1,Bom Jesus do Tocantins/TO,-8.96306,-48.165043,3,59.90415
1,Bom Jesus dos Perdões/SP,-23.1353864,-46.4648052,1895,7292.66885
D1,Bom Jesus dos Perdões/SP,-23.1353864,-46.4648052,24,92.36098
1,Bom Jesus/PB,-6.8156725,-38.6551841,130,5048.54369
D1,Bom Jesus/PB,-6.8156725,-38.6551841,3,116.50485
1,Bom Jesus/PI,-9.0711644,-44.3583926,3134,12344.90093
D1,Bom Jesus/PI,-9.0711644,-44.3583926,35,137.86584
1,Bom Jesus/RN,-5.9887544,-35.5821149,709,6905.61995
D1,Bom Jesus/RN,-5.9887544,-35.5821149,15,146.09915
1,Bom Jesus/RS,-28.6692723,-50.4346894,795,7029.79927
D1,Bom Jesus/RS,-28.6692723,-50.4346894,17,150.32275
1,Bom Jesus/SC,-26.7350604,-52.3916519,359,11743.53942
D1,Bom Jesus/SC,-26.7350604,-52.3916519,6,196.27085
1,Bom Lugar/MA,-4.3728019,-45.0366054,450,2737.55931
D1,Bom Lugar/MA,-4.3728019,-45.0366054,7,42.58426
1,Bom Princípio do Piauí/PI,-3.1912777,-41.6430185,124,2194.30189
D1,Bom Princípio do Piauí/PI,-3.1912777,-41.6430185,12,212.35180
1,Bom Princípio/RS,-29.489788,-51.3566782,1694,11883.54963
D1,Bom Princípio/RS,-29.489788,-51.3566782,26,182.39214
1,Bom Progresso/RS,-27.5490948,-53.8655601,117,6161.13744
D1,Bom Progresso/RS,-27.5490948,-53.8655601,3,157.97788
1,Bom Repouso/MG,-22.4657069,-46.1485376,847,8038.34108
D1,Bom Repouso/MG,-22.4657069,-46.1485376,19,180.31698
1,Bom Retiro do Sul/RS,-29.6000007,-51.9359243,947,7643.26069
D1,Bom Retiro do Sul/RS,-29.6000007,-51.9359243,26,209.84665
1,Bom Retiro/SC,-27.798993,-49.486994,688,6838.96620
D1,Bom Retiro/SC,-27.798993,-49.486994,15,149.10537
1,Bom Sucesso de Itararé/SP,-24.3190016,-49.1446207,131,3288.15261
D1,Bom Sucesso de Itararé/SP,-24.3190016,-49.1446207,5,125.50201
1,Bom Sucesso do Sul/PR,-26.0749256,-52.8348629,355,10909.64966
D1,Bom Sucesso do Sul/PR,-26.0749256,-52.8348629,6,184.38844
1,Bom Sucesso/MG,-21.0323516,-44.7598082,770,4373.26063
D1,Bom Sucesso/MG,-21.0323516,-44.7598082,5,28.39780
1,Bom Sucesso/PB,-6.4458948,-37.9297662,265,5347.05408
D1,Bom Sucesso/PB,-6.4458948,-37.9297662,3,60.53269
1,Bom Sucesso/PR,-23.7088019,-51.7651297,694,9818.90209
D1,Bom Sucesso/PR,-23.7088019,-51.7651297,12,169.77929
1,Bombinhas/SC,-27.1519159,-48.4875691,3350,16474.05950
D1,Bombinhas/SC,-27.1519159,-48.4875691,56,275.38726
1,Bonfim do Piauí/PI,-9.1648678,-42.8734415,329,5787.15919
D1,Bonfim do Piauí/PI,-9.1648678,-42.8734415,7,123.13105
1,Bonfim/MG,-20.3266626, -44.2386157,363,5291.54519
D1,Bonfim/MG,-20.3266626, -44.2386157,13,189.50437
1,Bonfim/RR,3.3613818,-59.8427241,2201,17528.07199
D1,Bonfim/RR,3.3613818,-59.8427241,26,207.05583
1,Bonfinópolis de Minas/MG,-16.5660011,-45.98645,407,7476.12050
D1,Bonfinópolis de Minas/MG,-16.5660011,-45.98645,12,220.42616
1,Bonfinópolis/GO,-16.6172709,-48.9615701,448,4516.58433
D1,Bonfinópolis/GO,-16.6172709,-48.9615701,18,181.46991
1,Boninal/BA,-12.7095183,-41.8299984,579,4008.02990
D1,Boninal/BA,-12.7095183,-41.8299984,7,48.45632
1,Bonito de Minas/MG,-15.3191266,-44.7544,49,430.99657
1,Bonito de Santa Fé/PB,-7.3143332,-38.5146677,437,3635.00250
D1,Bonito de Santa Fé/PB,-7.3143332,-38.5146677,11,91.49892
1,Bonito/BA,-11.9665473,-41.2649896,814,4821.13243
D1,Bonito/BA,-11.9665473,-41.2649896,11,65.15044
1,Bonito/MS,-21.1264766,-56.4902208,2628,11843.17260
D1,Bonito/MS,-21.1264766,-56.4902208,56,252.36593
1,Bonito/PA,-1.3605722,-47.3049907,363,2196.00726
D1,Bonito/PA,-1.3605722,-47.3049907,13,78.64489
1,Bonito/PE,-8.4721161,-35.7314591,759,1991.23751
D1,Bonito/PE,-8.4721161,-35.7314591,35,91.82255
1,Bonópolis/GO,-13.649331,-49.8329113,145,3227.24238
D1,Bonópolis/GO,-13.649331,-49.8329113,1,22.25684
1,Boqueirão do Leão/RS,-29.30332,-52.4296817,560,7270.83874
D1,Boqueirão do Leão/RS,-29.30332,-52.4296817,28,363.54194
1,Boqueirão do Piauí/PI,-4.4850148,-42.1095161,559,8699.03517
D1,Boqueirão do Piauí/PI,-4.4850148,-42.1095161,10,155.61780
1,Boqueirão/PB,-7.487004,-36.130887,1482,8293.22888
D1,Boqueirão/PB,-7.487004,-36.130887,29,162.28316
1,Boquim/SE,-11.1450175,-37.6204228,2323,8636.00877
D1,Boquim/SE,-11.1450175,-37.6204228,57,211.90379
1,Boquira/BA,-12.8184859,-42.7270883,529,2460.80848
D1,Boquira/BA,-12.8184859,-42.7270883,11,51.16993
1,Boracéia/SP,-22.195355,-48.7801925,844,17337.71569
D1,Boracéia/SP,-22.195355,-48.7801925,21,431.38866
1,Borba/AM,-4.3934778,-59.5947721,2084,4991.85590
D1,Borba/AM,-4.3934778,-59.5947721,58,138.92881
1,Borborema/PB,-6.8066718,-35.5990191,374,7073.95498
D1,Borborema/PB,-6.8066718,-35.5990191,12,226.97182
1,Borborema/SP,-21.6212706,-49.074135,1272,7869.33927
D1,Borborema/SP,-21.6212706,-49.074135,39,241.27691
1,Borda da Mata/MG,-22.274167,-46.165278,1263,6439.27807
D1,Borda da Mata/MG,-22.274167,-46.165278,40,203.93596
1,Borebi/SP,-22.5700178,-48.9714871,171,6373.46254
D1,Borebi/SP,-22.5700178,-48.9714871,2,74.54342
1,Borrazópolis/PR,-23.9393362,-51.5850786,674,10467.46389
D1,Borrazópolis/PR,-23.9393362,-51.5850786,19,295.07688
1,Borá/SP,-22.2701088,-50.544407,100,11933.17422
D1,Borá/SP,-22.2701088,-50.544407,1,119.33174
1,Bossoroca/RS,-28.7278885,-54.9120278,385,6204.67365
D1,Bossoroca/RS,-28.7278885,-54.9120278,21,338.43674
1,Botelhos/MG,-21.65,-46.394722,1423,9519.03137
D1,Botelhos/MG,-21.65,-46.394722,19,127.09880
1,Botucatu/SP,-22.8879628,-48.4410712,12293,8298.79160
D1,Botucatu/SP,-22.8879628,-48.4410712,235,158.64443
1,Botumirim/MG,-16.862778,-43.011111,213,3387.40458
D1,Botumirim/MG,-16.862778,-43.011111,3,47.70992
1,Botuporã/BA,-13.3744752,-42.5198469,195,1925.16537
D1,Botuporã/BA,-13.3744752,-42.5198469,3,29.61793
1,Botuverá/SC,-27.200749,-49.068892,864,16234.49831
D1,Botuverá/SC,-27.200749,-49.068892,8,150.31943
1,Bozano/RS,-28.3669953,-53.7705165,228,10800.56845
D1,Bozano/RS,-28.3669953,-53.7705165,7,331.59640
1,Braga/RS,-27.617348,-53.740514,317,9574.14678
D1,Braga/RS,-27.617348,-53.740514,7,211.41649
1,Braganey/PR,-24.8179919,-53.118506,376,6986.25046
D1,Braganey/PR,-24.8179919,-53.118506,7,130.06317
1,Bragança Paulista/SP,-22.9520235,-46.5418586,14873,8721.47913
D1,Bragança Paulista/SP,-22.9520235,-46.5418586,417,244.52745
1,Bragança/PA,-1.0573967,-46.7635406,3931,3049.31970
D1,Bragança/PA,-1.0573967,-46.7635406,137,106.27240
1,Branquinha/AL,-9.2478057,-36.0152009,481,4598.47036
D1,Branquinha/AL,-9.2478057,-36.0152009,9,86.04207
1,Brasil Novo/PA,-3.3055853,-52.539198,1757,11726.62351
D1,Brasil Novo/PA,-3.3055853,-52.539198,40,266.96923
1,Brasileira/PI,-4.131182,-41.7824969,542,6493.35090
D1,Brasileira/PI,-4.131182,-41.7824969,11,131.78387
1,Brasilândia de Minas/MG,-17.0096469,-46.0087183,1100,6567.94841
D1,Brasilândia de Minas/MG,-17.0096469,-46.0087183,16,95.53380
1,Brasilândia do Sul/PR,-24.1975793,-53.527551,357,13810.44487
D1,Brasilândia do Sul/PR,-24.1975793,-53.527551,9,348.16248
1,Brasilândia do Tocantins/TO,-8.3886619,-48.4842729,214,9678.87834
D1,Brasilândia do Tocantins/TO,-8.3886619,-48.4842729,4,180.91361
1,Brasilândia/MS,-21.255575,-52.0365617,959,8090.77871
D1,Brasilândia/MS,-21.255575,-52.0365617,16,134.98692
1,Brasiléia/AC,-11.0010413,-68.7487894,2754,10313.83417
D1,Brasiléia/AC,-11.0010413,-68.7487894,38,142.31144
1,Brasnorte/MT,-12.1227151,-58.0050109,1865,9260.17875
D1,Brasnorte/MT,-12.1227151,-58.0050109,32,158.88779
1,Brasília de Minas/MG,-16.2075114,-44.430559,929,2866.84154
D1,Brasília de Minas/MG,-16.2075114,-44.430559,7,21.60160
1,Brasília/DF,-15.7934036,-47.8823172,408027,13355.38790
D1,Brasília/DF,-15.7934036,-47.8823172,8740,286.07443
1,Brazabrantes/GO,-16.4291635,-49.3858216,425,11345.43513
D1,Brazabrantes/GO,-16.4291635,-49.3858216,3,80.08542
1,Brazópolis/MG,-22.4742842,-45.6165577,757,5253.29632
D1,Brazópolis/MG,-22.4742842,-45.6165577,28,194.30951
1,Braço do Norte/SC,-28.2728633,-49.1622712,7570,22346.20380
D1,Braço do Norte/SC,-28.2728633,-49.1622712,83,245.01122
1,Braço do Trombudo/SC,-27.358578,-49.882145,584,15494.82621
D1,Braço do Trombudo/SC,-27.358578,-49.882145,4,106.12895
1,Braúna/SP,-21.5015319,-50.3175246,434,7559.65860
D1,Braúna/SP,-21.5015319,-50.3175246,20,348.37136
1,Braúnas/MG,-19.055556,-42.716111,200,4193.75131
D1,Braúnas/MG,-19.055556,-42.716111,7,146.78130
1,Brejetuba/ES,-20.1465817,-41.2902303,1538,12376.27746
D1,Brejetuba/ES,-20.1465817,-41.2902303,13,104.61093
1,Brejinho de Nazaré/TO,-11.0205883,-48.5722906,441,7990.57800
D1,Brejinho de Nazaré/TO,-11.0205883,-48.5722906,13,235.54992
1,Brejinho/PE,-7.3482153,-37.28538,618,8253.20513
D1,Brejinho/PE,-7.3482153,-37.28538,18,240.38462
1,Brejinho/RN,-6.1957907,-35.3583019,1159,9063.89302
D1,Brejinho/RN,-6.1957907,-35.3583019,13,101.66575
1,Brejo Alegre/SP,-21.1671191,-50.1850393,309,10695.74247
D1,Brejo Alegre/SP,-21.1671191,-50.1850393,13,449.98269
1,Brejo Grande do Araguaia/PA,-5.7011449,-48.4037308,780,10586.31922
D1,Brejo Grande do Araguaia/PA,-5.7011449,-48.4037308,4,54.28882
1,Brejo Grande/SE,-10.4287358,-36.4667918,396,4740.81168
D1,Brejo Grande/SE,-10.4287358,-36.4667918,12,143.66096
1,Brejo Santo/CE,-7.4909841,-38.9859152,7792,15633.40155
D1,Brejo Santo/CE,-7.4909841,-38.9859152,143,286.90662
1,Brejo da Madre de Deus/PE,-8.1409718,-36.3712527,1982,3869.20449
D1,Brejo da Madre de Deus/PE,-8.1409718,-36.3712527,47,91.75207
1,Brejo de Areia/MA,-4.3316785,-45.5833334,289,3206.12381
D1,Brejo de Areia/MA,-4.3316785,-45.5833334,9,99.84469
1,Brejo do Cruz/PB,-6.32926065,-37.48746163303929,1316,9263.69140
D1,Brejo do Cruz/PB,-6.32926065,-37.48746163303929,20,140.78558
1,Brejo do Piauí/PI,-8.207583,-42.8359849,101,2624.74012
D1,Brejo do Piauí/PI,-8.207583,-42.8359849,3,77.96258
1,Brejo dos Santos/PB,-6.3769367,-37.8243125,503,7781.55941
D1,Brejo dos Santos/PB,-6.3769367,-37.8243125,6,92.82178
1,Brejo/MA,-3.6804397,-42.7529313,862,2351.91400
D1,Brejo/MA,-3.6804397,-42.7529313,19,51.84033
1,Brejolândia/BA,-12.4843845,-43.9611861,137,1290.26182
D1,Brejolândia/BA,-12.4843845,-43.9611861,9,84.76173
1,Brejão/PE,-9.029146,-36.566034,331,3683.09781
D1,Brejão/PE,-9.029146,-36.566034,6,66.76310
1,Brejões/BA,-13.1033754,-39.7909837,615,4324.28632
D1,Brejões/BA,-13.1033754,-39.7909837,9,63.28224
1,Breu Branco/PA,-3.7785073,-49.5684795,651,966.85083
D1,Breu Branco/PA,-3.7785073,-49.5684795,44,65.34783
1,Breves/PA,-1.68036,-50.479085,3909,3776.92107
D1,Breves/PA,-1.68036,-50.479085,110,106.28327
1,Britânia/GO,-15.2427599,-51.1602061,497,8573.40003
D1,Britânia/GO,-15.2427599,-51.1602061,4,69.00121
1,Brochier/RS,-29.556766,-51.5963047,397,7778.21317
D1,Brochier/RS,-29.556766,-51.5963047,5,97.96238
1,Brodowski/SP,-20.984532,-47.657217,2297,9087.31258
D1,Brodowski/SP,-20.984532,-47.657217,52,205.72062
1,Brotas de Macaúbas/BA,-12.0019007,-42.6257506,95,937.80849
D1,Brotas de Macaúbas/BA,-12.0019007,-42.6257506,3,29.61500
1,Brotas/SP,-22.2840884,-48.1267265,476,1932.13184
D1,Brotas/SP,-22.2840884,-48.1267265,34,138.00942
1,Brumadinho/MG,-20.143611,-44.2,3214,7903.40825
D1,Brumadinho/MG,-20.143611,-44.2,72,177.05208
1,Brumado/BA,-14.29507325,-41.659307508575985,8615,12794.23777
D1,Brumado/BA,-14.29507325,-41.659307508575985,176,261.37967
1,Brunópolis/SC,-27.310953,-50.837585,257,10853.04054
D1,Brunópolis/SC,-27.310953,-50.837585,8,337.83784
1,Brusque/SC,-27.0964628,-48.9136323,25194,18297.75799
D1,Brusque/SC,-27.0964628,-48.9136323,254,184.47371
1,Brás Pires/MG,-20.8483109,-43.2430524,193,4495.69066
D1,Brás Pires/MG,-20.8483109,-43.2430524,6,139.76240
1,Bueno Brandão/MG,-22.441976,-46.3517971,659,5995.81476
D1,Bueno Brandão/MG,-22.441976,-46.3517971,22,200.16377
1,Buenos Aires/PE,-7.7218931,-35.326587,285,2160.72782
D1,Buenos Aires/PE,-7.7218931,-35.326587,19,144.04852
1,Buenópolis/MG,-17.8756607,-44.1749365,305,2946.00599
D1,Buenópolis/MG,-17.8756607,-44.1749365,11,106.24940
1,Buerarema/BA,-14.9571177,-39.3008035,1278,6981.31760
D1,Buerarema/BA,-14.9571177,-39.3008035,38,207.58221
1,Bugre/MG,-19.4257687,-42.2556,358,8988.19985
D1,Bugre/MG,-19.4257687,-42.2556,12,301.28044
1,Bujari/AC,-9.8309656,-67.9520886,1119,10738.96353
D1,Bujari/AC,-9.8309656,-67.9520886,17,163.14779
1,Bujaru/PA,-1.5169239,-48.0410699,1364,4635.19897
D1,Bujaru/PA,-1.5169239,-48.0410699,37,125.73487
1,Buri/SP,-23.79849,-48.598924,2259,11314.80090
D1,Buri/SP,-23.79849,-48.598924,69,345.60481
1,Buritama/SP,-21.0664017,-50.1448077,2067,11961.11336
D1,Buritama/SP,-21.0664017,-50.1448077,57,329.84202
1,Buriti Alegre/GO,-18.1377879,-49.0404411,890,9384.22606
D1,Buriti Alegre/GO,-18.1377879,-49.0404411,29,305.77815
1,Buriti Bravo/MA,-5.8391884,-43.8367876,1358,5672.75158
D1,Buriti Bravo/MA,-5.8391884,-43.8367876,13,54.30469
1,Buriti de Goiás/GO,-16.180644,-50.4287479,183,7390.95315
D1,Buriti de Goiás/GO,-16.180644,-50.4287479,8,323.10178
1,Buriti do Tocantins/TO,-5.3187439,-48.2256609,870,7567.19144
D1,Buriti do Tocantins/TO,-5.3187439,-48.2256609,12,104.37505
1,Buriti dos Lopes/PI,-3.1776723,-41.8707444,1251,6315.94891
D1,Buriti dos Lopes/PI,-3.1776723,-41.8707444,30,151.46160
1,Buriti dos Montes/PI,-5.3136171,-41.0971256,611,7393.51404
D1,Buriti dos Montes/PI,-5.3136171,-41.0971256,7,84.70474
1,Buriti/MA,-3.9430944,-42.9244281,751,2607.81999
D1,Buriti/MA,-3.9430944,-42.9244281,7,24.30724
1,Buriticupu/MA,-4.3227472,-46.4516989,3160,4329.77543
D1,Buriticupu/MA,-4.3227472,-46.4516989,41,56.17747
1,Buritinópolis/GO,-14.4589282,-46.4293104,165,5025.89095
D1,Buritinópolis/GO,-14.4589282,-46.4293104,3,91.37984
1,Buritirama/BA,-10.7148421,-43.6362327,827,3887.00884
D1,Buritirama/BA,-10.7148421,-43.6362327,22,103.40290
1,Buritirana/MA,-5.5897455,-47.0148915,433,2799.50863
D1,Buritirana/MA,-5.5897455,-47.0148915,23,148.70369
1,Buritis/MG,-15.621389,-46.423889,1562,6244.75273
D1,Buritis/MG,-15.621389,-46.423889,32,127.93347
1,Buritis/RO,-10.2054937,-63.8281954,4432,10982.25790
D1,Buritis/RO,-10.2054937,-63.8281954,62,153.63267
1,Buritizal/SP,-20.1933264,-47.7097165,245,5427.55871
D1,Buritizal/SP,-20.1933264,-47.7097165,10,221.53301
1,Buritizeiro/MG,-17.3667765,-44.9647781,1154,4103.69475
D1,Buritizeiro/MG,-17.3667765,-44.9647781,29,103.12578
1,Butiá/RS,-30.1256795,-51.9692224,1880,8972.89042
D1,Butiá/RS,-30.1256795,-51.9692224,51,243.41352
1,Buíque/PE,-8.6239732,-37.157296,1987,3372.42655
D1,Buíque/PE,-8.6239732,-37.157296,40,67.88981
1,Bálsamo/SP,-20.7343722,-49.5807484,1405,15373.67327
D1,Bálsamo/SP,-20.7343722,-49.5807484,57,623.70062
0,CASO SEM LOCALIZAÇÃO DEFINIDA/BA,-13.415069300066518,-38.14174656569957,10452,70.27469
D0,CASO SEM LOCALIZAÇÃO DEFINIDA/BA,-13.415069300066518,-38.14174656569957,215,1.44557
0,CASO SEM LOCALIZAÇÃO DEFINIDA/CE,-3.3445126297392798,-38.624961942434304,10347,113.30389
0,CASO SEM LOCALIZAÇÃO DEFINIDA/ES,-20.30989267097039,-39.81745156645774,3833,95.38029
D0,CASO SEM LOCALIZAÇÃO DEFINIDA/ES,-20.30989267097039,-39.81745156645774,187,4.65330
0,CASO SEM LOCALIZAÇÃO DEFINIDA/GO,-16.701590966270153,-49.164524059025034,467,6.65398
D0,CASO SEM LOCALIZAÇÃO DEFINIDA/GO,-16.701590966270153,-49.164524059025034,35,0.49869
0,CASO SEM LOCALIZAÇÃO DEFINIDA/MG,-19.97049116501593,-43.8852149072783,10224,48.29751
D0,CASO SEM LOCALIZAÇÃO DEFINIDA/MG,-19.97049116501593,-43.8852149072783,827,3.90669
0,CASO SEM LOCALIZAÇÃO DEFINIDA/MT,-15.54791153961863,-56.17143998972475,2444,70.13987
D0,CASO SEM LOCALIZAÇÃO DEFINIDA/MT,-15.54791153961863,-56.17143998972475,185,5.30928
0,CASO SEM LOCALIZAÇÃO DEFINIDA/PA,-0.09317078214359542,-48.0050231510481,328,3.81268
D0,CASO SEM LOCALIZAÇÃO DEFINIDA/PA,-0.09317078214359542,-48.0050231510481,19,0.22086
0,CASO SEM LOCALIZAÇÃO DEFINIDA/PI,-2.683810218391744,-41.470898009352254,675,20.62185
D0,CASO SEM LOCALIZAÇÃO DEFINIDA/PI,-2.683810218391744,-41.470898009352254,21,0.64157
0,CASO SEM LOCALIZAÇÃO DEFINIDA/PR,-25.69415946385943,-48.10141676336737,11026,96.43206
D0,CASO SEM LOCALIZAÇÃO DEFINIDA/PR,-25.69415946385943,-48.10141676336737,275,2.40512
0,CASO SEM LOCALIZAÇÃO DEFINIDA/RR,2.813328208465927,-60.663338675861986,2571,424.42481
D0,CASO SEM LOCALIZAÇÃO DEFINIDA/RR,2.813328208465927,-60.663338675861986,14,2.31114
0,CASO SEM LOCALIZAÇÃO DEFINIDA/SP,-24.30968974555485,-46.21366504207253,825,1.79664
1,Caapiranga/AM,-3.3188884,-61.2096404,613,4614.92133
D1,Caapiranga/AM,-3.3188884,-61.2096404,21,158.09682
1,Caaporã/PB,-7.510234,-34.9154114,1738,7916.19221
D1,Caaporã/PB,-7.510234,-34.9154114,31,141.19790
1,Caarapó/MS,-22.6349267,-54.8240903,3484,11388.22606
D1,Caarapó/MS,-22.6349267,-54.8240903,32,104.59909
1,Caatiba/BA,-14.9782759,-40.4092325,802,12361.28237
D1,Caatiba/BA,-14.9782759,-40.4092325,10,154.13070
1,Cabaceiras do Paraguaçu/BA,-12.5377868,-39.1901339,515,2723.28275
D1,Cabaceiras do Paraguaçu/BA,-12.5377868,-39.1901339,4,21.15171
1,Cabaceiras/PB,-7.4899156,-36.2860501,335,5917.68239
D1,Cabaceiras/PB,-7.4899156,-36.2860501,3,52.99417
1,Cabeceira Grande/MG,-16.0297,-47.0906,352,5037.20664
D1,Cabeceira Grande/MG,-16.0297,-47.0906,5,71.55123
1,Cabeceiras do Piauí/PI,-4.4733665,-42.3098716,504,4741.29821
D1,Cabeceiras do Piauí/PI,-4.4733665,-42.3098716,10,94.07338
1,Cabeceiras/GO,-15.7995459,-46.9264991,313,3890.13174
D1,Cabeceiras/GO,-15.7995459,-46.9264991,14,173.99950
1,Cabedelo/PB,-6.97324,-34.8351609,8112,11796.35581
D1,Cabedelo/PB,-6.97324,-34.8351609,181,263.20764
1,Cabixi/RO,-13.4956065,-60.5424442,710,13685.42791
D1,Cabixi/RO,-13.4956065,-60.5424442,17,327.67926
1,Cabo Frio/RJ,-22.8804369,-42.0189227,11964,5193.20421
D1,Cabo Frio/RJ,-22.8804369,-42.0189227,634,275.19989
1,Cabo Verde/MG,-21.4743338,-46.3964995,564,4007.10480
D1,Cabo Verde/MG,-21.4743338,-46.3964995,6,42.62877
1,Cabo de Santo Agostinho/PE,-8.2838945,-35.0320984,6540,3130.02527
D1,Cabo de Santo Agostinho/PE,-8.2838945,-35.0320984,439,210.10414
1,Cabreúva/SP,-23.3075813,-47.1324417,3293,6529.97283
D1,Cabreúva/SP,-23.3075813,-47.1324417,81,160.62186
1,Cabrobó/PE,-8.5083701,-39.3106961,1999,5793.69910
D1,Cabrobó/PE,-8.5083701,-39.3106961,25,72.45747
1,Cabrália Paulista/SP,-22.4562909,-49.3385645,337,7942.49352
D1,Cabrália Paulista/SP,-22.4562909,-49.3385645,5,117.84115
1,Cacaulândia/RO,-10.3380043,-62.9007231,791,12617.64237
D1,Cacaulândia/RO,-10.3380043,-62.9007231,10,159.51507
1,Cacequi/RS,-29.8838059,-54.8273443,453,3646.46221
D1,Cacequi/RS,-29.8838059,-54.8273443,7,56.34710
1,Cachoeira Alta/GO,-18.7618269,-50.9432431,1313,10366.33507
D1,Cachoeira Alta/GO,-18.7618269,-50.9432431,19,150.00790
1,Cachoeira Dourada/GO,-18.4934204,-49.481062,396,4930.89279
D1,Cachoeira Dourada/GO,-18.4934204,-49.481062,20,249.03499
1,Cachoeira Dourada/MG,-18.517136,-49.5002062,138,5099.77827
D1,Cachoeira Dourada/MG,-18.517136,-49.5002062,2,73.90983
1,Cachoeira Grande/MA,-2.9290492,-44.0573223,258,2722.09327
D1,Cachoeira Grande/MA,-2.9290492,-44.0573223,6,63.30449
1,Cachoeira Paulista/SP,-22.666498,-45.015384,2220,6610.88115
D1,Cachoeira Paulista/SP,-22.666498,-45.015384,35,104.22560
1,Cachoeira da Prata/MG,-19.524723,-44.453056,226,6293.51156
D1,Cachoeira da Prata/MG,-19.524723,-44.453056,9,250.62657
1,Cachoeira de Goiás/GO,-16.6688414,-50.6435997,69,5141.57973
D1,Cachoeira de Goiás/GO,-16.6688414,-50.6435997,2,149.03130
1,Cachoeira de Minas/MG,-22.3554043,-45.7796324,556,4801.79636
D1,Cachoeira de Minas/MG,-22.3554043,-45.7796324,8,69.09060
1,Cachoeira de Pajeú/MG,-15.965833,-41.496666,470,4977.75895
D1,Cachoeira de Pajeú/MG,-15.965833,-41.496666,8,84.72781
1,Cachoeira do Arari/PA,-1.0143572,-48.9621089,455,1890.79122
D1,Cachoeira do Arari/PA,-1.0143572,-48.9621089,22,91.42287
1,Cachoeira do Piriá/PA,-1.7599443,-46.5446954,813,2349.09995
D1,Cachoeira do Piriá/PA,-1.7599443,-46.5446954,4,11.55769
1,Cachoeira do Sul/RS,-30.0474778,-52.8905413,8462,10336.02462
D1,Cachoeira do Sul/RS,-30.0474778,-52.8905413,127,155.12587
1,Cachoeira dos Índios/PB,-6.9259193,-38.6742159,699,6783.11499
D1,Cachoeira dos Índios/PB,-6.9259193,-38.6742159,14,135.85638
1,Cachoeira/BA,-12.5998256,-38.9665918,1426,4248.21998
D1,Cachoeira/BA,-12.5998256,-38.9665918,23,68.51968
1,Cachoeiras de Macacu/RJ,-22.4626861,-42.6534414,2671,4503.98799
D1,Cachoeiras de Macacu/RJ,-22.4626861,-42.6534414,87,146.70421
1,Cachoeirinha/PE,-8.4906364,-36.2338963,486,2370.61607
D1,Cachoeirinha/PE,-8.4906364,-36.2338963,26,126.82308
1,Cachoeirinha/RS,-29.9493353,-51.0898927,13062,9952.75831
D1,Cachoeirinha/RS,-29.9493353,-51.0898927,391,297.92746
1,Cachoeirinha/TO,-6.118647,-47.9208885,117,5122.59194
D1,Cachoeirinha/TO,-6.118647,-47.9208885,2,87.56567
1,Cachoeiro de Itapemirim/ES,-20.848084,-41.11129,24855,11802.61077
D1,Cachoeiro de Itapemirim/ES,-20.848084,-41.11129,523,248.35105
1,Cacimba de Areia/PB,-7.1288513,-37.1575194,33,893.09878
D1,Cacimba de Areia/PB,-7.1288513,-37.1575194,3,81.19080
1,Cacimba de Dentro/PB,-6.6425101,-35.7929304,1030,5996.04145
D1,Cacimba de Dentro/PB,-6.6425101,-35.7929304,30,174.64198
1,Cacimbas/PB,-7.2125451,-37.0593398,206,2861.50854
D1,Cacimbas/PB,-7.2125451,-37.0593398,6,83.34491
1,Cacimbinhas/AL,-9.401212,-36.991082,640,5877.49105
D1,Cacimbinhas/AL,-9.401212,-36.991082,8,73.46864
1,Cacique Doble/RS,-27.7700117,-51.6616409,481,9479.70043
D1,Cacique Doble/RS,-27.7700117,-51.6616409,10,197.08317
1,Cacoal/RO,-11.4333,-61.4420502,12405,14442.38762
D1,Cacoal/RO,-11.4333,-61.4420502,254,295.71676
1,Caconde/SP,-21.527995,-46.643659,1153,6065.54790
D1,Caconde/SP,-21.527995,-46.643659,26,136.77732
1,Caculé/BA,-14.4990734,-42.2233006,1412,6062.42755
D1,Caculé/BA,-14.4990734,-42.2233006,12,51.52205
1,Caetanos/BA,-14.3387456,-40.9085971,620,4244.24973
D1,Caetanos/BA,-14.3387456,-40.9085971,10,68.45564
1,Caetanópolis/MG,-19.2947496,-44.4138386,820,6979.31739
D1,Caetanópolis/MG,-19.2947496,-44.4138386,13,110.64771
1,Caetité/BA,-14.0691776,-42.4852428,2154,4216.83209
D1,Caetité/BA,-14.0691776,-42.4852428,24,46.98420
1,Caeté/MG,-19.897777,-43.670278,1789,3971.40764
D1,Caeté/MG,-19.897777,-43.670278,49,108.77528
1,Caetés/PE,-8.7728788,-36.6255835,1359,4701.77138
D1,Caetés/PE,-8.7728788,-36.6255835,18,62.27512
1,Cafarnaum/BA,-11.691399,-41.468823,828,4472.53281
D1,Cafarnaum/BA,-11.691399,-41.468823,20,108.03219
1,Cafeara/PR,-22.78905,-51.714195,257,8700.06770
D1,Cafeara/PR,-22.78905,-51.714195,10,338.52404
1,Cafelândia/PR,-24.6176963,-53.3218057,1807,9790.85392
D1,Cafelândia/PR,-24.6176963,-53.3218057,16,86.69267
1,Cafelândia/SP,-21.8054355,-49.6030627,686,3844.64496
D1,Cafelândia/SP,-21.8054355,-49.6030627,31,173.73760
1,Cafezal do Sul/PR,-23.900508,-53.512418,345,8605.63732
D1,Cafezal do Sul/PR,-23.900508,-53.512418,4,99.77551
1,Caiabu/SP,-22.0143038,-51.2356597,91,2170.28381
D1,Caiabu/SP,-22.0143038,-51.2356597,5,119.24636
1,Caiana/MG,-20.695555,-41.924723,132,2382.24147
D1,Caiana/MG,-20.695555,-41.924723,7,126.33099
1,Caiapônia/GO,-16.9538779,-51.8090761,1062,5558.17240
D1,Caiapônia/GO,-16.9538779,-51.8090761,34,177.94526
1,Caibaté/RS,-28.290475,-54.645407,217,4499.27431
D1,Caibaté/RS,-28.290475,-54.645407,7,145.13788
1,Caibi/SC,-27.0751925,-53.2502133,569,9282.21860
D1,Caibi/SC,-27.0751925,-53.2502133,11,179.44535
1,Caicó/RN,-6.4594544,-37.0971911,10036,14684.75191
D1,Caicó/RN,-6.4594544,-37.0971911,122,178.51133
1,Caieiras/SP,-23.3644621,-46.7484765,7245,7049.37971
D1,Caieiras/SP,-23.3644621,-46.7484765,260,252.97981
1,Cairu/BA,-13.4860505,-39.0455744,1176,6381.93955
D1,Cairu/BA,-13.4860505,-39.0455744,13,70.54865
1,Caiuá/SP,-21.8319357,-51.9887179,305,5129.49882
D1,Caiuá/SP,-21.8319357,-51.9887179,6,100.90817
1,Caiçara do Norte/RN,-5.0645017,-36.0561226,379,5776.55845
D1,Caiçara do Norte/RN,-5.0645017,-36.0561226,9,137.17421
1,Caiçara do Rio do Vento/RN,-5.757968,-36.00089,260,6998.65410
D1,Caiçara do Rio do Vento/RN,-5.757968,-36.00089,7,188.42530
1,Caiçara/PB,-6.6146866,-35.4681434,691,9609.23376
D1,Caiçara/PB,-6.6146866,-35.4681434,14,194.68780
1,Caiçara/RS,-27.2750478,-53.4310053,527,11212.76596
D1,Caiçara/RS,-27.2750478,-53.4310053,8,170.21277
1,Cajamar/SP,-23.3561111,-46.8769444,3831,4915.69790
D1,Cajamar/SP,-23.3561111,-46.8769444,187,239.94662
1,Cajapió/MA,-2.8778715,-44.6746871,81,722.18260
D1,Cajapió/MA,-2.8778715,-44.6746871,4,35.66334
1,Cajari/MA,-3.3213076,-45.0118757,201,1033.36589
D1,Cajari/MA,-3.3213076,-45.0118757,7,35.98787
1,Cajati/SP,-24.7272376,-48.1077914,3065,10756.65052
D1,Cajati/SP,-24.7272376,-48.1077914,83,291.28939
1,Cajazeiras do Piauí/PI,-6.794271,-42.3935024,56,1567.31038
D1,Cajazeiras do Piauí/PI,-6.794271,-42.3935024,1,27.98769
1,Cajazeiras/PB,-6.8897849,-38.5570389,7858,12615.38956
D1,Cajazeiras/PB,-6.8897849,-38.5570389,131,210.31001
1,Cajazeirinhas/PB,-6.961442,-37.7993733,144,4492.97972
1,Cajobi/SP,-20.8776238,-48.8106972,840,7927.51982
D1,Cajobi/SP,-20.8776238,-48.8106972,27,254.81314
1,Cajueiro da Praia/PI,-2.931114,-41.340801,474,6176.70055
D1,Cajueiro da Praia/PI,-2.931114,-41.340801,19,247.58926
1,Cajueiro/AL,-9.399589,-36.1524309,532,2494.02278
D1,Cajueiro/AL,-9.399589,-36.1524309,20,93.76026
1,Cajuri/MG,-20.7901414,-42.7954489,342,8605.93860
D1,Cajuri/MG,-20.7901414,-42.7954489,2,50.32713
1,Cajuru/SP,-21.2759978,-47.3046035,981,3716.89463
D1,Cajuru/SP,-21.2759978,-47.3046035,36,136.39980
1,Caldas Brandão/PB,-7.1027959,-35.3254676,498,8236.85081
D1,Caldas Brandão/PB,-7.1027959,-35.3254676,8,132.31889
1,Caldas Novas/GO,-17.745,-48.625,7916,8493.92678
D1,Caldas Novas/GO,-17.745,-48.625,197,211.38246
1,Caldas/MG,-21.923611,-46.386111,689,4738.32611
D1,Caldas/MG,-21.923611,-46.386111,24,165.05055
1,Caldazinha/GO,-16.7116649,-49.0012601,259,6730.76923
D1,Caldazinha/GO,-16.7116649,-49.0012601,5,129.93763
1,Caldeirão Grande do Piauí/PI,-7.3310393,-40.6374433,382,6607.85331
D1,Caldeirão Grande do Piauí/PI,-7.3310393,-40.6374433,2,34.59609
1,Caldeirão Grande/BA,-11.0208483,-40.3041387,552,4122.17161
D1,Caldeirão Grande/BA,-11.0208483,-40.3041387,6,44.80621
1,Califórnia/PR,-23.6672543,-51.3554556,933,10841.27353
D1,Califórnia/PR,-23.6672543,-51.3554556,21,244.01580
1,Calmon/SC,-26.6023644,-51.0992893,32,959.52024
D1,Calmon/SC,-26.6023644,-51.0992893,4,119.94003
1,Calumbi/PE,-7.9389746,-38.1516871,498,8665.39064
D1,Calumbi/PE,-7.9389746,-38.1516871,3,52.20115
1,Calçado/PE,-8.7413446,-36.3351787,410,3721.18352
D1,Calçado/PE,-8.7413446,-36.3351787,4,36.30423
1,Calçoene/AP,2.4981757,-50.9539503,1617,14302.14046
D1,Calçoene/AP,2.4981757,-50.9539503,10,88.44861
1,Camacan/BA,-15.4166631,-39.4930088,2661,8314.06611
D1,Camacan/BA,-15.4166631,-39.4930088,73,228.08223
1,Camacho/MG,-20.625556,-45.156667,49,1707.91216
D1,Camacho/MG,-20.625556,-45.156667,2,69.71070
1,Camalaú/PB,-7.885031,-36.824191,392,6499.75129
D1,Camalaú/PB,-7.885031,-36.824191,6,99.48599
1,Camamu/BA,-13.9438142,-39.1060917,2148,6070.88350
D1,Camamu/BA,-13.9438142,-39.1060917,45,127.18331
1,Camanducaia/MG,-22.755278,-46.144444,2621,12022.38429
D1,Camanducaia/MG,-22.755278,-46.144444,54,247.69506
1,Camapuã/MS,-19.5291747,-54.0434641,726,5301.97911
D1,Camapuã/MS,-19.5291747,-54.0434641,27,197.18104
1,Camaquã/RS,-30.8524752,-51.8075619,6345,9544.51097
D1,Camaquã/RS,-30.8524752,-51.8075619,130,195.55342
1,Camaragibe/PE,-8.0213832,-34.9810768,6039,3800.52738
D1,Camaragibe/PE,-8.0213832,-34.9810768,363,228.44700
1,Camargo/RS,-28.5865661,-52.2031474,358,13056.16338
D1,Camargo/RS,-28.5865661,-52.2031474,5,182.34865
1,Camaçari/BA,-12.6998188,-38.3260762,22057,7248.39140
D1,Camaçari/BA,-12.6998188,-38.3260762,558,183.37047
1,Cambará do Sul/RS,-29.0489517,-50.145412,294,4589.44739
D1,Cambará do Sul/RS,-29.0489517,-50.145412,10,156.10365
1,Cambará/PR,-23.042273,-50.075281,2078,8159.89947
D1,Cambará/PR,-23.042273,-50.075281,43,168.85259
1,Cambira/PR,-23.600265,-51.581045,737,9309.08172
D1,Cambira/PR,-23.600265,-51.581045,16,202.09675
1,Camboriú/SC,-27.0273601,-48.6535657,11656,13696.02256
D1,Camboriú/SC,-27.0273601,-48.6535657,149,175.07785
1,Cambuci/RJ,-21.5749919,-41.9107833,921,5936.57342
D1,Cambuci/RJ,-21.5749919,-41.9107833,31,199.81952
1,Cambuquira/MG,-21.853056,-45.2953619,547,4269.43490
D1,Cambuquira/MG,-21.853056,-45.2953619,16,124.88292
1,Cambuí/MG,-22.6122501,-46.0572137,3166,10619.17220
D1,Cambuí/MG,-22.6122501,-46.0572137,49,164.35232
1,Cambé/PR,-23.2782035,-51.2779583,9810,9139.09876
D1,Cambé/PR,-23.2782035,-51.2779583,210,195.63820
1,Cametá/PA,-2.242949,-49.497885,8320,5969.97790
D1,Cametá/PA,-2.242949,-49.497885,225,161.44772
1,Camocim de São Félix/PE,-8.3616757,-35.7638903,453,2396.82540
D1,Camocim de São Félix/PE,-8.3616757,-35.7638903,14,74.07407
1,Camocim/CE,-2.9009918,-40.8427389,5703,8923.90505
D1,Camocim/CE,-2.9009918,-40.8427389,159,248.79904
1,Campanha/MG,-21.8361108,-45.401986,1381,8238.87364
D1,Campanha/MG,-21.8361108,-45.401986,29,173.01038
1,Campanário/MG,-18.2398144,-41.7271768,209,5603.21716
D1,Campanário/MG,-18.2398144,-41.7271768,3,80.42895
1,Campestre da Serra/RS,-28.7966535,-51.0958149,189,5567.01031
D1,Campestre da Serra/RS,-28.7966535,-51.0958149,1,29.45508
1,Campestre de Goiás/GO,-16.7624179,-49.69497,473,12962.45547
D1,Campestre de Goiás/GO,-16.7624179,-49.69497,14,383.66676
1,Campestre do Maranhão/MA,-6.1729113,-47.3640512,1011,6995.08753
D1,Campestre do Maranhão/MA,-6.1729113,-47.3640512,42,290.59711
1,Campestre/AL,-8.8481634,-35.5660033,245,3523.15214
D1,Campestre/AL,-8.8481634,-35.5660033,6,86.28128
1,Campestre/MG,-19.6142116,-43.219378,1359,6454.83044
D1,Campestre/MG,-19.6142116,-43.219378,28,132.99136
1,Campina Grande do Sul/PR,-25.3046032,-49.0545355,4581,10486.43699
D1,Campina Grande do Sul/PR,-25.3046032,-49.0545355,111,254.09179
1,Campina Grande/PB,-7.2246743,-35.8771292,29951,7273.06724
D1,Campina Grande/PB,-7.2246743,-35.8771292,904,219.52031
1,Campina Verde/MG,-19.535277,-49.486389,1027,5199.47347
D1,Campina Verde/MG,-19.535277,-49.486389,27,136.69502
